$GPGGA,224538.000,4910.33601,N,12304.27943,W,1,07,1.0,-00.79,M,-16.8,M,,*47
$GPRMC,224538.000,A,4910.33601,N,12304.27943,W,0.0,0.0,250419,,,A*79
$GPGGA,224539.000,4910.33618,N,12304.27951,W,1,09,0.8,-00.68,M,-16.8,M,,*4A
$GPRMC,224539.000,A,4910.33618,N,12304.27951,W,0.0,0.0,250419,,,A*73
$GPGGA,224540.000,4910.33620,N,12304.27950,W,1,08,0.9,-00.84,M,-16.8,M,,*4C
$GPRMC,224540.000,A,4910.33620,N,12304.27950,W,0.0,0.0,250419,,,A*77
$GPGGA,224541.000,4910.33620,N,12304.27950,W,1,08,0.9,-00.87,M,-16.8,M,,*4E
$GPRMC,224541.000,A,4910.33620,N,12304.27950,W,0.0,0.0,250419,,,A*76
$GPGGA,224542.000,4910.33620,N,12304.27950,W,1,08,0.9,-00.63,M,-16.8,M,,*47
$GPRMC,224542.000,A,4910.33620,N,12304.27950,W,0.0,0.0,250419,,,A*75
$GPGGA,224543.000,4910.33620,N,12304.27950,W,1,08,0.9,-00.17,M,-16.8,M,,*45
$GPRMC,224543.000,A,4910.33620,N,12304.27950,W,0.0,0.0,250419,,,A*74
$GPGGA,224548.000,4910.33620,N,12304.27950,W,1,09,0.8,001.25,M,-16.8,M,,*53
$GPRMC,224548.000,A,4910.33620,N,12304.27950,W,0.0,0.0,250419,,,A*7F
$GPGGA,224549.000,4910.33620,N,12304.27950,W,1,09,0.8,001.99,M,-16.8,M,,*55
$GPRMC,224549.000,A,4910.33620,N,12304.27950,W,0.0,0.0,250419,,,A*7E
$GPGGA,224550.000,4910.33620,N,12304.27950,W,1,09,0.8,002.49,M,-16.8,M,,*53
$GPRMC,224550.000,A,4910.33620,N,12304.27950,W,0.0,0.0,250419,,,A*76
$GPGGA,224551.000,4910.33620,N,12304.27950,W,1,09,0.8,002.75,M,-16.8,M,,*5D
$GPRMC,224551.000,A,4910.33620,N,12304.27950,W,0.0,0.0,250419,,,A*77
$GPGGA,224557.000,4910.33620,N,12304.27950,W,1,09,0.8,004.49,M,-16.8,M,,*52
$GPRMC,224557.000,A,4910.33620,N,12304.27950,W,0.0,0.0,250419,,,A*71
$GPGGA,224559.000,4910.33620,N,12304.27950,W,1,09,0.8,004.52,M,-16.8,M,,*56
$GPRMC,224559.000,A,4910.33620,N,12304.27950,W,0.0,0.0,250419,,,A*7F
$GPGGA,224610.000,4910.33537,N,12304.28698,W,1,09,0.8,003.57,M,-16.8,M,,*5B
$GPRMC,224610.000,A,4910.33537,N,12304.28698,W,4.4,249.7,250419,,,A*78
$GPGGA,224616.000,4910.33381,N,12304.29786,W,1,10,0.8,003.79,M,-16.8,M,,*5D
$GPRMC,224616.000,A,4910.33381,N,12304.29786,W,2.9,265.0,250419,,,A*78
$GPGGA,224617.000,4910.33375,N,12304.29905,W,1,11,0.8,003.65,M,-16.8,M,,*5E
$GPRMC,224617.000,A,4910.33375,N,12304.29905,W,1.9,267.8,250419,,,A*7E
$GPGGA,224618.000,4910.33375,N,12304.29995,W,1,11,0.8,003.59,M,-16.8,M,,*57
$GPRMC,224618.000,A,4910.33375,N,12304.29995,W,2.2,280.3,250419,,,A*72
$GPGGA,224619.000,4910.33402,N,12304.30068,W,1,12,0.8,003.35,M,-16.8,M,,*5B
$GPRMC,224619.000,A,4910.33402,N,12304.30068,W,2.1,297.6,250419,,,A*77
$GPGGA,224620.000,4910.33428,N,12304.30137,W,1,12,0.8,003.22,M,-16.8,M,,*54
$GPRMC,224620.000,A,4910.33428,N,12304.30137,W,2.0,310.4,250419,,,A*73
$GPRMC,224621.000,A,4910.33457,N,12304.30205,W,2.0,324.8,250419,,,A*73
$GPGGA,224622.000,4910.33494,N,12304.30259,W,1,11,0.8,003.17,M,-16.8,M,,*5F
$GPGGA,224623.000,4910.33542,N,12304.30328,W,1,11,0.8,002.88,M,-16.8,M,,*54
$GPRMC,224623.000,A,4910.33542,N,12304.30328,W,2.4,345.5,250419,,,A*74
$GPGGA,224624.000,4910.33573,N,12304.30352,W,1,11,0.8,002.94,M,-16.8,M,,*51
$GPRMC,224624.000,A,4910.33573,N,12304.30352,W,2.5,350.3,250419,,,A*7F
$GPGGA,224625.000,4910.33628,N,12304.30381,W,1,11,0.8,003.24,M,-16.8,M,,*59
$GPRMC,224625.000,A,4910.33628,N,12304.30381,W,2.6,350.6,250419,,,A*7B
$GPGGA,224627.000,4910.33743,N,12304.30439,W,1,11,0.8,003.70,M,-16.8,M,,*52
$GPRMC,224627.000,A,4910.33743,N,12304.30439,W,2.2,354.0,250419,,,A*77
$GPGGA,224628.000,4910.33779,N,12304.30421,W,1,11,0.8,003.70,M,-16.8,M,,*5D
$GPRMC,224628.000,A,4910.33779,N,12304.30421,W,2.2,357.7,250419,,,A*7C
$GPRMC,224629.000,A,4910.33831,N,12304.30418,W,2.3,354.6,250419,,,A*77
$GPGGA,224630.000,4910.33890,N,12304.30449,W,1,11,0.8,003.45,M,-16.8,M,,*54
$GPRMC,224630.000,A,4910.33890,N,12304.30449,W,2.2,356.0,250419,,,A*75
$GPGGA,224631.000,4910.33951,N,12304.30455,W,1,11,0.8,003.69,M,-16.8,M,,*5A
$GPRMC,224631.000,A,4910.33951,N,12304.30455,W,2.1,356.6,250419,,,A*70
$GPGGA,224632.000,4910.34008,N,12304.30476,W,1,10,0.8,003.61,M,-16.8,M,,*53
$GPRMC,224632.000,A,4910.34008,N,12304.30476,W,2.1,357.6,250419,,,A*71
$GPGGA,224633.000,4910.34070,N,12304.30462,W,1,10,0.8,003.94,M,-16.8,M,,*52
$GPRMC,224633.000,A,4910.34070,N,12304.30462,W,2.5,357.5,250419,,,A*7D
$GPGGA,224634.000,4910.34138,N,12304.30472,W,1,10,0.8,004.04,M,-16.8,M,,*57
$GPRMC,224634.000,A,4910.34138,N,12304.30472,W,2.6,359.3,250419,,,A*7D
$GPGGA,224635.000,4910.34207,N,12304.30479,W,1,10,0.8,004.24,M,-16.8,M,,*50
$GPRMC,224635.000,A,4910.34207,N,12304.30479,W,2.2,355.2,250419,,,A*71
$GPGGA,224636.000,4910.34253,N,12304.30472,W,1,10,0.8,004.00,M,-16.8,M,,*5F
$GPRMC,224636.000,A,4910.34253,N,12304.30472,W,1.7,358.2,250419,,,A*73
$GPGGA,224637.000,4910.34278,N,12304.30470,W,1,11,0.8,004.13,M,-16.8,M,,*56
$GPRMC,224637.000,A,4910.34278,N,12304.30470,W,0.9,358.1,250419,,,A*75
$GPGGA,224638.000,4910.34284,N,12304.30463,W,1,11,0.8,004.04,M,-16.8,M,,*5E
$GPRMC,224638.000,A,4910.34284,N,12304.30463,W,0.3,346.0,250419,,,A*7F
$GPGGA,224639.000,4910.34286,N,12304.30464,W,1,11,0.8,004.04,M,-16.8,M,,*5A
$GPRMC,224639.000,A,4910.34286,N,12304.30464,W,0.3,0.0,250419,,,A*7A
$GPGGA,224640.000,4910.34286,N,12304.30464,W,1,11,0.8,004.04,M,-16.8,M,,*54
$GPRMC,224640.000,A,4910.34286,N,12304.30464,W,0.8,0.0,250419,,,A*7F
$GPGGA,224641.000,4910.34286,N,12304.30464,W,1,11,0.8,004.04,M,-16.8,M,,*55
$GPRMC,224641.000,A,4910.34286,N,12304.30464,W,1.1,0.0,250419,,,A*76
$GPGGA,224642.000,4910.34286,N,12304.30464,W,1,10,0.8,004.04,M,-16.8,M,,*57
$GPRMC,224642.000,A,4910.34286,N,12304.30464,W,0.8,0.0,250419,,,A*7D
$GPGGA,224643.000,4910.34286,N,12304.30464,W,1,10,0.8,004.04,M,-16.8,M,,*56
$GPRMC,224643.000,A,4910.34286,N,12304.30464,W,1.4,0.0,250419,,,A*71
$GPGGA,224644.000,4910.34286,N,12304.30464,W,1,10,0.8,004.04,M,-16.8,M,,*51
$GPRMC,224644.000,A,4910.34286,N,12304.30464,W,1.8,0.0,250419,,,A*7A
$GPGGA,224645.000,4910.34357,N,12304.30443,W,1,10,0.8,004.20,M,-16.8,M,,*5E
$GPRMC,224645.000,A,4910.34357,N,12304.30443,W,1.6,358.5,250419,,,A*76
$GPGGA,224646.000,4910.34420,N,12304.30434,W,1,10,0.8,004.24,M,-16.8,M,,*5E
$GPRMC,224646.000,A,4910.34420,N,12304.30434,W,1.0,358.2,250419,,,A*73
$GPGGA,224647.000,4910.34438,N,12304.30396,W,1,10,0.9,004.75,M,-16.8,M,,*5C
$GPRMC,224647.000,A,4910.34438,N,12304.30396,W,0.2,0.0,250419,,,A*7B
$GPGGA,224648.000,4910.34436,N,12304.30398,W,1,10,0.9,004.75,M,-16.8,M,,*53
$GPRMC,224648.000,A,4910.34436,N,12304.30398,W,0.1,0.0,250419,,,A*77
$GPGGA,224649.000,4910.34436,N,12304.30398,W,1,10,0.9,004.75,M,-16.8,M,,*52
$GPRMC,224649.000,A,4910.34436,N,12304.30398,W,0.0,0.0,250419,,,A*77
$GPGGA,224650.000,4910.34436,N,12304.30398,W,1,10,0.9,004.75,M,-16.8,M,,*5A
$GPRMC,224650.000,A,4910.34436,N,12304.30398,W,0.0,0.0,250419,,,A*7F
$GPGGA,224651.000,4910.34436,N,12304.30398,W,1,11,0.9,004.75,M,-16.8,M,,*5A
$GPRMC,224651.000,A,4910.34436,N,12304.30398,W,0.0,0.0,250419,,,A*7E
$GPGGA,224652.000,4910.34436,N,12304.30398,W,1,10,0.9,004.75,M,-16.8,M,,*58
$GPRMC,224652.000,A,4910.34436,N,12304.30398,W,0.7,0.0,250419,,,A*7A
$GPGGA,224653.000,4910.34436,N,12304.30398,W,1,11,0.9,004.75,M,-16.8,M,,*58
$GPRMC,224653.000,A,4910.34436,N,12304.30398,W,1.1,0.0,250419,,,A*7C
$GPGGA,224654.000,4910.34436,N,12304.30398,W,1,11,0.9,004.75,M,-16.8,M,,*5F
$GPRMC,224654.000,A,4910.34436,N,12304.30398,W,1.0,0.0,250419,,,A*7A
$GPGGA,224655.000,4910.34436,N,12304.30398,W,1,11,0.9,004.75,M,-16.8,M,,*5E
$GPRMC,224655.000,A,4910.34436,N,12304.30398,W,0.6,0.0,250419,,,A*7C
$GPGGA,224656.000,4910.34436,N,12304.30398,W,1,11,0.9,004.75,M,-16.8,M,,*5D
$GPRMC,224656.000,A,4910.34436,N,12304.30398,W,0.3,0.0,250419,,,A*7A
$GPGGA,224657.000,4910.34436,N,12304.30398,W,1,11,0.9,004.75,M,-16.8,M,,*5C
$GPRMC,224657.000,A,4910.34436,N,12304.30398,W,0.1,0.0,250419,,,A*79
$GPGGA,224658.000,4910.34436,N,12304.30398,W,1,11,0.9,004.75,M,-16.8,M,,*53
$GPRMC,224658.000,A,4910.34436,N,12304.30398,W,0.0,0.0,250419,,,A*77
$GPGGA,224659.000,4910.34436,N,12304.30398,W,1,11,0.8,004.75,M,-16.8,M,,*53
$GPRMC,224659.000,A,4910.34436,N,12304.30398,W,0.5,0.0,250419,,,A*73
$GPGGA,224700.000,4910.34436,N,12304.30398,W,1,12,0.8,004.75,M,-16.8,M,,*5D
$GPRMC,224700.000,A,4910.34436,N,12304.30398,W,0.5,0.0,250419,,,A*7E
$GPGGA,224701.000,4910.34436,N,12304.30398,W,1,12,0.8,004.75,M,-16.8,M,,*5C
$GPRMC,224701.000,A,4910.34436,N,12304.30398,W,0.3,0.0,250419,,,A*79
$GPGGA,224702.000,4910.34436,N,12304.30398,W,1,11,0.8,004.75,M,-16.8,M,,*5C
$GPRMC,224702.000,A,4910.34436,N,12304.30398,W,0.1,0.0,250419,,,A*78
$GPGGA,224703.000,4910.34436,N,12304.30398,W,1,11,0.8,004.75,M,-16.8,M,,*5D
$GPRMC,224703.000,A,4910.34436,N,12304.30398,W,0.2,0.0,250419,,,A*7A
$GPGGA,224704.000,4910.34436,N,12304.30398,W,1,11,0.8,004.75,M,-16.8,M,,*5A
$GPRMC,224704.000,A,4910.34436,N,12304.30398,W,0.6,0.0,250419,,,A*79
$GPGGA,224705.000,4910.34436,N,12304.30398,W,1,11,0.8,004.75,M,-16.8,M,,*5B
$GPRMC,224705.000,A,4910.34436,N,12304.30398,W,0.6,0.0,250419,,,A*78
$GPGGA,224706.000,4910.34436,N,12304.30398,W,1,11,0.8,004.75,M,-16.8,M,,*58
$GPRMC,224706.000,A,4910.34436,N,12304.30398,W,0.4,0.0,250419,,,A*79
$GPGGA,224707.000,4910.34436,N,12304.30398,W,1,10,0.8,004.75,M,-16.8,M,,*58
$GPRMC,224707.000,A,4910.34436,N,12304.30398,W,0.1,0.0,250419,,,A*7D
$GPGGA,224708.000,4910.34436,N,12304.30398,W,1,11,0.8,004.75,M,-16.8,M,,*56
$GPRMC,224708.000,A,4910.34436,N,12304.30398,W,0.0,0.0,250419,,,A*73
$GPGGA,224709.000,4910.34436,N,12304.30398,W,1,12,0.8,004.75,M,-16.8,M,,*54
$GPRMC,224709.000,A,4910.34436,N,12304.30398,W,0.1,0.0,250419,,,A*73
$GPGGA,224710.000,4910.34436,N,12304.30398,W,1,11,0.8,004.75,M,-16.8,M,,*5F
$GPRMC,224710.000,A,4910.34436,N,12304.30398,W,0.0,0.0,250419,,,A*7A
$GPGGA,224711.000,4910.34436,N,12304.30398,W,1,10,0.9,004.75,M,-16.8,M,,*5E
$GPRMC,224711.000,A,4910.34436,N,12304.30398,W,0.0,0.0,250419,,,A*7B
$GPGGA,224712.000,4910.34436,N,12304.30398,W,1,10,0.9,004.75,M,-16.8,M,,*5D
$GPRMC,224712.000,A,4910.34436,N,12304.30398,W,0.0,0.0,250419,,,A*78
$GPGGA,224713.000,4910.34436,N,12304.30398,W,1,10,0.9,004.75,M,-16.8,M,,*5C
$GPRMC,224713.000,A,4910.34436,N,12304.30398,W,0.0,0.0,250419,,,A*79
$GPGGA,224714.000,4910.34436,N,12304.30398,W,1,10,0.9,004.75,M,-16.8,M,,*5B
$GPRMC,224714.000,A,4910.34436,N,12304.30398,W,0.0,0.0,250419,,,A*7E
$GPGGA,224715.000,4910.34436,N,12304.30398,W,1,10,0.9,004.75,M,-16.8,M,,*5A
$GPRMC,224715.000,A,4910.34436,N,12304.30398,W,0.0,0.0,250419,,,A*7F
$GPGGA,224716.000,4910.34436,N,12304.30398,W,1,10,0.9,004.75,M,-16.8,M,,*59
$GPRMC,224716.000,A,4910.34436,N,12304.30398,W,0.2,0.0,250419,,,A*7E
$GPGGA,224717.000,4910.34436,N,12304.30398,W,1,10,0.9,004.75,M,-16.8,M,,*58
$GPRMC,224717.000,A,4910.34436,N,12304.30398,W,0.6,0.0,250419,,,A*7B
$GPGGA,224718.000,4910.34436,N,12304.30398,W,1,10,0.9,004.75,M,-16.8,M,,*57
$GPRMC,224718.000,A,4910.34436,N,12304.30398,W,0.9,0.0,250419,,,A*7B
$GPGGA,224719.000,4910.34436,N,12304.30398,W,1,11,0.9,004.75,M,-16.8,M,,*57
$GPRMC,224719.000,A,4910.34436,N,12304.30398,W,1.3,0.0,250419,,,A*71
$GPGGA,224720.000,4910.34436,N,12304.30398,W,1,11,0.9,004.75,M,-16.8,M,,*5D
$GPRMC,224720.000,A,4910.34436,N,12304.30398,W,1.3,0.0,250419,,,A*7B
$GPGGA,224721.000,4910.34438,N,12304.30396,W,1,11,0.9,004.75,M,-16.8,M,,*5C
$GPRMC,224721.000,A,4910.34438,N,12304.30396,W,0.2,13.2,250419,,,A*4A
$GPGGA,224722.000,4910.34438,N,12304.30396,W,1,11,0.9,004.75,M,-16.8,M,,*5F
$GPRMC,224722.000,A,4910.34438,N,12304.30396,W,0.0,0.0,250419,,,A*7B
$GPGGA,224723.000,4910.34436,N,12304.30398,W,1,11,0.9,004.75,M,-16.8,M,,*5E
$GPRMC,224723.000,A,4910.34436,N,12304.30398,W,0.0,0.0,250419,,,A*7A
$GPGGA,224724.000,4910.34436,N,12304.30398,W,1,11,0.9,004.75,M,-16.8,M,,*59
$GPRMC,224724.000,A,4910.34436,N,12304.30398,W,0.0,0.0,250419,,,A*7D
$GPGGA,224725.000,4910.34436,N,12304.30398,W,1,11,0.9,004.75,M,-16.8,M,,*58
$GPRMC,224725.000,A,4910.34436,N,12304.30398,W,0.0,0.0,250419,,,A*7C
$GPGGA,224726.000,4910.34436,N,12304.30398,W,1,11,0.9,004.75,M,-16.8,M,,*5B
$GPRMC,224726.000,A,4910.34436,N,12304.30398,W,0.0,0.0,250419,,,A*7F
$GPGGA,224727.000,4910.34436,N,12304.30398,W,1,11,0.9,005.23,M,-16.8,M,,*58
$GPRMC,224727.000,A,4910.34436,N,12304.30398,W,0.0,0.0,250419,,,A*7E
$GPGGA,224728.000,4910.34436,N,12304.30398,W,1,11,0.9,005.23,M,-16.8,M,,*57
$GPRMC,224728.000,A,4910.34436,N,12304.30398,W,0.0,0.0,250419,,,A*71
$GPGGA,224729.000,4910.34436,N,12304.30398,W,1,11,0.9,005.23,M,-16.8,M,,*56
$GPRMC,224729.000,A,4910.34436,N,12304.30398,W,0.0,0.0,250419,,,A*70
$GPGGA,224730.000,4910.34436,N,12304.30398,W,1,11,0.9,005.23,M,-16.8,M,,*5E
$GPRMC,224730.000,A,4910.34436,N,12304.30398,W,0.0,0.0,250419,,,A*78
$GPGGA,224731.000,4910.34436,N,12304.30398,W,1,11,0.9,005.23,M,-16.8,M,,*5F
$GPRMC,224731.000,A,4910.34436,N,12304.30398,W,0.0,0.0,250419,,,A*79
$GPGGA,224732.000,4910.34436,N,12304.30398,W,1,11,0.9,005.23,M,-16.8,M,,*5C
$GPRMC,224732.000,A,4910.34436,N,12304.30398,W,0.0,0.0,250419,,,A*7A
$GPGGA,224733.000,4910.34436,N,12304.30398,W,1,11,0.9,005.23,M,-16.8,M,,*5D
$GPRMC,224733.000,A,4910.34436,N,12304.30398,W,0.0,0.0,250419,,,A*7B
$GPGGA,224734.000,4910.34436,N,12304.30398,W,1,11,0.9,005.23,M,-16.8,M,,*5A
$GPRMC,224734.000,A,4910.34436,N,12304.30398,W,0.0,0.0,250419,,,A*7C
$GPGGA,224735.000,4910.34436,N,12304.30398,W,1,11,0.9,005.23,M,-16.8,M,,*5B
$GPRMC,224735.000,A,4910.34436,N,12304.30398,W,0.0,0.0,250419,,,A*7D
$GPGGA,224736.000,4910.34436,N,12304.30398,W,1,11,0.9,005.23,M,-16.8,M,,*58
$GPRMC,224736.000,A,4910.34436,N,12304.30398,W,0.0,0.0,250419,,,A*7E
$GPGGA,224737.000,4910.34436,N,12304.30398,W,1,11,0.9,005.23,M,-16.8,M,,*59
$GPRMC,224737.000,A,4910.34436,N,12304.30398,W,0.0,0.0,250419,,,A*7F
$GPGGA,224738.000,4910.34436,N,12304.30398,W,1,11,0.9,005.23,M,-16.8,M,,*56
$GPRMC,224738.000,A,4910.34436,N,12304.30398,W,0.0,0.0,250419,,,A*70
$GPGGA,224739.000,4910.34436,N,12304.30398,W,1,12,0.9,005.23,M,-16.8,M,,*54
$GPRMC,224739.000,A,4910.34436,N,12304.30398,W,0.1,0.0,250419,,,A*70
$GPGGA,224740.000,4910.34436,N,12304.30398,W,1,12,0.9,005.23,M,-16.8,M,,*5A
$GPRMC,224740.000,A,4910.34436,N,12304.30398,W,0.1,0.0,250419,,,A*7E
$GPGGA,224741.000,4910.34436,N,12304.30398,W,1,12,0.9,005.23,M,-16.8,M,,*5B
$GPRMC,224741.000,A,4910.34436,N,12304.30398,W,0.0,0.0,250419,,,A*7E
$GPGGA,224742.000,4910.34436,N,12304.30398,W,1,12,0.9,005.23,M,-16.8,M,,*58
$GPRMC,224742.000,A,4910.34436,N,12304.30398,W,0.0,0.0,250419,,,A*7D
$GPGGA,224743.000,4910.34436,N,12304.30398,W,1,12,0.9,005.23,M,-16.8,M,,*59
$GPRMC,224743.000,A,4910.34436,N,12304.30398,W,0.0,0.0,250419,,,A*7C
$GPGGA,224744.000,4910.34436,N,12304.30398,W,1,11,0.9,005.23,M,-16.8,M,,*5D
$GPRMC,224744.000,A,4910.34436,N,12304.30398,W,0.0,0.0,250419,,,A*7B
$GPGGA,224745.000,4910.34436,N,12304.30398,W,1,11,0.9,005.23,M,-16.8,M,,*5C
$GPRMC,224745.000,A,4910.34436,N,12304.30398,W,0.1,0.0,250419,,,A*7B
$GPGGA,224746.000,4910.34436,N,12304.30398,W,1,11,0.9,005.23,M,-16.8,M,,*5F
$GPRMC,224746.000,A,4910.34436,N,12304.30398,W,0.0,0.0,250419,,,A*79
$GPGGA,224747.000,4910.34436,N,12304.30398,W,1,11,0.9,005.23,M,-16.8,M,,*5E
$GPRMC,224747.000,A,4910.34436,N,12304.30398,W,0.0,0.0,250419,,,A*78
$GPGGA,224748.000,4910.34436,N,12304.30398,W,1,12,0.9,005.23,M,-16.8,M,,*52
$GPRMC,224748.000,A,4910.34436,N,12304.30398,W,0.0,0.0,250419,,,A*77
$GPGGA,224749.000,4910.34436,N,12304.30398,W,1,12,0.9,005.23,M,-16.8,M,,*53
$GPRMC,224749.000,A,4910.34436,N,12304.30398,W,0.0,0.0,250419,,,A*76
$GPGGA,224750.000,4910.34436,N,12304.30398,W,1,12,0.9,005.23,M,-16.8,M,,*5B
$GPRMC,224750.000,A,4910.34436,N,12304.30398,W,0.0,0.0,250419,,,A*7E
$GPGGA,224751.000,4910.34436,N,12304.30398,W,1,11,0.9,005.23,M,-16.8,M,,*59
$GPRMC,224751.000,A,4910.34436,N,12304.30398,W,0.3,0.0,250419,,,A*7C
$GPGGA,224752.000,4910.34436,N,12304.30398,W,1,11,0.9,005.23,M,-16.8,M,,*5A
$GPRMC,224752.000,A,4910.34436,N,12304.30398,W,0.8,0.0,250419,,,A*74
$GPGGA,224753.000,4910.34436,N,12304.30398,W,1,11,0.9,005.23,M,-16.8,M,,*5B
$GPRMC,224753.000,A,4910.34436,N,12304.30398,W,1.2,0.0,250419,,,A*7E
$GPGGA,224754.000,4910.34436,N,12304.30398,W,1,12,0.8,005.23,M,-16.8,M,,*5E
$GPRMC,224754.000,A,4910.34436,N,12304.30398,W,1.5,0.0,250419,,,A*7E
$GPGGA,224755.000,4910.34560,N,12304.30462,W,1,12,0.8,005.23,M,-16.8,M,,*5F
$GPRMC,224755.000,A,4910.34560,N,12304.30462,W,1.6,0.4,250419,,,A*78
$GPGGA,224756.000,4910.34560,N,12304.30462,W,1,11,0.8,005.23,M,-16.8,M,,*5F
$GPRMC,224756.000,A,4910.34560,N,12304.30462,W,1.5,359.8,250419,,,A*7B
$GPGGA,224757.000,4910.34560,N,12304.30462,W,1,11,0.8,005.23,M,-16.8,M,,*5E
$GPRMC,224757.000,A,4910.34560,N,12304.30462,W,1.4,0.0,250419,,,A*7C
$GPGGA,224758.000,4910.34560,N,12304.30462,W,1,11,0.8,005.23,M,-16.8,M,,*51
$GPRMC,224758.000,A,4910.34560,N,12304.30462,W,1.0,2.4,250419,,,A*71
$GPGGA,224759.000,4910.34560,N,12304.30462,W,1,12,0.8,005.23,M,-16.8,M,,*53
$GPRMC,224759.000,A,4910.34560,N,12304.30462,W,0.0,0.0,250419,,,A*77
$GPGGA,224800.000,4910.34562,N,12304.30464,W,1,11,0.8,005.23,M,-16.8,M,,*57
$GPRMC,224800.000,A,4910.34562,N,12304.30464,W,0.0,0.0,250419,,,A*70
$GPGGA,224801.000,4910.34562,N,12304.30464,W,1,12,0.8,005.23,M,-16.8,M,,*55
$GPRMC,224801.000,A,4910.34562,N,12304.30464,W,0.0,0.0,250419,,,A*71
$GPGGA,224802.000,4910.34562,N,12304.30464,W,1,12,0.8,005.23,M,-16.8,M,,*56
$GPRMC,224802.000,A,4910.34562,N,12304.30464,W,0.0,0.0,250419,,,A*72
$GPGGA,224803.000,4910.34562,N,12304.30464,W,1,13,0.8,005.23,M,-16.8,M,,*56
$GPRMC,224803.000,A,4910.34562,N,12304.30464,W,0.0,0.0,250419,,,A*73
$GPGGA,224804.000,4910.34562,N,12304.30464,W,1,13,0.8,005.23,M,-16.8,M,,*51
$GPRMC,224804.000,A,4910.34562,N,12304.30464,W,0.0,0.0,250419,,,A*74
$GPGGA,224805.000,4910.34562,N,12304.30464,W,1,12,0.8,005.23,M,-16.8,M,,*51
$GPRMC,224805.000,A,4910.34562,N,12304.30464,W,0.0,0.0,250419,,,A*75
$GPGGA,224806.000,4910.34562,N,12304.30464,W,1,12,0.8,005.23,M,-16.8,M,,*52
$GPRMC,224806.000,A,4910.34562,N,12304.30464,W,0.0,0.0,250419,,,A*76
$GPGGA,224807.000,4910.34562,N,12304.30464,W,1,13,0.8,005.10,M,-16.8,M,,*52
$GPRMC,224807.000,A,4910.34562,N,12304.30464,W,0.0,0.0,250419,,,A*77
$GPGGA,224808.000,4910.34562,N,12304.30464,W,1,11,0.8,005.10,M,-16.8,M,,*5F
$GPRMC,224808.000,A,4910.34562,N,12304.30464,W,0.0,0.0,250419,,,A*78
$GPGGA,224809.000,4910.34562,N,12304.30464,W,1,12,0.8,005.10,M,-16.8,M,,*5D
$GPRMC,224809.000,A,4910.34562,N,12304.30464,W,0.0,0.0,250419,,,A*79
$GPGGA,224810.000,4910.34562,N,12304.30464,W,1,11,0.8,005.10,M,-16.8,M,,*56
$GPRMC,224810.000,A,4910.34562,N,12304.30464,W,0.0,0.0,250419,,,A*71
$GPGGA,224811.000,4910.34562,N,12304.30464,W,1,12,0.8,005.10,M,-16.8,M,,*54
$GPRMC,224811.000,A,4910.34562,N,12304.30464,W,0.0,0.0,250419,,,A*70
$GPGGA,224812.000,4910.34562,N,12304.30464,W,1,12,0.8,005.10,M,-16.8,M,,*57
$GPRMC,224812.000,A,4910.34562,N,12304.30464,W,0.0,0.0,250419,,,A*73
$GPGGA,224813.000,4910.34562,N,12304.30464,W,1,12,0.8,005.10,M,-16.8,M,,*56
$GPRMC,224813.000,A,4910.34562,N,12304.30464,W,0.0,0.0,250419,,,A*72
$GPGGA,224814.000,4910.34562,N,12304.30464,W,1,12,0.8,005.10,M,-16.8,M,,*51
$GPRMC,224814.000,A,4910.34562,N,12304.30464,W,0.0,0.0,250419,,,A*75
$GPGGA,224815.000,4910.34562,N,12304.30464,W,1,12,0.8,005.10,M,-16.8,M,,*50
$GPRMC,224815.000,A,4910.34562,N,12304.30464,W,0.0,0.0,250419,,,A*74
$GPGGA,224816.000,4910.34562,N,12304.30464,W,1,11,0.8,005.10,M,-16.8,M,,*50
$GPRMC,224816.000,A,4910.34562,N,12304.30464,W,0.0,0.0,250419,,,A*77
$GPGGA,224817.000,4910.34562,N,12304.30464,W,1,11,0.8,005.10,M,-16.8,M,,*51
$GPRMC,224817.000,A,4910.34562,N,12304.30464,W,0.0,0.0,250419,,,A*76
$GPGGA,224818.000,4910.34562,N,12304.30464,W,1,11,0.8,005.10,M,-16.8,M,,*5E
$GPRMC,224818.000,A,4910.34562,N,12304.30464,W,0.0,0.0,250419,,,A*79
$GPGGA,224819.000,4910.34562,N,12304.30464,W,1,11,0.8,005.10,M,-16.8,M,,*5F
$GPRMC,224819.000,A,4910.34562,N,12304.30464,W,0.0,0.0,250419,,,A*78
$GPGGA,224820.000,4910.34562,N,12304.30464,W,1,10,0.8,005.10,M,-16.8,M,,*54
$GPRMC,224820.000,A,4910.34562,N,12304.30464,W,0.0,0.0,250419,,,A*72
$GPGGA,224821.000,4910.34562,N,12304.30464,W,1,10,0.8,005.10,M,-16.8,M,,*55
$GPRMC,224821.000,A,4910.34562,N,12304.30464,W,0.0,0.0,250419,,,A*73
$GPGGA,224822.000,4910.34562,N,12304.30464,W,1,10,0.8,005.10,M,-16.8,M,,*56
$GPRMC,224822.000,A,4910.34562,N,12304.30464,W,0.0,0.0,250419,,,A*70
$GPGGA,224823.000,4910.34562,N,12304.30464,W,1,11,0.8,005.10,M,-16.8,M,,*56
$GPRMC,224823.000,A,4910.34562,N,12304.30464,W,0.0,0.0,250419,,,A*71
$GPGGA,224824.000,4910.34562,N,12304.30464,W,1,11,0.8,005.10,M,-16.8,M,,*51
$GPRMC,224824.000,A,4910.34562,N,12304.30464,W,0.0,0.0,250419,,,A*76
$GPGGA,224825.000,4910.34562,N,12304.30464,W,1,11,0.8,005.10,M,-16.8,M,,*50
$GPRMC,224825.000,A,4910.34562,N,12304.30464,W,0.5,0.0,250419,,,A*72
$GPGGA,224826.000,4910.34562,N,12304.30464,W,1,13,0.8,005.10,M,-16.8,M,,*51
$GPRMC,224826.000,A,4910.34562,N,12304.30464,W,1.3,0.0,250419,,,A*76
$GPGGA,224827.000,4910.34562,N,12304.30464,W,1,12,0.8,005.10,M,-16.8,M,,*51
$GPRMC,224827.000,A,4910.34562,N,12304.30464,W,1.8,0.0,250419,,,A*7C
$GPGGA,224828.000,4910.34785,N,12304.30431,W,1,12,0.8,004.93,M,-16.8,M,,*5F
$GPRMC,224828.000,A,4910.34785,N,12304.30431,W,2.0,1.9,250419,,,A*7B
$GPGGA,224829.000,4910.34944,N,12304.30393,W,1,12,0.8,004.99,M,-16.8,M,,*58
$GPRMC,224829.000,A,4910.34944,N,12304.30393,W,2.3,1.8,250419,,,A*74
$GPGGA,224830.000,4910.35091,N,12304.30338,W,1,12,0.8,005.12,M,-16.8,M,,*53
$GPRMC,224830.000,A,4910.35091,N,12304.30338,W,3.6,2.2,250419,,,A*70
$GPGGA,224831.000,4910.35272,N,12304.30302,W,1,12,0.8,005.24,M,-16.8,M,,*51
$GPRMC,224831.000,A,4910.35272,N,12304.30302,W,6.0,0.8,250419,,,A*7C
$GPGGA,224832.000,4910.35497,N,12304.30295,W,1,11,0.9,005.06,M,-16.8,M,,*52
$GPRMC,224832.000,A,4910.35497,N,12304.30295,W,7.5,359.9,250419,,,A*77
$GPGGA,224833.000,4910.35746,N,12304.30291,W,1,11,0.9,004.83,M,-16.8,M,,*54
$GPRMC,224833.000,A,4910.35746,N,12304.30291,W,8.3,359.9,250419,,,A*74
$GPGGA,224834.000,4910.36019,N,12304.30318,W,1,10,0.9,004.91,M,-16.8,M,,*5F
$GPRMC,224834.000,A,4910.36019,N,12304.30318,W,9.2,358.6,250419,,,A*73
$GPGGA,224835.000,4910.36308,N,12304.30336,W,1,10,0.9,004.94,M,-16.8,M,,*54
$GPRMC,224835.000,A,4910.36308,N,12304.30336,W,9.7,359.1,250419,,,A*7E
$GPGGA,224836.000,4910.36602,N,12304.30348,W,1,11,0.8,004.96,M,-16.8,M,,*53
$GPRMC,224836.000,A,4910.36602,N,12304.30348,W,9.6,0.5,250419,,,A*71
$GPGGA,224837.000,4910.36890,N,12304.30348,W,1,12,0.8,004.80,M,-16.8,M,,*53
$GPRMC,224837.000,A,4910.36890,N,12304.30348,W,9.5,0.6,250419,,,A*75
$GPGGA,224838.000,4910.37175,N,12304.30355,W,1,12,0.8,004.60,M,-16.8,M,,*5D
$GPRMC,224838.000,A,4910.37175,N,12304.30355,W,9.3,1.2,250419,,,A*76
$GPGGA,224839.000,4910.37450,N,12304.30361,W,1,13,0.8,003.96,M,-16.8,M,,*56
$GPRMC,224839.000,A,4910.37450,N,12304.30361,W,8.9,357.5,250419,,,A*7E
$GPGGA,224840.000,4910.37701,N,12304.30417,W,1,11,0.8,003.38,M,-16.8,M,,*5F
$GPRMC,224840.000,A,4910.37701,N,12304.30417,W,7.9,345.4,250419,,,A*7C
$GPGGA,224841.000,4910.37905,N,12304.30532,W,1,11,0.8,002.91,M,-16.8,M,,*50
$GPRMC,224841.000,A,4910.37905,N,12304.30532,W,6.8,322.6,250419,,,A*72
$GPGGA,224842.000,4910.38039,N,12304.30730,W,1,11,0.8,002.46,M,-16.8,M,,*50
$GPRMC,224842.000,A,4910.38039,N,12304.30730,W,5.1,298.1,250419,,,A*75
$GPGGA,224843.000,4910.38104,N,12304.30918,W,1,10,0.8,002.05,M,-16.8,M,,*5C
$GPRMC,224843.000,A,4910.38104,N,12304.30918,W,3.8,285.3,250419,,,A*7E
$GPGGA,224844.000,4910.38139,N,12304.31084,W,1,11,0.8,001.74,M,-16.8,M,,*5C
$GPRMC,224844.000,A,4910.38139,N,12304.31084,W,3.5,276.8,250419,,,A*70
$GPGGA,224845.000,4910.38156,N,12304.31223,W,1,12,0.8,001.37,M,-16.8,M,,*5F
$GPRMC,224845.000,A,4910.38156,N,12304.31223,W,3.1,272.4,250419,,,A*7B
$GPGGA,224846.000,4910.38178,N,12304.31332,W,1,11,0.8,001.11,M,-16.8,M,,*56
$GPRMC,224846.000,A,4910.38178,N,12304.31332,W,1.6,271.5,250419,,,A*72
$GPGGA,224847.000,4910.38191,N,12304.31373,W,1,11,0.8,001.18,M,-16.8,M,,*5C
$GPRMC,224847.000,A,4910.38191,N,12304.31373,W,0.5,264.4,250419,,,A*76
$GPGGA,224848.000,4910.38191,N,12304.31373,W,1,09,0.8,001.18,M,-16.8,M,,*5A
$GPRMC,224848.000,A,4910.38191,N,12304.31373,W,0.1,0.0,250419,,,A*79
$GPGGA,224849.000,4910.38192,N,12304.31370,W,1,10,0.9,001.18,M,-16.8,M,,*52
$GPRMC,224849.000,A,4910.38192,N,12304.31370,W,0.1,0.0,250419,,,A*78
$GPGGA,224850.000,4910.38192,N,12304.31370,W,1,10,0.9,001.18,M,-16.8,M,,*5A
$GPRMC,224850.000,A,4910.38192,N,12304.31370,W,0.1,0.0,250419,,,A*70
$GPGGA,224851.000,4910.38192,N,12304.31370,W,1,10,0.9,001.18,M,-16.8,M,,*5B
$GPRMC,224851.000,A,4910.38192,N,12304.31370,W,0.0,0.0,250419,,,A*70
$GPGGA,224852.000,4910.38192,N,12304.31370,W,1,09,0.9,001.18,M,-16.8,M,,*50
$GPRMC,224852.000,A,4910.38192,N,12304.31370,W,0.0,0.0,250419,,,A*73
$GPGGA,224853.000,4910.38192,N,12304.31370,W,1,10,0.9,001.18,M,-16.8,M,,*59
$GPRMC,224853.000,A,4910.38192,N,12304.31370,W,0.1,0.0,250419,,,A*73
$GPGGA,224854.000,4910.38192,N,12304.31370,W,1,10,0.9,001.18,M,-16.8,M,,*5E
$GPRMC,224854.000,A,4910.38192,N,12304.31370,W,0.0,0.0,250419,,,A*75
$GPGGA,224855.000,4910.38192,N,12304.31370,W,1,09,0.9,001.18,M,-16.8,M,,*57
$GPRMC,224855.000,A,4910.38192,N,12304.31370,W,0.0,0.0,250419,,,A*74
$GPGGA,224856.000,4910.38192,N,12304.31370,W,1,11,0.9,001.18,M,-16.8,M,,*5D
$GPRMC,224856.000,A,4910.38192,N,12304.31370,W,0.0,0.0,250419,,,A*77
$GPGGA,224857.000,4910.38192,N,12304.31370,W,1,09,0.9,001.18,M,-16.8,M,,*55
$GPRMC,224857.000,A,4910.38192,N,12304.31370,W,0.0,0.0,250419,,,A*76
$GPGGA,224858.000,4910.38192,N,12304.31370,W,1,09,0.9,001.18,M,-16.8,M,,*5A
$GPRMC,224858.000,A,4910.38192,N,12304.31370,W,0.0,0.0,250419,,,A*79
$GPGGA,224859.000,4910.38192,N,12304.31370,W,1,10,0.9,001.18,M,-16.8,M,,*53
$GPRMC,224859.000,A,4910.38192,N,12304.31370,W,0.0,0.0,250419,,,A*78
$GPGGA,224900.000,4910.38192,N,12304.31370,W,1,09,0.9,001.18,M,-16.8,M,,*56
$GPRMC,224900.000,A,4910.38192,N,12304.31370,W,0.0,0.0,250419,,,A*75
$GPGGA,224901.000,4910.38192,N,12304.31370,W,1,09,0.9,001.18,M,-16.8,M,,*57
$GPRMC,224901.000,A,4910.38192,N,12304.31370,W,0.0,0.0,250419,,,A*74
$GPGGA,224902.000,4910.38192,N,12304.31370,W,1,11,0.9,001.18,M,-16.8,M,,*5D
$GPRMC,224902.000,A,4910.38192,N,12304.31370,W,0.0,0.0,250419,,,A*77
$GPGGA,224903.000,4910.38192,N,12304.31370,W,1,12,0.9,001.18,M,-16.8,M,,*5F
$GPRMC,224903.000,A,4910.38192,N,12304.31370,W,0.0,0.0,250419,,,A*76
$GPGGA,224904.000,4910.38192,N,12304.31370,W,1,10,0.9,001.18,M,-16.8,M,,*5A
$GPRMC,224904.000,A,4910.38192,N,12304.31370,W,0.0,0.0,250419,,,A*71
$GPGGA,224905.000,4910.38192,N,12304.31370,W,1,10,0.9,001.18,M,-16.8,M,,*5B
$GPRMC,224905.000,A,4910.38192,N,12304.31370,W,0.0,0.0,250419,,,A*70
$GPGGA,224906.000,4910.38192,N,12304.31370,W,1,10,0.9,001.18,M,-16.8,M,,*58
$GPRMC,224906.000,A,4910.38192,N,12304.31370,W,0.0,0.0,250419,,,A*73
$GPGGA,224907.000,4910.38192,N,12304.31370,W,1,09,0.9,001.18,M,-16.8,M,,*51
$GPRMC,224907.000,A,4910.38192,N,12304.31370,W,0.1,0.0,250419,,,A*73
$GPGGA,224908.000,4910.38192,N,12304.31370,W,1,10,0.8,001.18,M,-16.8,M,,*57
$GPRMC,224908.000,A,4910.38192,N,12304.31370,W,0.0,0.0,250419,,,A*7D
$GPGGA,224909.000,4910.38192,N,12304.31370,W,1,09,0.9,001.18,M,-16.8,M,,*5F
$GPRMC,224909.000,A,4910.38192,N,12304.31370,W,0.0,0.0,250419,,,A*7C
$GPGGA,224910.000,4910.38192,N,12304.31370,W,1,09,0.9,001.18,M,-16.8,M,,*57
$GPRMC,224910.000,A,4910.38192,N,12304.31370,W,0.0,0.0,250419,,,A*74
$GPGGA,224911.000,4910.38192,N,12304.31370,W,1,09,0.9,001.18,M,-16.8,M,,*56
$GPRMC,224911.000,A,4910.38192,N,12304.31370,W,0.1,0.0,250419,,,A*74
$GPGGA,224912.000,4910.38192,N,12304.31370,W,1,09,0.9,001.18,M,-16.8,M,,*55
$GPRMC,224912.000,A,4910.38192,N,12304.31370,W,0.4,0.0,250419,,,A*72
$GPGGA,224913.000,4910.38192,N,12304.31370,W,1,10,0.8,001.18,M,-16.8,M,,*5D
$GPRMC,224913.000,A,4910.38192,N,12304.31370,W,0.7,0.0,250419,,,A*70
$GPGGA,224914.000,4910.38192,N,12304.31370,W,1,10,0.8,001.18,M,-16.8,M,,*5A
$GPRMC,224914.000,A,4910.38192,N,12304.31370,W,1.0,0.0,250419,,,A*71
$GPGGA,224915.000,4910.38192,N,12304.31370,W,1,10,0.8,001.18,M,-16.8,M,,*5B
$GPRMC,224915.000,A,4910.38192,N,12304.31370,W,1.0,0.0,250419,,,A*70
$GPGGA,224916.000,4910.38192,N,12304.31370,W,1,10,0.8,001.18,M,-16.8,M,,*58
$GPRMC,224916.000,A,4910.38192,N,12304.31370,W,0.9,0.0,250419,,,A*7B
$GPGGA,224917.000,4910.38192,N,12304.31370,W,1,10,0.8,001.18,M,-16.8,M,,*59
$GPRMC,224917.000,A,4910.38192,N,12304.31370,W,1.2,0.0,250419,,,A*70
$GPGGA,224918.000,4910.38192,N,12304.31370,W,1,10,0.8,001.18,M,-16.8,M,,*56
$GPRMC,224918.000,A,4910.38192,N,12304.31370,W,1.3,0.0,250419,,,A*7E
$GPGGA,224919.000,4910.38191,N,12304.31373,W,1,11,0.8,001.18,M,-16.8,M,,*56
$GPRMC,224919.000,A,4910.38191,N,12304.31373,W,1.0,263.3,250419,,,A*78
$GPGGA,224920.000,4910.38191,N,12304.31373,W,1,11,0.8,001.18,M,-16.8,M,,*5C
$GPRMC,224920.000,A,4910.38191,N,12304.31373,W,0.8,270.8,250419,,,A*72
$GPGGA,224921.000,4910.38192,N,12304.31370,W,1,11,0.8,001.18,M,-16.8,M,,*5D
$GPRMC,224921.000,A,4910.38192,N,12304.31370,W,0.8,0.0,250419,,,A*7E
$GPGGA,224922.000,4910.38192,N,12304.31370,W,1,11,0.8,001.18,M,-16.8,M,,*5E
$GPRMC,224922.000,A,4910.38192,N,12304.31370,W,1.1,0.0,250419,,,A*75
$GPGGA,224923.000,4910.38192,N,12304.31370,W,1,10,0.8,001.18,M,-16.8,M,,*5E
$GPRMC,224923.000,A,4910.38192,N,12304.31370,W,1.0,0.0,250419,,,A*75
$GPGGA,224924.000,4910.38192,N,12304.31370,W,1,10,0.8,001.18,M,-16.8,M,,*59
$GPRMC,224924.000,A,4910.38192,N,12304.31370,W,0.9,0.0,250419,,,A*7A
$GPGGA,224925.000,4910.38192,N,12304.31370,W,1,10,0.8,001.18,M,-16.8,M,,*58
$GPRMC,224925.000,A,4910.38192,N,12304.31370,W,0.7,0.0,250419,,,A*75
$GPGGA,224926.000,4910.38192,N,12304.31370,W,1,10,0.8,001.18,M,-16.8,M,,*5B
$GPRMC,224926.000,A,4910.38192,N,12304.31370,W,0.9,0.0,250419,,,A*78
$GPGGA,224927.000,4910.38192,N,12304.31370,W,1,11,0.8,002.13,M,-16.8,M,,*53
$GPRMC,224927.000,A,4910.38192,N,12304.31370,W,0.8,0.0,250419,,,A*78
$GPGGA,224928.000,4910.38192,N,12304.31370,W,1,10,0.8,002.13,M,-16.8,M,,*5D
$GPRMC,224928.000,A,4910.38192,N,12304.31370,W,0.5,0.0,250419,,,A*7A
$GPGGA,224929.000,4910.38192,N,12304.31370,W,1,10,0.8,002.13,M,-16.8,M,,*5C
$GPRMC,224929.000,A,4910.38192,N,12304.31370,W,0.4,0.0,250419,,,A*7A
$GPGGA,224930.000,4910.38192,N,12304.31370,W,1,10,0.8,002.13,M,-16.8,M,,*54
$GPRMC,224930.000,A,4910.38192,N,12304.31370,W,0.4,0.0,250419,,,A*72
$GPGGA,224931.000,4910.38192,N,12304.31370,W,1,09,0.8,002.13,M,-16.8,M,,*5D
$GPRMC,224931.000,A,4910.38192,N,12304.31370,W,0.2,0.0,250419,,,A*75
$GPGGA,224932.000,4910.38192,N,12304.31370,W,1,10,0.8,002.13,M,-16.8,M,,*56
$GPRMC,224932.000,A,4910.38192,N,12304.31370,W,0.0,0.0,250419,,,A*74
$GPGGA,224933.000,4910.38192,N,12304.31370,W,1,10,0.8,002.13,M,-16.8,M,,*57
$GPRMC,224933.000,A,4910.38192,N,12304.31370,W,0.1,0.0,250419,,,A*74
$GPGGA,224934.000,4910.38192,N,12304.31370,W,1,10,0.8,002.13,M,-16.8,M,,*50
$GPRMC,224934.000,A,4910.38192,N,12304.31370,W,0.0,0.0,250419,,,A*72
$GPGGA,224935.000,4910.38192,N,12304.31370,W,1,10,0.8,002.13,M,-16.8,M,,*51
$GPRMC,224935.000,A,4910.38192,N,12304.31370,W,0.1,0.0,250419,,,A*72
$GPGGA,224936.000,4910.38192,N,12304.31370,W,1,10,0.8,002.13,M,-16.8,M,,*52
$GPRMC,224936.000,A,4910.38192,N,12304.31370,W,0.0,0.0,250419,,,A*70
$GPGGA,224937.000,4910.38192,N,12304.31370,W,1,10,0.8,002.13,M,-16.8,M,,*53
$GPRMC,224937.000,A,4910.38192,N,12304.31370,W,0.0,0.0,250419,,,A*71
$GPGGA,224938.000,4910.38192,N,12304.31370,W,1,10,0.8,002.13,M,-16.8,M,,*5C
$GPRMC,224938.000,A,4910.38192,N,12304.31370,W,0.0,0.0,250419,,,A*7E
$GPGGA,224939.000,4910.38192,N,12304.31370,W,1,09,0.8,002.13,M,-16.8,M,,*55
$GPRMC,224939.000,A,4910.38192,N,12304.31370,W,0.0,0.0,250419,,,A*7F
$GPGGA,224940.000,4910.38192,N,12304.31370,W,1,09,0.8,002.13,M,-16.8,M,,*5B
$GPRMC,224940.000,A,4910.38192,N,12304.31370,W,0.0,0.0,250419,,,A*71
$GPGGA,224941.000,4910.38192,N,12304.31370,W,1,09,0.8,002.13,M,-16.8,M,,*5A
$GPRMC,224941.000,A,4910.38192,N,12304.31370,W,0.0,0.0,250419,,,A*70
$GPGGA,224942.000,4910.38192,N,12304.31370,W,1,09,0.8,002.13,M,-16.8,M,,*59
$GPRMC,224942.000,A,4910.38192,N,12304.31370,W,0.1,0.0,250419,,,A*72
$GPGGA,224943.000,4910.38192,N,12304.31370,W,1,09,0.8,002.13,M,-16.8,M,,*58
$GPRMC,224943.000,A,4910.38192,N,12304.31370,W,0.0,0.0,250419,,,A*72
$GPGGA,224944.000,4910.38192,N,12304.31370,W,1,09,0.8,002.13,M,-16.8,M,,*5F
$GPRMC,224944.000,A,4910.38192,N,12304.31370,W,0.0,0.0,250419,,,A*75
$GPGGA,224945.000,4910.38192,N,12304.31370,W,1,09,0.8,002.13,M,-16.8,M,,*5E
$GPRMC,224945.000,A,4910.38192,N,12304.31370,W,0.0,0.0,250419,,,A*74
$GPGGA,224946.000,4910.38192,N,12304.31370,W,1,09,0.8,002.13,M,-16.8,M,,*5D
$GPRMC,224946.000,A,4910.38192,N,12304.31370,W,0.1,0.0,250419,,,A*76
$GPGGA,224947.000,4910.38192,N,12304.31370,W,1,09,0.8,002.13,M,-16.8,M,,*5C
$GPRMC,224947.000,A,4910.38192,N,12304.31370,W,0.1,0.0,250419,,,A*77
$GPGGA,224948.000,4910.38192,N,12304.31370,W,1,10,0.8,002.13,M,-16.8,M,,*5B
$GPRMC,224948.000,A,4910.38192,N,12304.31370,W,0.1,0.0,250419,,,A*78
$GPGGA,224949.000,4910.38192,N,12304.31370,W,1,10,0.8,002.13,M,-16.8,M,,*5A
$GPRMC,224949.000,A,4910.38192,N,12304.31370,W,0.1,0.0,250419,,,A*79
$GPGGA,224950.000,4910.38192,N,12304.31370,W,1,10,0.8,002.13,M,-16.8,M,,*52
$GPRMC,224950.000,A,4910.38192,N,12304.31370,W,0.2,0.0,250419,,,A*72
$GPGGA,224951.000,4910.38192,N,12304.31370,W,1,11,0.8,002.13,M,-16.8,M,,*52
$GPRMC,224951.000,A,4910.38192,N,12304.31370,W,0.2,0.0,250419,,,A*73
$GPGGA,224952.000,4910.38192,N,12304.31370,W,1,10,0.8,002.13,M,-16.8,M,,*50
$GPRMC,224952.000,A,4910.38192,N,12304.31370,W,0.3,0.0,250419,,,A*71
$GPGGA,224953.000,4910.38192,N,12304.31370,W,1,10,0.8,002.13,M,-16.8,M,,*51
$GPRMC,224953.000,A,4910.38192,N,12304.31370,W,0.5,0.0,250419,,,A*76
$GPGGA,224954.000,4910.38192,N,12304.31370,W,1,12,0.8,002.13,M,-16.8,M,,*54
$GPRMC,224954.000,A,4910.38192,N,12304.31370,W,0.5,0.0,250419,,,A*71
$GPGGA,224955.000,4910.38193,N,12304.31475,W,1,10,0.8,002.13,M,-16.8,M,,*54
$GPRMC,224955.000,A,4910.38193,N,12304.31475,W,0.5,271.7,250419,,,A*70
$GPGGA,224956.000,4910.38193,N,12304.31475,W,1,11,0.8,002.13,M,-16.8,M,,*56
$GPRMC,224956.000,A,4910.38193,N,12304.31475,W,0.6,271.4,250419,,,A*73
$GPGGA,224957.000,4910.38193,N,12304.31475,W,1,11,0.8,002.13,M,-16.8,M,,*57
$GPRMC,224957.000,A,4910.38193,N,12304.31475,W,0.6,286.0,250419,,,A*7E
$GPGGA,224958.000,4910.38193,N,12304.31475,W,1,12,0.8,002.13,M,-16.8,M,,*5B
$GPRMC,224958.000,A,4910.38193,N,12304.31475,W,0.7,287.2,250419,,,A*73
$GPGGA,224959.000,4910.38193,N,12304.31475,W,1,13,0.8,002.13,M,-16.8,M,,*5B
$GPRMC,224959.000,A,4910.38193,N,12304.31475,W,0.8,297.5,250419,,,A*7B
$GPGGA,225000.000,4910.38193,N,12304.31475,W,1,10,0.8,002.13,M,-16.8,M,,*5C
$GPRMC,225000.000,A,4910.38193,N,12304.31475,W,0.8,300.1,250419,,,A*74
$GPGGA,225001.000,4910.38193,N,12304.31475,W,1,11,0.8,002.13,M,-16.8,M,,*5C
$GPRMC,225001.000,A,4910.38193,N,12304.31475,W,0.8,299.8,250419,,,A*7D
$GPGGA,225002.000,4910.38193,N,12304.31475,W,1,11,0.8,002.13,M,-16.8,M,,*5F
$GPRMC,225002.000,A,4910.38193,N,12304.31475,W,1.0,316.5,250419,,,A*7C
$GPGGA,225003.000,4910.38193,N,12304.31475,W,1,11,0.8,002.13,M,-16.8,M,,*5E
$GPRMC,225003.000,A,4910.38193,N,12304.31475,W,1.0,323.3,250419,,,A*7D
$GPGGA,225004.000,4910.38193,N,12304.31475,W,1,11,0.8,002.13,M,-16.8,M,,*59
$GPRMC,225004.000,A,4910.38193,N,12304.31475,W,1.0,332.5,250419,,,A*7C
$GPGGA,225005.000,4910.38193,N,12304.31475,W,1,11,0.8,002.13,M,-16.8,M,,*58
$GPRMC,225005.000,A,4910.38193,N,12304.31475,W,1.0,339.2,250419,,,A*71
$GPGGA,225006.000,4910.38193,N,12304.31475,W,1,11,0.8,002.13,M,-16.8,M,,*5B
$GPRMC,225006.000,A,4910.38193,N,12304.31475,W,0.3,348.3,250419,,,A*77
$GPGGA,225007.000,4910.38186,N,12304.31668,W,1,11,0.8,003.01,M,-16.8,M,,*52
$GPRMC,225007.000,A,4910.38186,N,12304.31668,W,0.1,0.0,250419,,,A*72
$GPGGA,225008.000,4910.38186,N,12304.31670,W,1,10,0.8,003.01,M,-16.8,M,,*55
$GPRMC,225008.000,A,4910.38186,N,12304.31670,W,0.1,0.0,250419,,,A*74
$GPGGA,225009.000,4910.38186,N,12304.31670,W,1,11,0.8,003.01,M,-16.8,M,,*55
$GPRMC,225009.000,A,4910.38186,N,12304.31670,W,0.1,0.0,250419,,,A*75
$GPGGA,225010.000,4910.38186,N,12304.31670,W,1,11,0.8,003.01,M,-16.8,M,,*5D
$GPRMC,225010.000,A,4910.38186,N,12304.31670,W,0.0,0.0,250419,,,A*7C
$GPGGA,225011.000,4910.38186,N,12304.31670,W,1,10,0.8,003.01,M,-16.8,M,,*5D
$GPRMC,225011.000,A,4910.38186,N,12304.31670,W,0.0,0.0,250419,,,A*7D
$GPGGA,225012.000,4910.38186,N,12304.31670,W,1,12,0.8,003.01,M,-16.8,M,,*5C
$GPRMC,225012.000,A,4910.38186,N,12304.31670,W,0.0,0.0,250419,,,A*7E
$GPGGA,225013.000,4910.38186,N,12304.31670,W,1,12,0.8,003.01,M,-16.8,M,,*5D
$GPRMC,225013.000,A,4910.38186,N,12304.31670,W,0.0,0.0,250419,,,A*7F
$GPGGA,225014.000,4910.38186,N,12304.31670,W,1,11,0.8,003.01,M,-16.8,M,,*59
$GPRMC,225014.000,A,4910.38186,N,12304.31670,W,0.0,0.0,250419,,,A*78
$GPGGA,225015.000,4910.38186,N,12304.31670,W,1,11,0.8,003.01,M,-16.8,M,,*58
$GPRMC,225015.000,A,4910.38186,N,12304.31670,W,0.0,0.0,250419,,,A*79
$GPGGA,225016.000,4910.38186,N,12304.31670,W,1,11,0.8,003.01,M,-16.8,M,,*5B
$GPRMC,225016.000,A,4910.38186,N,12304.31670,W,0.0,0.0,250419,,,A*7A
$GPGGA,225017.000,4910.38186,N,12304.31670,W,1,12,0.8,003.01,M,-16.8,M,,*59
$GPRMC,225017.000,A,4910.38186,N,12304.31670,W,0.0,0.0,250419,,,A*7B
$GPGGA,225018.000,4910.38186,N,12304.31670,W,1,11,0.8,003.01,M,-16.8,M,,*55
$GPRMC,225018.000,A,4910.38186,N,12304.31670,W,0.0,0.0,250419,,,A*74
$GPGGA,225019.000,4910.38186,N,12304.31670,W,1,12,0.8,003.01,M,-16.8,M,,*57
$GPRMC,225019.000,A,4910.38186,N,12304.31670,W,0.0,0.0,250419,,,A*75
$GPGGA,225020.000,4910.38186,N,12304.31670,W,1,13,0.8,003.01,M,-16.8,M,,*5C
$GPRMC,225020.000,A,4910.38186,N,12304.31670,W,0.0,0.0,250419,,,A*7F
$GPGGA,225021.000,4910.38186,N,12304.31670,W,1,12,0.8,003.01,M,-16.8,M,,*5C
$GPRMC,225021.000,A,4910.38186,N,12304.31670,W,0.1,0.0,250419,,,A*7F
$GPGGA,225022.000,4910.38186,N,12304.31670,W,1,12,0.8,003.01,M,-16.8,M,,*5F
$GPRMC,225022.000,A,4910.38186,N,12304.31670,W,0.4,0.0,250419,,,A*79
$GPGGA,225023.000,4910.38186,N,12304.31670,W,1,11,0.8,003.01,M,-16.8,M,,*5D
$GPRMC,225023.000,A,4910.38186,N,12304.31670,W,0.5,0.0,250419,,,A*79
$GPGGA,225024.000,4910.38186,N,12304.31670,W,1,11,0.8,003.01,M,-16.8,M,,*5A
$GPRMC,225024.000,A,4910.38186,N,12304.31670,W,0.6,0.0,250419,,,A*7D
$GPGGA,225025.000,4910.38186,N,12304.31670,W,1,12,0.8,003.01,M,-16.8,M,,*58
$GPRMC,225025.000,A,4910.38186,N,12304.31670,W,0.7,0.0,250419,,,A*7D
$GPGGA,225026.000,4910.38186,N,12304.31670,W,1,11,0.8,003.01,M,-16.8,M,,*58
$GPRMC,225026.000,A,4910.38186,N,12304.31670,W,0.7,0.0,250419,,,A*7E
$GPGGA,225027.000,4910.38186,N,12304.31670,W,1,11,0.8,003.01,M,-16.8,M,,*59
$GPRMC,225027.000,A,4910.38186,N,12304.31670,W,0.8,0.0,250419,,,A*70
$GPGGA,225028.000,4910.38186,N,12304.31670,W,1,12,0.8,003.01,M,-16.8,M,,*55
$GPRMC,225028.000,A,4910.38186,N,12304.31670,W,0.7,0.0,250419,,,A*70
$GPGGA,225029.000,4910.38186,N,12304.31670,W,1,12,0.8,003.01,M,-16.8,M,,*54
$GPRMC,225029.000,A,4910.38186,N,12304.31670,W,0.1,0.0,250419,,,A*77
$GPGGA,225030.000,4910.38186,N,12304.31670,W,1,12,0.8,003.01,M,-16.8,M,,*5C
$GPRMC,225030.000,A,4910.38186,N,12304.31670,W,0.0,0.0,250419,,,A*7E
$GPGGA,225031.000,4910.38186,N,12304.31670,W,1,12,0.8,003.01,M,-16.8,M,,*5D
$GPRMC,225031.000,A,4910.38186,N,12304.31670,W,0.0,0.0,250419,,,A*7F
$GPGGA,225032.000,4910.38186,N,12304.31670,W,1,11,0.8,003.01,M,-16.8,M,,*5D
$GPRMC,225032.000,A,4910.38186,N,12304.31670,W,0.1,0.0,250419,,,A*7D
$GPGGA,225033.000,4910.38186,N,12304.31670,W,1,11,0.8,003.01,M,-16.8,M,,*5C
$GPRMC,225033.000,A,4910.38186,N,12304.31670,W,0.0,0.0,250419,,,A*7D
$GPGGA,225034.000,4910.38186,N,12304.31670,W,1,11,0.8,003.01,M,-16.8,M,,*5B
$GPRMC,225034.000,A,4910.38186,N,12304.31670,W,0.3,0.0,250419,,,A*79
$GPGGA,225035.000,4910.38186,N,12304.31670,W,1,11,0.8,003.01,M,-16.8,M,,*5A
$GPRMC,225035.000,A,4910.38186,N,12304.31670,W,0.0,0.0,250419,,,A*7B
$GPGGA,225036.000,4910.38186,N,12304.31670,W,1,11,0.8,003.01,M,-16.8,M,,*59
$GPRMC,225036.000,A,4910.38186,N,12304.31670,W,0.0,0.0,250419,,,A*78
$GPGGA,225037.000,4910.38186,N,12304.31670,W,1,12,0.8,003.01,M,-16.8,M,,*5B
$GPRMC,225037.000,A,4910.38186,N,12304.31670,W,0.0,0.0,250419,,,A*79
$GPGGA,225038.000,4910.38186,N,12304.31670,W,1,11,0.8,003.01,M,-16.8,M,,*57
$GPRMC,225038.000,A,4910.38186,N,12304.31670,W,0.0,0.0,250419,,,A*76
$GPGGA,225039.000,4910.38186,N,12304.31670,W,1,11,0.8,003.01,M,-16.8,M,,*56
$GPRMC,225039.000,A,4910.38186,N,12304.31670,W,0.1,0.0,250419,,,A*76
$GPGGA,225040.000,4910.38186,N,12304.31670,W,1,12,0.8,003.01,M,-16.8,M,,*5B
$GPRMC,225040.000,A,4910.38186,N,12304.31670,W,0.0,0.0,250419,,,A*79
$GPGGA,225041.000,4910.38186,N,12304.31670,W,1,12,0.8,003.01,M,-16.8,M,,*5A
$GPRMC,225041.000,A,4910.38186,N,12304.31670,W,0.1,0.0,250419,,,A*79
$GPGGA,225042.000,4910.38186,N,12304.31670,W,1,12,0.8,003.01,M,-16.8,M,,*59
$GPRMC,225042.000,A,4910.38186,N,12304.31670,W,0.1,0.0,250419,,,A*7A
$GPGGA,225043.000,4910.38186,N,12304.31670,W,1,12,0.8,003.01,M,-16.8,M,,*58
$GPRMC,225043.000,A,4910.38186,N,12304.31670,W,0.1,0.0,250419,,,A*7B
$GPGGA,225044.000,4910.38186,N,12304.31670,W,1,12,0.8,003.01,M,-16.8,M,,*5F
$GPRMC,225044.000,A,4910.38186,N,12304.31670,W,0.0,0.0,250419,,,A*7D
$GPGGA,225045.000,4910.38186,N,12304.31670,W,1,12,0.8,003.01,M,-16.8,M,,*5E
$GPRMC,225045.000,A,4910.38186,N,12304.31670,W,0.1,0.0,250419,,,A*7D
$GPGGA,225046.000,4910.38186,N,12304.31670,W,1,11,0.8,003.01,M,-16.8,M,,*5E
$GPRMC,225046.000,A,4910.38186,N,12304.31670,W,0.0,0.0,250419,,,A*7F
$GPGGA,225047.000,4910.38186,N,12304.31670,W,1,12,0.8,003.44,M,-16.8,M,,*5D
$GPRMC,225047.000,A,4910.38186,N,12304.31670,W,0.0,0.0,250419,,,A*7E
$GPGGA,225048.000,4910.38186,N,12304.31670,W,1,11,0.8,003.44,M,-16.8,M,,*51
$GPRMC,225048.000,A,4910.38186,N,12304.31670,W,0.0,0.0,250419,,,A*71
$GPGGA,225049.000,4910.38186,N,12304.31670,W,1,11,0.8,003.44,M,-16.8,M,,*50
$GPRMC,225049.000,A,4910.38186,N,12304.31670,W,0.1,0.0,250419,,,A*71
$GPGGA,225050.000,4910.38186,N,12304.31670,W,1,10,0.8,003.44,M,-16.8,M,,*59
$GPRMC,225050.000,A,4910.38186,N,12304.31670,W,0.0,0.0,250419,,,A*78
$GPGGA,225051.000,4910.38186,N,12304.31670,W,1,10,0.8,003.44,M,-16.8,M,,*58
$GPRMC,225051.000,A,4910.38186,N,12304.31670,W,0.0,0.0,250419,,,A*79
$GPGGA,225052.000,4910.38186,N,12304.31670,W,1,09,0.8,003.44,M,-16.8,M,,*53
$GPRMC,225052.000,A,4910.38186,N,12304.31670,W,0.1,0.0,250419,,,A*7B
$GPGGA,225053.000,4910.38186,N,12304.31670,W,1,10,0.8,003.44,M,-16.8,M,,*5A
$GPRMC,225053.000,A,4910.38186,N,12304.31670,W,0.1,0.0,250419,,,A*7A
$GPGGA,225054.000,4910.38186,N,12304.31670,W,1,10,0.8,003.44,M,-16.8,M,,*5D
$GPRMC,225054.000,A,4910.38186,N,12304.31670,W,0.1,0.0,250419,,,A*7D
$GPGGA,225055.000,4910.38186,N,12304.31670,W,1,11,0.8,003.44,M,-16.8,M,,*5D
$GPRMC,225055.000,A,4910.38186,N,12304.31670,W,0.1,0.0,250419,,,A*7C
$GPGGA,225056.000,4910.38186,N,12304.31670,W,1,11,0.8,003.44,M,-16.8,M,,*5E
$GPRMC,225056.000,A,4910.38186,N,12304.31670,W,0.1,0.0,250419,,,A*7F
$GPGGA,225057.000,4910.38186,N,12304.31670,W,1,11,0.8,003.44,M,-16.8,M,,*5F
$GPRMC,225057.000,A,4910.38186,N,12304.31670,W,0.0,0.0,250419,,,A*7F
$GPGGA,225058.000,4910.38186,N,12304.31670,W,1,13,0.8,003.44,M,-16.8,M,,*52
$GPRMC,225058.000,A,4910.38186,N,12304.31670,W,0.0,0.0,250419,,,A*70
$GPGGA,225059.000,4910.38186,N,12304.31670,W,1,12,0.8,003.44,M,-16.8,M,,*52
$GPRMC,225059.000,A,4910.38186,N,12304.31670,W,0.1,0.0,250419,,,A*70
$GPGGA,225100.000,4910.38186,N,12304.31670,W,1,12,0.8,003.44,M,-16.8,M,,*5F
$GPRMC,225100.000,A,4910.38186,N,12304.31670,W,0.0,0.0,250419,,,A*7C
$GPGGA,225101.000,4910.38186,N,12304.31670,W,1,12,0.8,003.44,M,-16.8,M,,*5E
$GPRMC,225101.000,A,4910.38186,N,12304.31670,W,0.1,0.0,250419,,,A*7C
$GPGGA,225102.000,4910.38186,N,12304.31670,W,1,11,0.8,003.44,M,-16.8,M,,*5E
$GPRMC,225102.000,A,4910.38186,N,12304.31670,W,0.1,0.0,250419,,,A*7F
$GPGGA,225103.000,4910.38186,N,12304.31670,W,1,12,0.8,003.44,M,-16.8,M,,*5C
$GPRMC,225103.000,A,4910.38186,N,12304.31670,W,0.0,0.0,250419,,,A*7F
$GPGGA,225104.000,4910.38186,N,12304.31670,W,1,11,0.8,003.44,M,-16.8,M,,*58
$GPRMC,225104.000,A,4910.38186,N,12304.31670,W,0.0,0.0,250419,,,A*78
$GPGGA,225105.000,4910.38186,N,12304.31670,W,1,11,0.8,003.44,M,-16.8,M,,*59
$GPRMC,225105.000,A,4910.38186,N,12304.31670,W,0.0,0.0,250419,,,A*79
$GPGGA,225106.000,4910.38186,N,12304.31670,W,1,11,0.8,003.44,M,-16.8,M,,*5A
$GPRMC,225106.000,A,4910.38186,N,12304.31670,W,0.0,0.0,250419,,,A*7A
$GPGGA,225107.000,4910.38186,N,12304.31670,W,1,11,0.8,003.44,M,-16.8,M,,*5B
$GPRMC,225107.000,A,4910.38186,N,12304.31670,W,0.0,0.0,250419,,,A*7B
$GPGGA,225108.000,4910.38186,N,12304.31670,W,1,12,0.8,003.44,M,-16.8,M,,*57
$GPRMC,225108.000,A,4910.38186,N,12304.31670,W,0.0,0.0,250419,,,A*74
$GPGGA,225109.000,4910.38186,N,12304.31670,W,1,11,0.8,003.44,M,-16.8,M,,*55
$GPRMC,225109.000,A,4910.38186,N,12304.31670,W,0.0,0.0,250419,,,A*75
$GPGGA,225110.000,4910.38186,N,12304.31670,W,1,12,0.8,003.44,M,-16.8,M,,*5E
$GPRMC,225110.000,A,4910.38186,N,12304.31670,W,0.0,0.0,250419,,,A*7D
$GPGGA,225111.000,4910.38186,N,12304.31670,W,1,12,0.8,003.44,M,-16.8,M,,*5F
$GPRMC,225111.000,A,4910.38186,N,12304.31670,W,0.3,0.0,250419,,,A*7F
$GPGGA,225112.000,4910.38186,N,12304.31670,W,1,12,0.8,003.44,M,-16.8,M,,*5C
$GPRMC,225112.000,A,4910.38186,N,12304.31670,W,0.8,0.0,250419,,,A*77
$GPGGA,225113.000,4910.38186,N,12304.31670,W,1,12,0.8,003.44,M,-16.8,M,,*5D
$GPRMC,225113.000,A,4910.38186,N,12304.31670,W,1.3,0.0,250419,,,A*7C
$GPGGA,225114.000,4910.38186,N,12304.31670,W,1,12,0.8,003.44,M,-16.8,M,,*5A
$GPRMC,225114.000,A,4910.38186,N,12304.31670,W,1.6,0.0,250419,,,A*7E
$GPGGA,225115.000,4910.38227,N,12304.31793,W,1,11,0.8,003.44,M,-16.8,M,,*5C
$GPRMC,225115.000,A,4910.38227,N,12304.31793,W,1.7,356.2,250419,,,A*78
$GPGGA,225116.000,4910.38399,N,12304.32027,W,1,12,0.8,005.01,M,-16.8,M,,*54
$GPRMC,225116.000,A,4910.38399,N,12304.32027,W,2.0,357.0,250419,,,A*73
$GPGGA,225117.000,4910.38519,N,12304.32159,W,1,11,0.8,005.16,M,-16.8,M,,*56
$GPRMC,225117.000,A,4910.38519,N,12304.32159,W,2.0,355.4,250419,,,A*72
$GPGGA,225118.000,4910.38618,N,12304.32219,W,1,11,0.8,004.54,M,-16.8,M,,*5B
$GPRMC,225118.000,A,4910.38618,N,12304.32219,W,2.3,358.7,250419,,,A*75
$GPGGA,225119.000,4910.38707,N,12304.32307,W,1,11,0.8,004.61,M,-16.8,M,,*5D
$GPRMC,225119.000,A,4910.38707,N,12304.32307,W,2.3,357.4,250419,,,A*79
$GPGGA,225120.000,4910.38765,N,12304.32334,W,1,11,0.8,004.72,M,-16.8,M,,*51
$GPRMC,225120.000,A,4910.38765,N,12304.32334,W,1.5,355.3,250419,,,A*77
$GPGGA,225121.000,4910.38791,N,12304.32350,W,1,11,0.8,004.31,M,-16.8,M,,*5E
$GPRMC,225121.000,A,4910.38791,N,12304.32350,W,0.4,355.9,250419,,,A*75
$GPGGA,225122.000,4910.38791,N,12304.32350,W,1,10,0.8,004.31,M,-16.8,M,,*5C
$GPRMC,225122.000,A,4910.38791,N,12304.32350,W,0.0,0.0,250419,,,A*78
$GPGGA,225123.000,4910.38792,N,12304.32348,W,1,11,0.8,004.31,M,-16.8,M,,*56
$GPRMC,225123.000,A,4910.38792,N,12304.32348,W,0.0,0.0,250419,,,A*73
$GPGGA,225124.000,4910.38792,N,12304.32348,W,1,11,0.8,004.31,M,-16.8,M,,*51
$GPRMC,225124.000,A,4910.38792,N,12304.32348,W,0.0,0.0,250419,,,A*74
$GPGGA,225125.000,4910.38792,N,12304.32348,W,1,10,0.8,004.31,M,-16.8,M,,*51
$GPRMC,225125.000,A,4910.38792,N,12304.32348,W,0.0,0.0,250419,,,A*75
$GPGGA,225126.000,4910.38792,N,12304.32348,W,1,10,0.8,004.31,M,-16.8,M,,*52
$GPRMC,225126.000,A,4910.38792,N,12304.32348,W,0.0,0.0,250419,,,A*76
$GPGGA,225127.000,4910.38792,N,12304.32348,W,1,10,0.8,004.31,M,-16.8,M,,*53
$GPRMC,225127.000,A,4910.38792,N,12304.32348,W,0.0,0.0,250419,,,A*77
$GPGGA,225128.000,4910.38792,N,12304.32348,W,1,11,0.8,004.31,M,-16.8,M,,*5D
$GPRMC,225128.000,A,4910.38792,N,12304.32348,W,0.0,0.0,250419,,,A*78
$GPGGA,225129.000,4910.38792,N,12304.32348,W,1,11,0.8,004.31,M,-16.8,M,,*5C
$GPRMC,225129.000,A,4910.38792,N,12304.32348,W,0.0,0.0,250419,,,A*79
$GPGGA,225130.000,4910.38792,N,12304.32348,W,1,11,0.8,004.31,M,-16.8,M,,*54
$GPRMC,225130.000,A,4910.38792,N,12304.32348,W,0.0,0.0,250419,,,A*71
$GPGGA,225131.000,4910.38792,N,12304.32348,W,1,11,0.8,004.31,M,-16.8,M,,*55
$GPRMC,225131.000,A,4910.38792,N,12304.32348,W,0.1,0.0,250419,,,A*71
$GPGGA,225132.000,4910.38792,N,12304.32348,W,1,11,0.8,004.31,M,-16.8,M,,*56
$GPRMC,225132.000,A,4910.38792,N,12304.32348,W,0.0,0.0,250419,,,A*73
$GPGGA,225133.000,4910.38792,N,12304.32348,W,1,11,0.8,004.31,M,-16.8,M,,*57
$GPRMC,225133.000,A,4910.38792,N,12304.32348,W,0.3,0.0,250419,,,A*71
$GPGGA,225134.000,4910.38792,N,12304.32348,W,1,11,0.8,004.31,M,-16.8,M,,*50
$GPRMC,225134.000,A,4910.38792,N,12304.32348,W,0.7,0.0,250419,,,A*72
$GPGGA,225135.000,4910.38792,N,12304.32348,W,1,12,0.8,004.31,M,-16.8,M,,*52
$GPRMC,225135.000,A,4910.38792,N,12304.32348,W,0.8,0.0,250419,,,A*7C
$GPGGA,225136.000,4910.38792,N,12304.32348,W,1,11,0.8,004.31,M,-16.8,M,,*52
$GPRMC,225136.000,A,4910.38792,N,12304.32348,W,0.9,0.0,250419,,,A*7E
$GPGGA,225137.000,4910.38792,N,12304.32348,W,1,11,0.8,004.31,M,-16.8,M,,*53
$GPRMC,225137.000,A,4910.38792,N,12304.32348,W,0.9,0.0,250419,,,A*7F
$GPGGA,225138.000,4910.38792,N,12304.32348,W,1,11,0.8,004.31,M,-16.8,M,,*5C
$GPRMC,225138.000,A,4910.38792,N,12304.32348,W,0.8,0.0,250419,,,A*71
$GPGGA,225139.000,4910.38792,N,12304.32348,W,1,10,0.8,004.31,M,-16.8,M,,*5C
$GPRMC,225139.000,A,4910.38792,N,12304.32348,W,0.9,0.0,250419,,,A*71
$GPGGA,225140.000,4910.38792,N,12304.32348,W,1,10,0.8,004.31,M,-16.8,M,,*52
$GPRMC,225140.000,A,4910.38792,N,12304.32348,W,1.0,0.0,250419,,,A*77
$GPGGA,225141.000,4910.38792,N,12304.32348,W,1,10,0.8,004.31,M,-16.8,M,,*53
$GPRMC,225141.000,A,4910.38792,N,12304.32348,W,1.0,0.0,250419,,,A*76
$GPGGA,225142.000,4910.38792,N,12304.32348,W,1,11,0.8,004.31,M,-16.8,M,,*51
$GPRMC,225142.000,A,4910.38792,N,12304.32348,W,0.8,0.0,250419,,,A*7C
$GPGGA,225143.000,4910.38792,N,12304.32348,W,1,11,0.8,004.31,M,-16.8,M,,*50
$GPRMC,225143.000,A,4910.38792,N,12304.32348,W,0.7,0.0,250419,,,A*72
$GPGGA,225144.000,4910.38792,N,12304.32348,W,1,11,0.8,004.31,M,-16.8,M,,*57
$GPRMC,225144.000,A,4910.38792,N,12304.32348,W,0.6,0.0,250419,,,A*74
$GPGGA,225145.000,4910.38792,N,12304.32348,W,1,12,0.8,004.31,M,-16.8,M,,*55
$GPRMC,225145.000,A,4910.38792,N,12304.32348,W,0.2,0.0,250419,,,A*71
$GPGGA,225146.000,4910.38792,N,12304.32348,W,1,12,0.8,004.31,M,-16.8,M,,*56
$GPRMC,225146.000,A,4910.38792,N,12304.32348,W,0.0,0.0,250419,,,A*70
$GPGGA,225147.000,4910.38792,N,12304.32348,W,1,10,0.8,004.31,M,-16.8,M,,*55
$GPRMC,225147.000,A,4910.38792,N,12304.32348,W,0.1,0.0,250419,,,A*70
$GPGGA,225148.000,4910.38792,N,12304.32348,W,1,10,0.8,004.31,M,-16.8,M,,*5A
$GPRMC,225148.000,A,4910.38792,N,12304.32348,W,0.0,0.0,250419,,,A*7E
$GPGGA,225149.000,4910.38792,N,12304.32348,W,1,11,0.8,004.31,M,-16.8,M,,*5A
$GPRMC,225149.000,A,4910.38792,N,12304.32348,W,0.0,0.0,250419,,,A*7F
$GPGGA,225150.000,4910.38792,N,12304.32348,W,1,12,0.8,004.31,M,-16.8,M,,*51
$GPRMC,225150.000,A,4910.38792,N,12304.32348,W,0.0,0.0,250419,,,A*77
$GPGGA,225151.000,4910.38792,N,12304.32348,W,1,12,0.8,004.31,M,-16.8,M,,*50
$GPRMC,225151.000,A,4910.38792,N,12304.32348,W,0.0,0.0,250419,,,A*76
$GPGGA,225152.000,4910.38792,N,12304.32348,W,1,11,0.8,004.31,M,-16.8,M,,*50
$GPRMC,225152.000,A,4910.38792,N,12304.32348,W,0.0,0.0,250419,,,A*75
$GPGGA,225153.000,4910.38792,N,12304.32348,W,1,12,0.8,004.31,M,-16.8,M,,*52
$GPRMC,225153.000,A,4910.38792,N,12304.32348,W,0.0,0.0,250419,,,A*74
$GPGGA,225154.000,4910.38792,N,12304.32348,W,1,12,0.8,004.31,M,-16.8,M,,*55
$GPRMC,225154.000,A,4910.38792,N,12304.32348,W,0.1,0.0,250419,,,A*72
$GPGGA,225155.000,4910.38792,N,12304.32348,W,1,12,0.8,004.31,M,-16.8,M,,*54
$GPRMC,225155.000,A,4910.38792,N,12304.32348,W,0.5,0.0,250419,,,A*77
$GPGGA,225156.000,4910.38792,N,12304.32348,W,1,11,0.8,004.31,M,-16.8,M,,*54
$GPRMC,225156.000,A,4910.38792,N,12304.32348,W,0.9,0.0,250419,,,A*78
$GPGGA,225157.000,4910.38792,N,12304.32348,W,1,11,0.8,004.31,M,-16.8,M,,*55
$GPRMC,225157.000,A,4910.38792,N,12304.32348,W,1.2,0.0,250419,,,A*73
$GPGGA,225158.000,4910.38792,N,12304.32348,W,1,12,0.8,004.31,M,-16.8,M,,*59
$GPRMC,225158.000,A,4910.38792,N,12304.32348,W,1.1,0.0,250419,,,A*7F
$GPGGA,225159.000,4910.38791,N,12304.32350,W,1,12,0.8,004.31,M,-16.8,M,,*52
$GPRMC,225159.000,A,4910.38791,N,12304.32350,W,1.0,1.1,250419,,,A*75
$GPGGA,225200.000,4910.38791,N,12304.32350,W,1,11,0.8,004.31,M,-16.8,M,,*5E
$GPRMC,225200.000,A,4910.38791,N,12304.32350,W,0.7,356.5,250419,,,A*79
$GPGGA,225201.000,4910.38792,N,12304.32348,W,1,11,0.8,004.16,M,-16.8,M,,*50
$GPRMC,225201.000,A,4910.38792,N,12304.32348,W,0.0,0.0,250419,,,A*70
$GPGGA,225202.000,4910.38792,N,12304.32348,W,1,11,0.8,004.16,M,-16.8,M,,*53
$GPRMC,225202.000,A,4910.38792,N,12304.32348,W,0.0,0.0,250419,,,A*73
$GPGGA,225203.000,4910.38792,N,12304.32348,W,1,10,0.8,004.16,M,-16.8,M,,*53
$GPRMC,225203.000,A,4910.38792,N,12304.32348,W,0.0,0.0,250419,,,A*72
$GPGGA,225204.000,4910.38792,N,12304.32348,W,1,10,0.8,004.16,M,-16.8,M,,*54
$GPRMC,225204.000,A,4910.38792,N,12304.32348,W,0.0,0.0,250419,,,A*75
$GPGGA,225205.000,4910.38792,N,12304.32348,W,1,10,0.8,004.16,M,-16.8,M,,*55
$GPRMC,225205.000,A,4910.38792,N,12304.32348,W,0.0,0.0,250419,,,A*74
$GPGGA,225206.000,4910.38792,N,12304.32348,W,1,10,0.8,004.16,M,-16.8,M,,*56
$GPRMC,225206.000,A,4910.38792,N,12304.32348,W,0.0,0.0,250419,,,A*77
$GPGGA,225207.000,4910.38792,N,12304.32348,W,1,10,0.8,004.16,M,-16.8,M,,*57
$GPRMC,225207.000,A,4910.38792,N,12304.32348,W,0.0,0.0,250419,,,A*76
$GPGGA,225208.000,4910.38792,N,12304.32348,W,1,09,0.8,004.16,M,-16.8,M,,*50
$GPRMC,225208.000,A,4910.38792,N,12304.32348,W,0.0,0.0,250419,,,A*79
$GPGGA,225209.000,4910.38792,N,12304.32348,W,1,11,0.8,004.16,M,-16.8,M,,*58
$GPRMC,225209.000,A,4910.38792,N,12304.32348,W,0.1,0.0,250419,,,A*79
$GPGGA,225210.000,4910.38792,N,12304.32348,W,1,12,0.8,004.16,M,-16.8,M,,*53
$GPRMC,225210.000,A,4910.38792,N,12304.32348,W,0.0,0.0,250419,,,A*70
$GPGGA,225211.000,4910.38792,N,12304.32348,W,1,12,0.8,004.16,M,-16.8,M,,*52
$GPRMC,225211.000,A,4910.38792,N,12304.32348,W,0.2,0.0,250419,,,A*73
$GPGGA,225212.000,4910.38792,N,12304.32348,W,1,12,0.8,004.16,M,-16.8,M,,*51
$GPRMC,225212.000,A,4910.38792,N,12304.32348,W,0.8,0.0,250419,,,A*7A
$GPGGA,225213.000,4910.38792,N,12304.32348,W,1,10,0.8,004.16,M,-16.8,M,,*52
$GPRMC,225213.000,A,4910.38792,N,12304.32348,W,1.3,0.0,250419,,,A*71
$GPGGA,225214.000,4910.38792,N,12304.32348,W,1,10,0.8,004.16,M,-16.8,M,,*55
$GPRMC,225214.000,A,4910.38792,N,12304.32348,W,1.2,0.0,250419,,,A*77
$GPGGA,225215.000,4910.38868,N,12304.32343,W,1,12,0.8,004.16,M,-16.8,M,,*57
$GPRMC,225215.000,A,4910.38868,N,12304.32343,W,1.1,356.5,250419,,,A*71
$GPGGA,225216.000,4910.38868,N,12304.32343,W,1,12,0.8,004.16,M,-16.8,M,,*54
$GPRMC,225216.000,A,4910.38868,N,12304.32343,W,0.6,357.6,250419,,,A*76
$GPGGA,225217.000,4910.38868,N,12304.32343,W,1,13,0.8,004.16,M,-16.8,M,,*54
$GPRMC,225217.000,A,4910.38868,N,12304.32343,W,0.2,0.0,250419,,,A*74
$GPGGA,225218.000,4910.38870,N,12304.32342,W,1,12,0.8,004.16,M,-16.8,M,,*52
$GPRMC,225218.000,A,4910.38870,N,12304.32342,W,0.0,0.0,250419,,,A*71
$GPGGA,225219.000,4910.38870,N,12304.32342,W,1,11,0.8,004.16,M,-16.8,M,,*50
$GPRMC,225219.000,A,4910.38870,N,12304.32342,W,0.1,0.0,250419,,,A*71
$GPGGA,225220.000,4910.38870,N,12304.32342,W,1,11,0.8,004.16,M,-16.8,M,,*5A
$GPRMC,225220.000,A,4910.38870,N,12304.32342,W,0.0,0.0,250419,,,A*7A
$GPGGA,225221.000,4910.38870,N,12304.32342,W,1,11,0.8,004.16,M,-16.8,M,,*5B
$GPRMC,225221.000,A,4910.38870,N,12304.32342,W,0.0,0.0,250419,,,A*7B
$GPGGA,225222.000,4910.38870,N,12304.32342,W,1,12,0.8,004.16,M,-16.8,M,,*5B
$GPRMC,225222.000,A,4910.38870,N,12304.32342,W,0.0,0.0,250419,,,A*78
$GPGGA,225223.000,4910.38870,N,12304.32342,W,1,12,0.8,004.16,M,-16.8,M,,*5A
$GPRMC,225223.000,A,4910.38870,N,12304.32342,W,0.0,0.0,250419,,,A*79
$GPGGA,225224.000,4910.38870,N,12304.32342,W,1,12,0.8,004.16,M,-16.8,M,,*5D
$GPRMC,225224.000,A,4910.38870,N,12304.32342,W,0.0,0.0,250419,,,A*7E
$GPGGA,225225.000,4910.38870,N,12304.32342,W,1,11,0.8,004.16,M,-16.8,M,,*5F
$GPRMC,225225.000,A,4910.38870,N,12304.32342,W,0.0,0.0,250419,,,A*7F
$GPGGA,225226.000,4910.38870,N,12304.32342,W,1,12,0.8,004.16,M,-16.8,M,,*5F
$GPRMC,225226.000,A,4910.38870,N,12304.32342,W,0.0,0.0,250419,,,A*7C
$GPGGA,225227.000,4910.38870,N,12304.32342,W,1,11,0.8,004.16,M,-16.8,M,,*5D
$GPRMC,225227.000,A,4910.38870,N,12304.32342,W,0.0,0.0,250419,,,A*7D
$GPGGA,225228.000,4910.38870,N,12304.32342,W,1,11,0.8,004.16,M,-16.8,M,,*52
$GPRMC,225228.000,A,4910.38870,N,12304.32342,W,0.0,0.0,250419,,,A*72
$GPGGA,225229.000,4910.38870,N,12304.32342,W,1,11,0.8,004.16,M,-16.8,M,,*53
$GPRMC,225229.000,A,4910.38870,N,12304.32342,W,0.0,0.0,250419,,,A*73
$GPGGA,225230.000,4910.38870,N,12304.32342,W,1,12,0.8,004.16,M,-16.8,M,,*58
$GPRMC,225230.000,A,4910.38870,N,12304.32342,W,0.1,0.0,250419,,,A*7A
$GPGGA,225231.000,4910.38870,N,12304.32342,W,1,11,0.8,004.16,M,-16.8,M,,*5A
$GPRMC,225231.000,A,4910.38870,N,12304.32342,W,0.6,0.0,250419,,,A*7C
$GPGGA,225232.000,4910.38870,N,12304.32342,W,1,12,0.8,004.16,M,-16.8,M,,*5A
$GPRMC,225232.000,A,4910.38870,N,12304.32342,W,0.9,0.0,250419,,,A*70
$GPGGA,225233.000,4910.38870,N,12304.32342,W,1,12,0.8,004.16,M,-16.8,M,,*5B
$GPRMC,225233.000,A,4910.38870,N,12304.32342,W,1.0,0.0,250419,,,A*79
$GPGGA,225234.000,4910.38870,N,12304.32342,W,1,11,0.8,004.16,M,-16.8,M,,*5F
$GPRMC,225234.000,A,4910.38870,N,12304.32342,W,0.9,0.0,250419,,,A*76
$GPGGA,225235.000,4910.38870,N,12304.32342,W,1,10,0.8,004.16,M,-16.8,M,,*5F
$GPRMC,225235.000,A,4910.38870,N,12304.32342,W,0.8,0.0,250419,,,A*76
$GPGGA,225236.000,4910.38870,N,12304.32342,W,1,11,0.8,004.16,M,-16.8,M,,*5D
$GPRMC,225236.000,A,4910.38870,N,12304.32342,W,0.9,0.0,250419,,,A*74
$GPGGA,225237.000,4910.38870,N,12304.32342,W,1,11,0.8,004.16,M,-16.8,M,,*5C
$GPRMC,225237.000,A,4910.38870,N,12304.32342,W,0.8,0.0,250419,,,A*74
$GPGGA,225238.000,4910.38870,N,12304.32342,W,1,11,0.8,004.16,M,-16.8,M,,*53
$GPRMC,225238.000,A,4910.38870,N,12304.32342,W,0.6,0.0,250419,,,A*75
$GPGGA,225239.000,4910.38870,N,12304.32342,W,1,11,0.8,004.16,M,-16.8,M,,*52
$GPRMC,225239.000,A,4910.38870,N,12304.32342,W,0.5,0.0,250419,,,A*77
$GPGGA,225240.000,4910.38870,N,12304.32342,W,1,12,0.8,004.16,M,-16.8,M,,*5F
$GPRMC,225240.000,A,4910.38870,N,12304.32342,W,0.3,0.0,250419,,,A*7F
$GPGGA,225241.000,4910.38870,N,12304.32342,W,1,12,0.8,004.50,M,-16.8,M,,*5C
$GPRMC,225241.000,A,4910.38870,N,12304.32342,W,0.5,0.0,250419,,,A*78
$GPGGA,225242.000,4910.38870,N,12304.32342,W,1,12,0.8,004.50,M,-16.8,M,,*5F
$GPRMC,225242.000,A,4910.38870,N,12304.32342,W,0.7,0.0,250419,,,A*79
$GPGGA,225243.000,4910.38870,N,12304.32342,W,1,11,0.8,004.50,M,-16.8,M,,*5D
$GPRMC,225243.000,A,4910.38870,N,12304.32342,W,0.8,0.0,250419,,,A*77
$GPGGA,225244.000,4910.38870,N,12304.32342,W,1,11,0.8,004.50,M,-16.8,M,,*5A
$GPRMC,225244.000,A,4910.38870,N,12304.32342,W,0.7,0.0,250419,,,A*7F
$GPGGA,225245.000,4910.38870,N,12304.32342,W,1,12,0.8,004.50,M,-16.8,M,,*58
$GPRMC,225245.000,A,4910.38870,N,12304.32342,W,0.5,0.0,250419,,,A*7C
$GPGGA,225246.000,4910.38870,N,12304.32342,W,1,11,0.8,004.50,M,-16.8,M,,*58
$GPRMC,225246.000,A,4910.38870,N,12304.32342,W,0.2,0.0,250419,,,A*78
$GPGGA,225247.000,4910.38870,N,12304.32342,W,1,12,0.8,004.50,M,-16.8,M,,*5A
$GPRMC,225247.000,A,4910.38870,N,12304.32342,W,0.4,0.0,250419,,,A*7F
$GPGGA,225248.000,4910.38870,N,12304.32342,W,1,13,0.8,004.50,M,-16.8,M,,*54
$GPRMC,225248.000,A,4910.38870,N,12304.32342,W,0.3,0.0,250419,,,A*77
$GPGGA,225249.000,4910.38870,N,12304.32342,W,1,12,0.8,004.50,M,-16.8,M,,*54
$GPRMC,225249.000,A,4910.38870,N,12304.32342,W,0.2,0.0,250419,,,A*77
$GPGGA,225250.000,4910.38870,N,12304.32342,W,1,11,0.8,004.50,M,-16.8,M,,*5F
$GPRMC,225250.000,A,4910.38870,N,12304.32342,W,0.1,0.0,250419,,,A*7C
$GPGGA,225251.000,4910.38870,N,12304.32342,W,1,10,0.8,004.50,M,-16.8,M,,*5F
$GPRMC,225251.000,A,4910.38870,N,12304.32342,W,0.3,0.0,250419,,,A*7F
$GPGGA,225252.000,4910.38870,N,12304.32342,W,1,10,0.8,004.50,M,-16.8,M,,*5C
$GPRMC,225252.000,A,4910.38870,N,12304.32342,W,0.3,0.0,250419,,,A*7C
$GPGGA,225253.000,4910.38870,N,12304.32342,W,1,12,0.8,004.50,M,-16.8,M,,*5F
$GPRMC,225253.000,A,4910.38870,N,12304.32342,W,0.3,0.0,250419,,,A*7D
$GPGGA,225254.000,4910.38870,N,12304.32342,W,1,11,0.8,004.50,M,-16.8,M,,*5B
$GPRMC,225254.000,A,4910.38870,N,12304.32342,W,0.3,0.0,250419,,,A*7A
$GPGGA,225255.000,4910.38870,N,12304.32342,W,1,10,0.8,004.50,M,-16.8,M,,*5B
$GPRMC,225255.000,A,4910.38870,N,12304.32342,W,0.2,0.0,250419,,,A*7A
$GPGGA,225256.000,4910.38870,N,12304.32342,W,1,11,0.8,004.50,M,-16.8,M,,*59
$GPRMC,225256.000,A,4910.38870,N,12304.32342,W,0.1,0.0,250419,,,A*7A
$GPGGA,225257.000,4910.38870,N,12304.32342,W,1,11,0.8,004.50,M,-16.8,M,,*58
$GPRMC,225257.000,A,4910.38870,N,12304.32342,W,0.3,0.0,250419,,,A*79
