$GPGGA,212729.000,4910.31233,N,12304.12302,W,1,18,0.6,004.66,M,-16.8,M,,*50
$GPRMC,212729.000,A,4910.31233,N,12304.12302,W,0.0,0.0,161018,,,A*74
$GNGSA,A,3,10,32,20,08,27,18,14,24,11,01,,,1.0,0.6,0.8*27
$GNGSA,A,3,81,65,66,88,74,82,72,75,,,,,1.0,0.6,0.8*27
$PSIWMPVT,125.440,250066.999,3,49.1718722,-123.0687169,4.660,-0.013,-0.001,-0.011,5.099,3.742,6.152,0.612,0.354,0.000,19.666,0.219,18,*2D
$GPGGA,212730.000,4910.31233,N,12304.12302,W,1,18,0.6,004.66,M,-16.8,M,,*58
$GPRMC,212730.000,A,4910.31233,N,12304.12302,W,0.0,0.0,161018,,,A*7C
$GNGSA,A,3,10,32,20,08,27,18,14,24,11,01,,,1.0,0.6,0.8*27
$GNGSA,A,3,81,65,66,88,74,82,72,75,,,,,1.0,0.6,0.8*27
$PSIWMPVT,126.440,250067.999,3,49.1718722,-123.0687169,4.660,-0.016,0.004,-0.011,5.099,3.742,5.695,0.612,0.354,0.000,17.178,0.098,18,*00
$PSIWMPDR,2093.250,49.1718277,-123.0687185,-0.881,171.308776855,4.648944378,1,-2.418382883,0.525354564,-0.328240275,37.56,0.106265366,0.138313964,0.094037138,0.114536777,-1010101.125000000,152,*19
$GPGGA,212731.000,4910.31233,N,12304.12302,W,1,19,0.6,004.66,M,-16.8,M,,*58
$GPRMC,212731.000,A,4910.31233,N,12304.12302,W,0.0,0.0,161018,,,A*7D
$GNGSA,A,3,10,32,20,08,27,18,14,24,11,01,,,1.0,0.6,0.8*27
$GNGSA,A,3,81,65,66,88,74,82,72,87,75,,,,1.0,0.6,0.8*28
$PSIWMPVT,127.440,250068.999,3,49.1718722,-123.0687169,4.660,-0.005,-0.014,-0.005,5.099,3.808,5.699,0.612,0.354,0.000,17.382,0.098,19,*2E
$GPGGA,212732.000,4910.31225,N,12304.12285,W,1,19,0.6,005.07,M,-16.8,M,,*54
$GPRMC,212732.000,A,4910.31225,N,12304.12285,W,0.1,0.0,161018,,,A*76
$GNGSA,A,3,10,32,20,08,27,18,14,24,11,01,,,1.0,0.6,0.8*27
$GNGSA,A,3,81,65,66,88,74,82,72,87,75,,,,1.0,0.6,0.8*28
$PSIWMPVT,128.440,250069.999,3,49.1718709,-123.0687142,5.072,-0.058,-0.009,-0.004,4.743,3.240,5.324,0.612,0.354,0.000,17.465,0.176,19,*2A
$PSIWMPOS,000208.500,4910.31225,N,12304.12285,W,141.42,5.07,M,100.00,0,8,0,2,0,*63
$PSIWMATT,000208.500,360.0,T,6.4,-1.0,180.0,*5A
$PSIWMVEL,000208.500,360.0,T,0.0,K,-0.00,M,*7A
$PSIWMVSD,000208.500,0.00,0.00,0.00,2,0.00,0.00,0.00,2,*00
$GPGGA,212733.000,4910.31225,N,12304.12285,W,1,18,0.6,005.07,M,-16.8,M,,*54
$GPRMC,212733.000,A,4910.31225,N,12304.12285,W,0.5,235.9,161018,,,A*7E
$GNGSA,A,3,10,32,20,08,27,18,14,24,11,01,,,1.0,0.6,0.8*27
$GNGSA,A,3,81,65,66,88,74,82,72,75,,,,,1.0,0.6,0.8*27
$PSIWMPVT,129.470,250071.000,3,49.1718709,-123.0687142,5.072,-0.220,-0.149,-0.004,4.743,3.240,4.898,0.612,0.354,0.000,15.528,0.133,18,*27
$PSIWMPOS,000209.500,4910.31225,N,12304.12285,W,6.71,5.07,M,4.74,0,8,0,2,0,*66
$PSIWMATT,000209.500,360.0,T,6.3,-1.5,180.0,*59
$PSIWMVEL,000209.500,360.0,T,1.0,K,0.00,M,*57
$PSIWMVSD,000209.500,0.00,0.00,0.00,2,0.00,0.00,0.00,2,*01
$GPGGA,212734.000,4910.31225,N,12304.12285,W,1,18,0.6,005.07,M,-16.8,M,,*53
$GPRMC,212734.000,A,4910.31225,N,12304.12285,W,1.4,240.2,161018,,,A*70
$GNGSA,A,3,10,32,20,08,27,18,14,24,11,01,,,1.0,0.6,0.8*27
$GNGSA,A,3,81,65,66,88,74,82,72,75,,,,,1.0,0.6,0.8*27
$PSIWMPVT,130.480,250071.999,3,49.1718709,-123.0687142,5.072,-0.621,-0.356,-0.010,4.743,3.240,5.332,0.612,0.354,0.000,16.010,0.191,18,*2A
$PSIWMPOS,000210.500,4910.31225,N,12304.12285,W,6.71,5.07,M,4.74,0,8,0,2,0,*6E
$PSIWMATT,000210.500,360.0,T,7.9,-2.2,180.0,*5E
$PSIWMVEL,000210.500,360.0,T,2.6,K,0.01,M,*5B
$PSIWMVSD,000210.500,0.00,0.00,0.00,2,0.00,0.00,0.00,2,*09
$GPGGA,212735.000,4910.31225,N,12304.12285,W,1,18,0.6,005.07,M,-16.8,M,,*52
$GPRMC,212735.000,A,4910.31225,N,12304.12285,W,2.6,244.8,161018,,,A*7E
$GNGSA,A,3,10,32,20,08,27,18,14,24,11,01,,,1.0,0.6,0.8*27
$GNGSA,A,3,81,65,66,88,74,82,72,75,,,,,1.0,0.6,0.8*27
$PSIWMPVT,131.480,250072.999,3,49.1718709,-123.0687142,5.072,-1.208,-0.567,-0.013,4.796,3.240,4.879,0.612,0.354,0.000,13.840,0.301,18,*2F
$PSIWMPOS,000211.500,4910.31225,N,12304.12285,W,8.14,5.07,M,5.75,0,8,0,2,0,*62
$PSIWMATT,000211.500,244.8,T,10.5,-6.1,180.0,*6D
$PSIWMVEL,000211.500,244.8,T,4.8,K,0.01,M,*5D
$PSIWMVSD,000211.500,0.00,0.00,0.00,2,0.00,0.00,0.00,2,*08
$GPGGA,212736.000,4910.31207,N,12304.12464,W,1,18,0.6,004.75,M,-16.8,M,,*5C
$GPRMC,212736.000,A,4910.31207,N,12304.12464,W,4.3,258.4,161018,,,A*76
$GNGSA,A,3,10,32,20,08,27,18,14,24,11,01,,,1.0,0.6,0.8*27
$GNGSA,A,3,81,65,66,88,74,82,72,75,,,,,1.0,0.6,0.8*27
$PSIWMPVT,132.490,250073.999,3,49.1718678,-123.0687440,4.754,-2.190,-0.449,-0.014,4.848,3.240,4.586,0.612,0.354,0.000,12.514,0.312,18,*2B
$PSIWMPOS,000212.500,4910.31207,N,12304.12464,W,8.23,4.75,M,5.82,0,8,0,2,0,*60
$PSIWMATT,000212.500,258.4,T,11.0,-10.0,180.0,*5D
$PSIWMVEL,000212.500,258.4,T,8.0,K,0.01,M,*5B
$PSIWMVSD,000212.500,0.00,0.00,0.00,2,0.00,0.00,0.00,2,*0B
$GPGGA,212737.000,4910.31192,N,12304.12708,W,1,18,0.6,004.67,M,-16.8,M,,*58
$GPRMC,212737.000,A,4910.31192,N,12304.12708,W,5.3,275.4,161018,,,A*7F
$GNGSA,A,3,10,32,20,08,27,18,14,24,11,01,,,1.0,0.6,0.8*27
$GNGSA,A,3,81,65,66,88,74,82,72,75,,,,,1.0,0.6,0.8*27
$PSIWMPVT,133.490,250075.000,3,49.1718654,-123.0687847,4.665,-2.715,0.258,-0.022,4.899,3.240,6.223,0.612,0.354,0.000,12.907,0.395,18,*01
$PSIWMPOS,000213.500,4910.31192,N,12304.12708,W,8.31,4.67,M,5.88,0,8,0,2,0,*6D
$PSIWMATT,000213.500,275.4,T,9.4,-8.9,180.0,*5E
$PSIWMVEL,000213.500,275.4,T,9.8,K,0.02,M,*5F
$PSIWMVSD,000213.500,0.00,0.00,0.00,2,0.00,0.00,0.00,2,*0A
$GPGGA,212738.000,4910.31225,N,12304.12963,W,1,17,0.6,004.70,M,-16.8,M,,*52
$GPRMC,212738.000,A,4910.31225,N,12304.12963,W,5.8,290.3,161018,,,A*7B
$GNGSA,A,3,10,32,20,08,27,18,14,24,11,01,,,1.0,0.6,0.8*27
$GNGSA,A,3,81,65,66,88,74,82,72,,,,,,1.0,0.6,0.8*25
$PSIWMPVT,134.490,250075.999,3,49.1718708,-123.0688271,4.699,-2.812,1.039,-0.025,4.950,3.240,5.047,0.612,0.354,0.000,10.422,0.734,17,*00
$PSIWMPOS,000214.500,4910.31225,N,12304.12963,W,8.40,4.70,M,5.94,0,8,0,2,0,*6B
$PSIWMATT,000214.500,290.3,T,8.4,-7.1,180.0,*53
$PSIWMVEL,000214.500,290.3,T,10.8,K,0.03,M,*6D
$PSIWMVSD,000214.500,0.00,0.00,0.00,2,0.00,0.00,0.00,2,*0D
$GPGGA,212739.000,4910.31282,N,12304.13203,W,1,18,0.6,004.68,M,-16.8,M,,*54
$GPRMC,212739.000,A,4910.31282,N,12304.13203,W,5.8,296.3,161018,,,A*7D
$GNGSA,A,3,10,32,20,08,27,18,14,24,11,01,,,1.0,0.6,0.8*27
$GNGSA,A,3,81,65,66,88,74,82,72,73,,,,,1.0,0.6,0.8*21
$PSIWMPVT,135.490,250076.999,3,49.1718804,-123.0688672,4.675,-2.671,1.319,-0.018,5.000,3.317,4.809,0.612,0.354,0.000,9.793,0.586,18,*38
$PSIWMPOS,000215.500,4910.31282,N,12304.13203,W,8.49,4.68,M,6.00,0,8,0,2,0,*65
$PSIWMATT,000215.500,296.3,T,6.1,-4.9,180.0,*54
$PSIWMVEL,000215.500,296.3,T,10.7,K,0.02,M,*64
$PSIWMVSD,000215.500,0.00,0.00,0.00,2,0.00,0.00,0.00,2,*0C
$GPGGA,212740.000,4910.31358,N,12304.13440,W,1,19,0.6,004.81,M,-16.8,M,,*5B
$GPRMC,212740.000,A,4910.31358,N,12304.13440,W,5.3,295.7,161018,,,A*78
$GNGSA,A,3,10,32,20,08,27,18,14,24,11,01,,,1.0,0.6,0.8*27
$GNGSA,A,3,81,65,66,88,74,82,72,73,75,,,,1.0,0.6,0.8*23
$PSIWMPVT,136.490,250077.999,3,49.1718930,-123.0689067,4.809,-2.459,1.183,-0.019,5.050,3.317,4.020,0.612,0.354,0.000,8.089,0.605,19,*30
$PSIWMPOS,000216.500,4910.31358,N,12304.13440,W,8.57,4.81,M,6.06,0,8,0,2,0,*6F
$PSIWMATT,000216.500,295.7,T,3.6,-3.7,180.0,*5B
$PSIWMVEL,000216.500,295.7,T,9.8,K,0.02,M,*57
$PSIWMVSD,000216.500,0.00,0.00,0.00,2,0.00,0.00,0.00,2,*0F
$GPGGA,212741.000,4910.31413,N,12304.13644,W,1,19,0.6,004.97,M,-16.8,M,,*53
$GPRMC,212741.000,A,4910.31413,N,12304.13644,W,4.0,289.9,161018,,,A*76
$GNGSA,A,3,10,32,20,08,27,18,14,24,11,01,,,1.0,0.6,0.8*27
$GNGSA,A,3,81,65,66,88,74,82,72,73,75,,,,1.0,0.6,0.8*23
$PSIWMPVT,137.490,250079.000,3,49.1719021,-123.0689406,4.970,-1.953,0.705,-0.025,5.050,3.391,3.957,0.612,0.354,0.000,7.898,0.559,19,*3D
$PSIWMPOS,000217.500,4910.31413,N,12304.13644,W,8.57,4.97,M,6.06,0,8,0,2,0,*67
$PSIWMATT,000217.500,289.9,T,1.7,-2.2,180.0,*5E
$PSIWMVEL,000217.500,289.9,T,7.5,K,0.02,M,*56
$PSIWMVSD,000217.500,0.00,0.00,0.00,2,0.00,0.00,0.00,2,*0E
$GPGGA,212742.000,4910.31452,N,12304.13783,W,1,17,0.6,004.94,M,-16.8,M,,*52
$GPRMC,212742.000,A,4910.31452,N,12304.13783,W,2.6,284.6,161018,,,A*78
$GNGSA,A,3,10,32,20,08,27,18,14,24,11,01,,,1.0,0.6,0.8*27
$GNGSA,A,3,81,65,66,88,82,72,73,,,,,,1.0,0.6,0.8*22
$PSIWMPVT,138.490,250080.000,3,49.1719087,-123.0689638,4.943,-1.314,0.343,-0.014,5.099,3.391,3.688,0.612,0.354,0.000,6.910,0.203,17,*34
$PSIWMPOS,000218.500,4910.31452,N,12304.13783,W,8.65,4.94,M,6.12,0,8,0,2,0,*60
$PSIWMATT,000218.500,284.6,T,1.2,-1.3,180.0,*54
$PSIWMVEL,000218.500,284.6,T,4.9,K,0.01,M,*57
$PSIWMVSD,000218.500,0.00,0.00,0.00,2,0.00,0.00,0.00,2,*01
$GPGGA,212743.000,4910.31466,N,12304.13852,W,1,19,0.6,005.01,M,-16.8,M,,*54
$GPRMC,212743.000,A,4910.31466,N,12304.13852,W,1.7,282.7,161018,,,A*78
$GNGSA,A,3,10,32,20,08,27,18,14,24,11,01,,,1.0,0.6,0.8*27
$GNGSA,A,3,81,65,66,88,82,72,73,87,75,,,,1.0,0.6,0.8*2F
$PSIWMPVT,139.490,250080.999,3,49.1719110,-123.0689753,5.012,-0.876,0.197,-0.003,5.099,3.464,3.340,0.612,0.354,0.000,6.090,0.141,19,*36
$PSIWMPOS,000219.500,4910.31466,N,12304.13852,W,8.65,5.01,M,6.12,0,8,0,2,0,*68
$PSIWMATT,000219.500,282.7,T,0.5,-1.5,180.0,*52
$PSIWMVEL,000219.500,282.7,T,3.2,K,0.00,M,*5C
$PSIWMVSD,000219.500,0.00,0.00,0.00,2,0.00,0.00,0.00,2,*00
$GPGGA,212744.000,4910.31488,N,12304.13923,W,1,19,0.6,005.11,M,-16.8,M,,*55
$GPRMC,212744.000,A,4910.31488,N,12304.13923,W,1.8,279.8,161018,,,A*7C
$GNGSA,A,3,10,32,20,08,27,18,14,24,11,21,01,,1.0,0.6,0.8*24
$GNGSA,A,3,81,65,66,88,82,73,87,75,,,,,1.0,0.6,0.8*2A
$PSIWMPVT,140.490,250082.000,3,49.1719146,-123.0689871,5.110,-0.895,0.154,-0.004,5.099,3.464,3.875,0.612,0.354,0.000,7.040,0.141,19,*38
$PSIWMPOS,000220.500,4910.31488,N,12304.13923,W,8.65,5.11,M,6.12,0,8,0,2,0,*64
$PSIWMATT,000220.500,279.8,T,1.3,-1.5,180.0,*54
$PSIWMVEL,000220.500,279.8,T,3.3,K,0.00,M,*5C
$PSIWMVSD,000220.500,0.00,0.00,0.00,2,0.00,0.00,0.00,2,*0A
$GPGGA,212745.000,4910.31493,N,12304.14034,W,1,19,0.6,004.90,M,-16.8,M,,*5E
$GPRMC,212745.000,A,4910.31493,N,12304.14034,W,4.3,275.9,161018,,,A*7C
$GNGSA,A,3,10,32,20,08,27,18,14,24,11,21,01,,1.0,0.6,0.8*24
$GNGSA,A,3,81,65,66,88,82,73,87,75,,,,,1.0,0.6,0.8*2A
$PSIWMPVT,141.490,250083.000,3,49.1719154,-123.0690056,4.904,-2.192,0.225,-0.018,5.099,3.464,3.848,0.612,0.354,0.000,6.992,0.262,19,*3D
$PSIWMPOS,000221.500,4910.31493,N,12304.14034,W,8.65,4.90,M,6.12,0,8,0,2,0,*6F
$PSIWMATT,000221.500,275.9,T,3.7,-1.2,180.0,*59
$PSIWMVEL,000221.500,275.9,T,7.9,K,0.02,M,*5C
$PSIWMVSD,000221.500,0.00,0.00,0.00,2,0.00,0.00,0.00,2,*0B
$GPGGA,212746.000,4910.31494,N,12304.14247,W,1,18,0.6,004.75,M,-16.8,M,,*56
$GPRMC,212746.000,A,4910.31494,N,12304.14247,W,5.4,272.1,161018,,,A*77
$GNGSA,A,3,10,32,20,08,27,18,14,24,11,21,,,1.0,0.6,0.8*25
$GNGSA,A,3,81,65,66,88,82,73,87,75,,,,,1.0,0.6,0.8*2A
$PSIWMPVT,142.490,250084.000,3,49.1719156,-123.0690412,4.748,-2.760,0.104,-0.030,5.099,3.536,3.711,0.612,0.354,0.000,6.738,0.520,18,*33
$PSIWMPOS,000222.500,4910.31494,N,12304.14247,W,8.65,4.75,M,6.12,0,8,0,2,0,*66
$PSIWMATT,000222.500,272.1,T,5.3,-0.9,180.0,*5D
$PSIWMVEL,000222.500,272.1,T,9.9,K,0.03,M,*5F
$PSIWMVSD,000222.500,0.00,0.00,0.00,2,0.00,0.00,0.00,2,*08
$GPGGA,212747.000,4910.31501,N,12304.14446,W,1,18,0.6,004.59,M,-16.8,M,,*53
$GPRMC,212747.000,A,4910.31501,N,12304.14446,W,4.2,271.3,161018,,,A*7A
$GNGSA,A,3,10,32,20,08,27,18,14,24,11,21,,,1.0,0.6,0.8*25
$GNGSA,A,3,81,65,66,88,82,73,87,75,,,,,1.0,0.6,0.8*2A
$PSIWMPVT,143.490,250084.999,3,49.1719169,-123.0690744,4.594,-2.183,0.051,-0.020,5.099,3.536,3.891,0.612,0.354,0.000,7.069,0.242,18,*39
$PSIWMPOS,000223.500,4910.31501,N,12304.14446,W,8.65,4.59,M,6.12,0,8,0,2,0,*63
$PSIWMATT,000223.500,271.3,T,2.5,0.4,180.0,*7C
$PSIWMVEL,000223.500,271.3,T,7.9,K,0.02,M,*50
$PSIWMVSD,000223.500,0.00,0.00,0.00,2,0.00,0.00,0.00,2,*09
$GPGGA,212748.000,4910.31501,N,12304.14623,W,1,19,0.6,004.72,M,-16.8,M,,*55
$GPRMC,212748.000,A,4910.31501,N,12304.14623,W,4.9,276.7,161018,,,A*7C
$GNGSA,A,3,10,32,20,08,27,18,14,24,11,21,,,1.0,0.6,0.8*25
$GNGSA,A,3,81,65,66,88,74,82,73,87,75,,,,1.0,0.6,0.8*29
$PSIWMPVT,144.490,250086.000,3,49.1719168,-123.0691038,4.724,-2.497,0.293,-0.032,5.099,3.536,5.012,0.612,0.354,0.000,9.101,0.883,19,*3D
$PSIWMPOS,000224.500,4910.31501,N,12304.14623,W,8.65,4.72,M,6.12,0,8,0,2,0,*6C
$PSIWMATT,000224.500,276.7,T,5.5,-1.4,180.0,*53
$PSIWMVEL,000224.500,276.7,T,9.1,K,0.03,M,*53
$PSIWMVSD,000224.500,0.00,0.00,0.00,2,0.00,0.00,0.00,2,*0E
$GPGGA,212749.000,4910.31554,N,12304.14856,W,1,18,0.6,004.73,M,-16.8,M,,*58
$GPRMC,212749.000,A,4910.31554,N,12304.14856,W,7.3,303.7,161018,,,A*7B
$GNGSA,A,3,10,32,20,08,27,18,14,24,11,21,,,1.0,0.6,0.8*25
$GNGSA,A,3,81,65,66,88,74,73,87,75,,,,,1.0,0.6,0.8*23
$PSIWMPVT,145.490,250087.000,3,49.1719257,-123.0691427,4.727,-3.129,2.084,-0.005,5.099,3.536,6.059,0.612,0.354,0.000,11.006,1.340,18,*0F
$PSIWMPOS,000225.500,4910.31554,N,12304.14856,W,8.65,4.73,M,6.12,0,8,0,2,0,*60
$PSIWMATT,000225.500,303.7,T,10.6,-1.5,180.0,*67
$PSIWMVEL,000225.500,303.7,T,13.5,K,0.01,M,*6C
$PSIWMVSD,000225.500,0.00,0.00,0.00,2,0.00,0.00,0.00,2,*0F
$GPGGA,212750.000,4910.31718,N,12304.15069,W,1,18,0.6,004.67,M,-16.8,M,,*5A
$GPRMC,212750.000,A,4910.31718,N,12304.15069,W,9.8,335.2,161018,,,A*79
$GNGSA,A,3,10,32,20,08,27,18,14,24,11,21,,,1.0,0.6,0.8*25
$GNGSA,A,3,81,65,66,88,74,82,87,75,,,,,1.0,0.6,0.8*2D
$PSIWMPVT,146.490,250088.000,3,49.1719529,-123.0691781,4.672,-2.114,4.577,0.018,5.099,3.536,5.527,0.612,0.500,0.000,10.037,0.895,18,*2B
$PSIWMPOS,000226.500,4910.31718,N,12304.15069,W,11.50,4.65,M,43.83,1,5,0,2,0,*60
$PSIWMATT,000226.500,335.2,T,12.0,-2.4,100.0,*6A
$PSIWMVEL,000226.500,335.2,T,18.1,K,-0.02,M,*4E
$PSIWMVSD,000226.500,1.49,1.24,27.27,2,0.07,2.73,-10.00,2,*2A
$PSIWMPOS,000227.500,4910.31979,N,12304.15178,W,11.50,5.23,M,43.85,1,5,0,2,0,*6C
$PSIWMATT,000227.500,349.8,T,13.2,-1.1,21.2,*5F
$PSIWMVEL,000227.500,349.8,T,18.1,K,0.22,M,*61
$PSIWMVSD,000227.500,1.49,1.24,27.27,2,0.07,2.73,-10.00,2,*2B
$GPGGA,212751.000,4910.32015,N,12304.15156,W,1,18,0.6,004.47,M,-16.8,M,,*5D
$GPRMC,212751.000,A,4910.32015,N,12304.15156,W,13.1,356.4,161018,,,A*4D
$GNGSA,A,3,10,32,20,08,27,18,14,24,11,21,,,1.0,0.6,0.8*25
$GNGSA,A,3,81,65,66,88,74,82,73,75,,,,,1.0,0.6,0.8*26
$PSIWMPVT,147.640,250089.000,3,49.1720026,-123.0691926,4.472,-0.422,6.726,0.010,5.099,3.606,5.668,0.612,0.500,0.354,10.306,0.828,18,*26
$PSIWMPOS,000228.500,4910.32330,N,12304.15174,W,4.01,5.54,M,1.33,1,5,0,2,0,*60
$PSIWMATT,000228.500,358.0,T,9.4,0.7,4.7,*7D
$PSIWMVEL,000228.500,358.0,T,25.0,K,0.06,M,*6F
$PSIWMVSD,000228.500,1.49,1.24,27.27,2,0.07,2.73,-10.00,2,*24
$GPGGA,212752.000,4910.32414,N,12304.15148,W,1,19,0.6,004.48,M,-16.8,M,,*5A
$GPRMC,212752.000,A,4910.32414,N,12304.15148,W,15.5,0.7,161018,,,A*45
$GNGSA,A,3,10,32,20,08,27,18,14,24,11,21,,,1.0,0.6,0.8*25
$GNGSA,A,3,81,65,66,88,74,82,72,73,75,,,,1.0,0.6,0.8*23
$PSIWMPVT,148.640,250090.000,3,49.1720690,-123.0691914,4.478,0.095,8.001,0.017,5.099,3.606,4.859,0.612,0.500,0.354,8.926,0.988,19,*39
$PSIWMPOS,000229.500,4910.32783,N,12304.15133,W,3.71,4.93,M,1.24,1,5,0,2,0,*62
$PSIWMATT,000229.500,1.0,T,7.8,0.9,2.6,*78
$PSIWMVEL,000229.500,1.0,T,30.3,K,0.01,M,*61
$PSIWMVSD,000229.500,1.49,1.24,27.27,2,0.07,2.73,-10.00,2,*25
$GPGGA,212753.000,4910.32861,N,12304.15103,W,1,18,0.6,004.12,M,-16.8,M,,*54
$GPRMC,212753.000,A,4910.32861,N,12304.15103,W,17.2,0.6,161018,,,A*41
$GNGSA,A,3,10,32,20,08,27,18,14,24,11,21,,,1.0,0.6,0.9*24
$GNGSA,A,3,81,65,66,88,74,82,72,73,,,,,1.0,0.6,0.9*20
$PSIWMPVT,149.630,250091.000,3,49.1721435,-123.0691838,4.121,0.085,8.859,-0.011,5.099,3.674,3.113,0.612,0.354,0.000,5.592,1.199,18,*1D
$PSIWMPOS,000230.500,4910.33286,N,12304.15064,W,3.62,5.73,M,1.24,1,5,0,2,0,*65
$PSIWMATT,000230.500,2.7,T,6.9,0.8,2.0,*73
$PSIWMVEL,000230.500,2.7,T,34.5,K,-0.20,M,*41
$PSIWMVSD,000230.500,1.49,1.24,27.27,2,0.07,2.73,-10.00,2,*2D
$GPGGA,212754.000,4910.33372,N,12304.15095,W,1,18,0.6,004.29,M,-16.8,M,,*5D
$GPRMC,212754.000,A,4910.33372,N,12304.15095,W,19.7,0.7,161018,,,A*4A
$GNGSA,A,3,10,32,20,08,27,18,14,24,11,21,01,,1.0,0.6,0.9*25
$GNGSA,A,3,81,65,66,88,74,82,72,,,,,,1.0,0.6,0.9*24
$PSIWMPVT,150.630,250092.000,3,49.1722287,-123.0691825,4.287,0.123,10.132,-0.011,5.099,3.674,2.254,0.612,0.354,0.000,4.298,0.887,18,*23
$PSIWMPOS,000231.500,4910.33828,N,12304.15034,W,3.64,5.78,M,1.25,1,5,0,2,0,*63
$PSIWMATT,000231.500,13.7,T,7.6,1.2,1.6,*42
$PSIWMVEL,000231.500,13.7,T,36.4,K,0.20,M,*5E
$PSIWMVSD,000231.500,1.49,1.24,27.27,2,0.07,2.73,-10.00,2,*2C
$GPGGA,212755.000,4910.33945,N,12304.15074,W,1,19,0.6,004.16,M,-16.8,M,,*50
$GPRMC,212755.000,A,4910.33945,N,12304.15074,W,21.1,0.5,161018,,,A*45
$GNGSA,A,3,10,32,20,08,27,18,14,24,11,21,01,,1.0,0.6,0.8*24
$GNGSA,A,3,81,65,66,88,74,82,72,73,,,,,1.0,0.6,0.8*21
$PSIWMPVT,151.630,250093.000,3,49.1723241,-123.0691790,4.160,0.104,10.880,-0.025,5.099,3.742,4.789,0.612,0.354,0.000,8.773,0.777,19,*2B
$PSIWMPOS,000232.500,4910.34443,N,12304.15019,W,3.57,5.85,M,1.23,1,5,0,2,0,*6D
$PSIWMATT,000232.500,9.9,T,7.1,1.5,1.4,*76
$PSIWMVEL,000232.500,9.9,T,39.7,K,-0.03,M,*48
$PSIWMVSD,000232.500,1.49,1.24,27.27,2,0.07,2.73,-10.00,2,*2F
$GPGGA,212756.000,4910.34539,N,12304.15075,W,1,21,0.6,004.19,M,-16.8,M,,*56
$GPRMC,212756.000,A,4910.34539,N,12304.15075,W,22.0,0.6,161018,,,A*46
$GNGSA,A,3,10,32,20,08,27,18,14,24,11,21,01,,1.0,0.6,0.8*24
$GNGSA,A,3,81,65,66,88,74,82,72,73,87,75,,,1.0,0.6,0.8*2C
$PSIWMPVT,152.630,250094.000,3,49.1724231,-123.0691792,4.190,0.114,11.321,0.014,5.050,3.742,2.426,0.354,0.000,0.000,4.487,0.215,21,*03
$PSIWMPOS,000233.500,4910.35059,N,12304.15041,W,3.58,5.71,M,1.24,1,5,0,2,0,*6C
$PSIWMATT,000233.500,7.0,T,7.3,0.9,1.3,*78
$PSIWMVEL,000233.500,7.0,T,41.6,K,0.05,M,*6B
$PSIWMVSD,000233.500,1.49,1.24,27.27,2,0.07,2.73,-10.00,2,*2E
$GPGGA,212757.000,4910.35165,N,12304.15063,W,1,20,0.6,004.32,M,-16.8,M,,*54
$GPRMC,212757.000,A,4910.35165,N,12304.15063,W,23.0,0.6,161018,,,A*4D
$GNGSA,A,3,10,32,20,08,27,18,14,24,11,21,01,,1.0,0.6,0.8*24
$GNGSA,A,3,81,65,66,88,74,82,72,73,87,,,,1.0,0.6,0.8*2E
$PSIWMPVT,153.630,250095.000,3,49.1725276,-123.0691772,4.316,0.123,11.859,-0.031,5.050,3.742,2.465,0.354,0.000,0.000,4.550,0.090,20,*2B
$PSIWMPOS,000234.500,4910.35714,N,12304.15033,W,3.58,5.22,M,1.24,1,5,0,2,0,*66
$PSIWMATT,000234.500,5.1,T,7.7,0.7,1.2,*77
$PSIWMVEL,000234.500,5.1,T,43.4,K,0.18,M,*63
$PSIWMVSD,000234.500,1.49,1.24,27.27,2,0.07,2.73,-10.00,2,*29
$GPGGA,212758.000,4910.35829,N,12304.15054,W,1,20,0.6,004.26,M,-16.8,M,,*5B
$GPRMC,212758.000,A,4910.35829,N,12304.15054,W,24.2,0.2,161018,,,A*46
$GNGSA,A,3,10,32,20,08,27,18,14,24,11,21,01,,1.0,0.6,0.8*24
$GNGSA,A,3,81,65,66,88,74,82,72,73,87,,,,1.0,0.6,0.8*2E
$PSIWMPVT,154.630,250096.000,3,49.1726382,-123.0691756,4.261,0.051,12.437,0.034,5.000,3.808,2.895,0.354,0.000,0.000,5.444,0.109,20,*09
$PSIWMPOS,000235.500,4910.36399,N,12304.15034,W,3.58,4.95,M,1.24,1,5,0,2,0,*6F
$PSIWMATT,000235.500,3.2,T,7.7,0.4,1.1,*73
$PSIWMVEL,000235.500,3.2,T,45.0,K,0.05,M,*69
$PSIWMVSD,000235.500,1.49,1.24,27.27,2,0.07,2.73,-10.00,2,*28
$GPGGA,212759.000,4910.36513,N,12304.15047,W,1,20,0.6,004.16,M,-16.8,M,,*5C
$GPRMC,212759.000,A,4910.36513,N,12304.15047,W,24.6,0.1,161018,,,A*45
$GNGSA,A,3,10,32,20,08,27,18,14,24,11,21,01,,1.0,0.6,0.9*25
$GNGSA,A,3,81,65,66,88,74,82,72,73,87,,,,1.0,0.6,0.9*2F
$PSIWMPVT,155.630,250097.000,3,49.1727522,-123.0691745,4.155,0.020,12.644,0.033,5.000,3.808,1.855,0.354,0.354,0.000,3.260,0.109,20,*0E
$PSIWMPOS,000236.500,4910.37102,N,12304.15035,W,3.58,6.03,M,1.24,1,5,0,2,0,*61
$PSIWMATT,000236.500,2.0,T,7.2,0.3,1.1,*71
$PSIWMVEL,000236.500,2.0,T,46.3,K,-0.07,M,*46
$PSIWMVSD,000236.500,1.49,1.24,27.27,2,0.07,2.73,-10.00,2,*2B
$GPGGA,212800.000,4910.37216,N,12304.15046,W,1,20,0.6,004.27,M,-16.8,M,,*5F
$GPRMC,212800.000,A,4910.37216,N,12304.15046,W,25.2,359.7,161018,,,A*48
$GNGSA,A,3,10,32,20,08,27,18,14,24,11,21,01,,1.0,0.6,0.8*24
$GNGSA,A,3,81,65,66,88,74,82,72,73,87,,,,1.0,0.6,0.8*2E
$PSIWMPVT,156.630,250098.000,3,49.1728694,-123.0691743,4.274,-0.077,12.974,0.031,5.000,3.873,2.395,0.354,0.000,0.000,4.371,0.094,20,*2D
$PSIWMPOS,000237.500,4910.37808,N,12304.15044,W,3.57,5.71,M,1.24,1,5,0,2,0,*6C
$PSIWMATT,000237.500,0.8,T,7.2,0.3,1.0,*7B
$PSIWMVEL,000237.500,0.8,T,46.1,K,0.06,M,*63
$PSIWMVSD,000237.500,1.49,1.24,27.27,2,0.07,2.73,-10.00,2,*2A
$GPGGA,212801.000,4910.37913,N,12304.15050,W,1,21,0.6,004.35,M,-16.8,M,,*55
$GPRMC,212801.000,A,4910.37913,N,12304.15050,W,24.9,359.7,161018,,,A*4A
$GNGSA,A,3,10,32,20,08,27,18,14,24,11,21,01,,1.0,0.6,0.8*24
$GNGSA,A,3,81,65,66,88,74,82,72,73,87,75,,,1.0,0.6,0.8*2C
$PSIWMPVT,157.630,250098.999,3,49.1729855,-123.0691750,4.349,-0.067,12.793,0.041,4.950,3.873,2.027,0.354,0.000,0.000,3.706,0.121,21,*21
$PSIWMPOS,000238.500,4910.38495,N,12304.15053,W,3.57,4.85,M,1.23,1,5,0,2,0,*6F
$PSIWMATT,000238.500,0.2,T,7.0,0.6,1.0,*79
$PSIWMVEL,000238.500,0.2,T,45.2,K,0.04,M,*64
$PSIWMVSD,000238.500,1.49,1.24,27.27,2,0.07,2.73,-10.00,2,*25
$GPGGA,212802.000,4910.38599,N,12304.15059,W,1,21,0.6,004.43,M,-16.8,M,,*5F
$GPRMC,212802.000,A,4910.38599,N,12304.15059,W,24.5,359.1,161018,,,A*4B
$GNGSA,A,3,10,32,20,08,27,18,14,24,11,21,01,,1.0,0.6,0.8*24
$GNGSA,A,3,81,65,66,88,74,82,72,73,87,75,,,1.0,0.6,0.8*2C
$PSIWMPVT,158.630,250099.999,3,49.1730999,-123.0691764,4.428,-0.189,12.606,0.023,4.950,3.937,1.977,0.354,0.000,0.000,3.627,0.277,21,*25
$PSIWMPOS,000239.500,4910.39165,N,12304.15064,W,4.26,4.93,M,1.42,1,5,0,2,0,*60
$PSIWMATT,000239.500,359.4,T,6.9,0.5,1.1,*7B
$PSIWMVEL,000239.500,359.4,T,44.0,K,0.06,M,*6D
$PSIWMVSD,000239.500,1.49,1.24,27.27,2,0.07,2.73,-10.00,2,*24
$GPGGA,212803.000,4910.39277,N,12304.15076,W,1,21,0.6,004.42,M,-16.8,M,,*54
$GPRMC,212803.000,A,4910.39277,N,12304.15076,W,24.0,358.9,161018,,,A*4D
$GNGSA,A,3,10,32,20,08,27,18,14,24,11,21,01,,1.0,0.6,0.8*24
$GNGSA,A,3,81,65,66,88,74,82,72,73,87,75,,,1.0,0.6,0.8*2C
$PSIWMPVT,159.630,250100.999,3,49.1732128,-123.0691793,4.419,-0.230,12.346,-0.013,4.899,3.937,1.863,0.354,0.000,0.000,3.443,0.113,21,*00
$PSIWMPOS,000240.500,4910.39831,N,12304.15088,W,4.34,5.51,M,1.45,1,5,0,2,0,*6F
$PSIWMATT,000240.500,358.8,T,6.6,0.7,1.1,*75
$PSIWMVEL,000240.500,358.8,T,43.1,K,0.02,M,*6C
$PSIWMVSD,000240.500,1.49,1.24,27.27,2,0.07,2.73,-10.00,2,*2A
$GPGGA,212804.000,4910.39933,N,12304.15097,W,1,21,0.6,004.22,M,-16.8,M,,*51
$GPRMC,212804.000,A,4910.39933,N,12304.15097,W,23.3,358.9,161018,,,A*4A
$GNGSA,A,3,10,32,20,08,27,18,14,24,11,21,01,,1.0,0.6,0.8*24
$GNGSA,A,3,81,65,66,88,74,82,72,73,87,75,,,1.0,0.6,0.8*2C
$PSIWMPVT,160.640,250101.999,3,49.1733221,-123.0691829,4.223,-0.230,11.975,-0.005,4.899,4.000,1.984,0.354,0.000,0.000,3.751,0.184,21,*04
$PSIWMPOS,000241.500,4910.40459,N,12304.15115,W,4.34,4.85,M,1.45,1,5,0,2,0,*6F
$PSIWMATT,000241.500,358.6,T,6.6,0.7,1.1,*7A
$PSIWMVEL,000241.500,358.6,T,39.1,K,-0.00,M,*41
$PSIWMVSD,000241.500,1.49,1.24,27.27,2,0.07,2.73,-10.00,2,*2B
$GPGGA,212805.000,4910.40568,N,12304.15115,W,1,21,0.6,004.19,M,-16.8,M,,*5F
$GPRMC,212805.000,A,4910.40568,N,12304.15115,W,22.1,358.4,161018,,,A*42
$GNGSA,A,3,10,32,20,08,27,18,14,24,11,21,01,,1.0,0.6,0.8*24
$GNGSA,A,3,81,65,66,88,74,82,72,73,87,75,,,1.0,0.6,0.8*2C
$PSIWMPVT,161.630,250102.999,3,49.1734280,-123.0691858,4.192,-0.320,11.359,-0.074,4.899,4.062,1.422,0.354,0.000,0.000,2.597,0.277,21,*03
$PSIWMPOS,000242.500,4910.41028,N,12304.15139,W,4.34,3.78,M,1.44,1,5,0,2,0,*65
$PSIWMATT,000242.500,356.7,T,6.6,0.5,1.1,*74
$PSIWMVEL,000242.500,356.7,T,33.7,K,0.03,M,*6F
$PSIWMVSD,000242.500,1.49,1.24,27.27,2,0.07,2.73,-10.00,2,*28
$GPGGA,212806.000,4910.41139,N,12304.15117,W,1,20,0.6,004.05,M,-16.8,M,,*53
$GPRMC,212806.000,A,4910.41139,N,12304.15117,W,18.5,358.3,161018,,,A*48
$GNGSA,A,3,10,32,20,08,27,18,14,24,11,21,01,,1.0,0.6,0.8*24
$GNGSA,A,3,81,65,66,88,74,82,72,87,75,,,,1.0,0.6,0.8*28
$PSIWMPVT,162.630,250103.999,3,49.1735232,-123.0691862,4.045,-0.276,9.543,-0.073,4.690,3.742,1.535,0.354,0.354,0.000,3.025,0.340,20,*33
$PSIWMPOS,000243.500,4910.41536,N,12304.15172,W,4.30,3.04,M,1.43,1,5,0,2,0,*69
$PSIWMATT,000243.500,351.6,T,6.8,0.4,1.1,*7C
$PSIWMVEL,000243.500,351.6,T,29.4,K,0.02,M,*61
$PSIWMVSD,000243.500,1.49,1.24,27.27,2,0.07,2.73,-10.00,2,*29
$GPGGA,212807.000,4910.41609,N,12304.15153,W,1,18,0.6,004.03,M,-16.8,M,,*5B
$GPRMC,212807.000,A,4910.41609,N,12304.15153,W,15.2,353.4,161018,,,A*4B
$GNGSA,A,3,10,32,20,08,18,14,24,11,21,01,,,1.0,0.6,0.8*21
$GNGSA,A,3,81,65,66,88,82,72,87,75,,,,,1.0,0.6,0.8*2B
$PSIWMPVT,163.630,250104.999,3,49.1736015,-123.0691921,4.026,-0.898,7.779,-0.050,4.796,3.937,2.258,0.500,0.500,0.000,4.273,0.430,18,*35
$PSIWMPOS,000244.500,4910.41948,N,12304.15279,W,4.32,2.46,M,1.43,1,5,0,2,0,*66
$PSIWMATT,000244.500,340.7,T,5.8,-1.0,1.2,*52
$PSIWMVEL,000244.500,340.7,T,26.3,K,-0.05,M,*45
$PSIWMVSD,000244.500,1.49,1.24,27.27,2,0.07,2.73,-10.00,2,*2E
$GPGGA,212808.000,4910.41989,N,12304.15284,W,1,20,0.6,003.93,M,-16.8,M,,*5F
$GPRMC,212808.000,A,4910.41989,N,12304.15284,W,13.1,340.4,161018,,,A*4D
$GNGSA,A,3,10,32,20,08,27,18,14,24,11,21,01,,1.0,0.6,0.8*24
$GNGSA,A,3,81,65,66,88,82,72,73,87,75,,,,1.0,0.6,0.8*2F
$PSIWMPVT,164.630,250106.000,3,49.1736648,-123.0692139,3.934,-2.258,6.348,-0.050,4.899,4.062,2.035,0.500,0.500,0.354,3.822,0.508,20,*36
$PSIWMPOS,000245.500,4910.42254,N,12304.15538,W,4.34,2.46,M,1.44,1,5,0,2,0,*61
$PSIWMATT,000245.500,317.6,T,5.4,-0.5,1.2,*58
$PSIWMVEL,000245.500,317.6,T,23.8,K,-0.04,M,*48
$PSIWMVSD,000245.500,1.49,1.24,27.27,2,0.07,2.73,-10.00,2,*2F
$GPGGA,212809.000,4910.42295,N,12304.15554,W,1,18,0.6,003.83,M,-16.8,M,,*5B
$GPRMC,212809.000,A,4910.42295,N,12304.15554,W,12.7,320.4,161018,,,A*42
$GNGSA,A,3,10,32,20,08,18,14,11,21,01,,,,1.0,0.6,0.8*27
$GNGSA,A,3,81,65,66,88,82,72,73,87,75,,,,1.0,0.6,0.8*2F
$PSIWMPVT,165.630,250106.999,3,49.1737159,-123.0692589,3.828,-4.159,5.020,-0.065,4.950,4.123,1.781,0.500,0.500,0.354,3.275,0.398,18,*30
$PSIWMPOS,000246.500,4910.42455,N,12304.15932,W,4.37,2.79,M,1.44,1,5,0,2,0,*6C
$PSIWMATT,000246.500,293.7,T,4.8,0.6,1.3,*75
$PSIWMVEL,000246.500,293.7,T,23.3,K,-0.02,M,*4A
$PSIWMVSD,000246.500,1.49,1.24,27.27,2,0.07,2.73,-10.00,2,*2C
$GPGGA,212810.000,4910.42503,N,12304.15970,W,1,18,0.6,003.71,M,-16.8,M,,*5C
$GPRMC,212810.000,A,4910.42503,N,12304.15970,W,12.6,295.8,161018,,,A*4A
$GNGSA,A,3,10,32,20,08,18,14,11,21,01,,,,1.0,0.6,0.8*27
$GNGSA,A,3,81,65,66,88,82,72,73,87,75,,,,1.0,0.6,0.8*2F
$PSIWMPVT,166.640,250107.999,3,49.1737505,-123.0693284,3.711,-5.844,2.819,-0.012,5.000,4.243,2.023,0.500,0.500,0.354,3.847,0.383,18,*32
$PSIWMPOS,000247.500,4910.42581,N,12304.16432,W,4.12,2.80,M,1.37,1,5,0,2,0,*6E
$PSIWMATT,000247.500,281.0,T,6.2,0.9,1.3,*77
$PSIWMVEL,000247.500,281.0,T,25.9,K,0.19,M,*64
$PSIWMVSD,000247.500,1.49,1.24,27.27,2,0.07,2.73,-10.00,2,*2D
$GPGGA,212811.000,4910.42602,N,12304.16539,W,1,18,0.6,003.48,M,-16.8,M,,*57
$GPRMC,212811.000,A,4910.42602,N,12304.16539,W,14.7,277.9,161018,,,A*41
$GNGSA,A,3,10,32,20,08,18,14,11,21,01,,,,1.0,0.6,0.8*27
$GNGSA,A,3,81,65,66,88,82,72,73,87,75,,,,1.0,0.6,0.8*2F
$PSIWMPVT,167.630,250109.000,3,49.1737671,-123.0694231,3.479,-7.486,1.032,0.020,4.899,3.937,1.676,0.500,0.612,0.354,3.048,0.418,18,*18
$PSIWMPOS,000248.500,4910.42632,N,12304.17094,W,4.63,3.13,M,1.49,1,5,0,2,0,*67
$PSIWMATT,000248.500,273.4,T,5.6,0.6,1.4,*7E
$PSIWMVEL,000248.500,273.4,T,30.7,K,0.08,M,*68
$PSIWMVSD,000248.500,1.49,1.24,27.27,2,0.07,2.73,-10.00,2,*22
$GPGGA,212812.000,4910.42605,N,12304.17227,W,1,19,0.6,003.52,M,-16.8,M,,*50
$GPRMC,212812.000,A,4910.42605,N,12304.17227,W,16.9,268.9,161018,,,A*4E
$GNGSA,A,3,10,32,20,08,27,18,14,11,21,01,,,1.0,0.6,0.8*22
$GNGSA,A,3,81,65,66,88,82,72,73,87,75,,,,1.0,0.6,0.8*2F
$PSIWMPVT,168.630,250110.000,3,49.1737675,-123.0695379,3.521,-8.706,-0.172,0.043,4.848,3.742,1.828,0.612,0.612,0.354,3.330,0.543,19,*34
$PSIWMPOS,000249.500,4910.42620,N,12304.17874,W,4.67,3.63,M,1.52,1,5,0,2,0,*6A
$PSIWMATT,000249.500,270.7,T,4.7,0.2,1.4,*7B
$PSIWMVEL,000249.500,270.7,T,35.1,K,0.05,M,*67
$PSIWMVSD,000249.500,1.49,1.24,27.27,2,0.07,2.73,-10.00,2,*23
$GPGGA,212813.000,4910.42575,N,12304.18000,W,1,20,0.6,003.51,M,-16.8,M,,*54
$GPRMC,212813.000,A,4910.42575,N,12304.18000,W,18.8,266.5,161018,,,A*4E
$GNGSA,A,3,10,32,20,08,27,18,14,11,21,01,,,1.0,0.6,0.8*22
$GNGSA,A,3,81,65,66,88,74,82,72,73,87,75,,,1.0,0.6,0.8*2C
$PSIWMPVT,169.640,250110.999,3,49.1737625,-123.0696666,3.509,-9.653,-0.583,0.031,5.050,3.937,1.688,0.612,0.500,0.354,3.092,0.203,20,*39
$PSIWMPOS,000250.500,4910.42579,N,12304.18706,W,4.70,3.71,M,1.53,1,5,0,2,0,*6C
$PSIWMATT,000250.500,269.1,T,4.3,-0.5,1.3,*54
$PSIWMVEL,000250.500,269.1,T,37.1,K,-0.06,M,*4D
$PSIWMVSD,000250.500,1.49,1.24,27.27,2,0.07,2.73,-10.00,2,*2B
$GPGGA,212814.000,4910.42534,N,12304.18837,W,1,21,0.6,003.56,M,-16.8,M,,*5C
$GPRMC,212814.000,A,4910.42534,N,12304.18837,W,19.4,266.1,161018,,,A*49
$GNGSA,A,3,10,32,20,08,27,18,14,24,11,21,01,,1.0,0.6,0.8*24
$GNGSA,A,3,81,65,66,88,74,82,72,73,87,75,,,1.0,0.6,0.8*2C
$PSIWMPVT,170.640,250111.999,3,49.1737557,-123.0698061,3.556,-9.959,-0.681,0.021,5.148,4.000,2.133,0.612,0.500,0.354,3.960,0.266,21,*36
$PSIWMPOS,000251.500,4910.42525,N,12304.19567,W,4.72,4.04,M,1.54,1,5,0,2,0,*60
$PSIWMATT,000251.500,267.0,T,4.4,-0.2,1.3,*5A
$PSIWMVEL,000251.500,267.0,T,38.2,K,0.00,M,*64
$PSIWMVSD,000251.500,1.49,1.24,27.27,2,0.07,2.73,-10.00,2,*2A
$GPGGA,212815.000,4910.42482,N,12304.19683,W,1,21,0.6,003.57,M,-16.8,M,,*50
$GPRMC,212815.000,A,4910.42482,N,12304.19683,W,19.4,265.5,161018,,,A*43
$GNGSA,A,3,10,32,20,08,27,18,14,24,11,21,01,,1.0,0.6,0.8*24
$GNGSA,A,3,81,65,66,88,74,82,72,73,87,75,,,1.0,0.6,0.8*2C
$PSIWMPVT,171.640,250113.000,3,49.1737470,-123.0699472,3.573,-9.929,-0.789,-0.010,5.196,4.062,2.234,0.500,0.000,0.000,4.155,0.230,21,*17
$PSIWMPOS,000252.500,4910.42452,N,12304.20421,W,4.52,4.61,M,1.49,1,5,0,2,0,*66
$PSIWMATT,000252.500,265.1,T,4.0,-0.2,1.2,*5F
$PSIWMVEL,000252.500,265.1,T,38.1,K,-0.02,M,*48
$PSIWMVSD,000252.500,1.49,1.24,27.27,2,0.07,2.73,-10.00,2,*29
$GPGGA,212816.000,4910.42441,N,12304.20512,W,1,20,0.6,003.65,M,-16.8,M,,*5D
$GPRMC,212816.000,A,4910.42441,N,12304.20512,W,18.9,265.6,161018,,,A*41
$GNGSA,A,3,10,32,20,08,27,18,14,24,11,21,,,1.0,0.6,0.8*25
$GNGSA,A,3,81,65,66,88,74,82,72,73,87,75,,,1.0,0.6,0.8*2C
$PSIWMPVT,172.640,250114.000,3,49.1737401,-123.0700853,3.652,-9.715,-0.754,0.044,5.244,4.062,2.508,0.354,0.000,0.000,4.866,0.336,20,*3A
$PSIWMPOS,000253.500,4910.42396,N,12304.21231,W,4.51,4.04,M,1.48,1,5,0,2,0,*6F
$PSIWMATT,000253.500,264.0,T,4.1,-0.5,1.2,*58
$PSIWMVEL,000253.500,264.0,T,36.8,K,-0.01,M,*4D
$PSIWMVSD,000253.500,1.49,1.24,27.27,2,0.07,2.73,-10.00,2,*28
$GPGGA,212817.000,4910.42400,N,12304.21299,W,1,21,0.6,003.72,M,-16.8,M,,*5B
$GPRMC,212817.000,A,4910.42400,N,12304.21299,W,18.1,265.3,161018,,,A*4D
$GNGSA,A,3,10,32,20,08,27,18,14,24,11,21,01,,1.0,0.6,0.8*24
$GNGSA,A,3,81,65,66,88,74,82,72,73,87,75,,,1.0,0.6,0.8*2C
$PSIWMPVT,173.640,250115.000,3,49.1737333,-123.0702165,3.725,-9.279,-0.766,0.027,5.244,4.123,2.594,0.500,0.500,0.354,5.202,0.352,21,*33
$PSIWMPOS,000254.500,4910.42348,N,12304.22005,W,4.50,3.95,M,1.48,1,5,0,2,0,*63
$PSIWMATT,000254.500,264.5,T,4.1,-2.2,1.2,*5F
$PSIWMVEL,000254.500,264.5,T,37.1,K,0.00,M,*6B
$PSIWMVSD,000254.500,1.49,1.24,27.27,2,0.07,2.73,-10.00,2,*2F
$GPGGA,212818.000,4910.42352,N,12304.22067,W,1,18,0.6,003.70,M,-16.8,M,,*5C
$GPRMC,212818.000,A,4910.42352,N,12304.22067,W,17.8,264.3,161018,,,A*45
$GNGSA,A,3,10,32,20,08,27,18,14,24,11,21,,,1.0,0.6,0.8*25
$GNGSA,A,3,81,65,66,88,74,72,87,75,,,,,1.0,0.6,0.8*22
$PSIWMPVT,174.630,250115.999,3,49.1737253,-123.0703445,3.703,-9.106,-0.903,0.015,5.244,4.123,3.426,0.354,0.000,0.354,7.090,0.438,18,*39
$PSIWMPOS,000255.500,4910.42320,N,12304.22795,W,4.16,3.79,M,1.39,1,5,0,2,0,*64
$PSIWMATT,000255.500,267.6,T,4.7,-2.8,1.1,*51
$PSIWMVEL,000255.500,267.6,T,39.0,K,0.01,M,*64
$PSIWMVSD,000255.500,1.49,1.24,27.27,2,0.07,2.73,-10.00,2,*2E
$GPGGA,212819.000,4910.42322,N,12304.22842,W,1,18,0.6,003.67,M,-16.8,M,,*53
$GPRMC,212819.000,A,4910.42322,N,12304.22842,W,19.0,268.7,161018,,,A*42
$GNGSA,A,3,10,32,20,08,27,18,14,24,11,21,,,1.0,0.6,0.8*25
$GNGSA,A,3,81,65,66,88,74,72,87,75,,,,,1.0,0.6,0.8*22
$PSIWMPVT,175.640,250117.000,3,49.1737203,-123.0704736,3.669,-9.803,-0.215,-0.000,5.292,4.123,3.570,0.500,0.500,0.354,8.379,0.684,18,*10
$PSIWMPOS,000256.500,4910.42304,N,12304.23593,W,4.16,3.79,M,1.40,1,5,0,2,0,*6A
$PSIWMATT,000256.500,268.7,T,4.8,-2.5,1.1,*5E
$PSIWMVEL,000256.500,268.7,T,39.2,K,0.00,M,*6A
$PSIWMVSD,000256.500,1.49,1.24,27.27,2,0.07,2.73,-10.00,2,*2D
$GPGGA,212820.000,4910.42334,N,12304.23685,W,1,16,0.6,003.75,M,-16.8,M,,*57
$GPRMC,212820.000,A,4910.42334,N,12304.23685,W,20.6,271.2,161018,,,A*4A
$GNGSA,A,3,10,32,20,08,27,18,14,24,11,21,,,1.0,0.6,0.8*25
$GNGSA,A,3,81,65,66,88,82,72,,,,,,,1.0,0.6,0.8*26
$PSIWMPVT,176.640,250118.000,3,49.1737224,-123.0706142,3.749,-10.597,0.225,0.046,5.292,4.123,3.570,0.500,0.000,0.354,8.456,1.020,16,*2C
$PSIWMPOS,000257.500,4910.42336,N,12304.24439,W,4.15,4.78,M,1.39,1,5,0,2,0,*67
$PSIWMATT,000257.500,271.4,T,5.6,-1.3,1.1,*5E
$PSIWMVEL,000257.500,271.4,T,38.7,K,-0.00,M,*49
$PSIWMVSD,000257.500,1.49,1.24,27.27,2,0.07,2.73,-10.00,2,*2C
$GPGGA,212821.000,4910.42365,N,12304.24573,W,1,16,0.6,003.88,M,-16.8,M,,*5D
$GPRMC,212821.000,A,4910.42365,N,12304.24573,W,21.0,273.9,161018,,,A*4C
$GNGSA,A,3,10,32,20,08,27,18,14,24,11,21,01,,1.0,0.6,0.8*24
$GNGSA,A,3,81,65,66,88,72,,,,,,,,1.0,0.6,0.8*2C
$PSIWMPVT,177.630,250119.000,3,49.1737275,-123.0707622,3.875,-10.805,0.729,0.033,5.385,4.183,3.656,0.500,0.500,0.354,10.129,1.098,16,*1A
$PSIWMPOS,000258.500,4910.42386,N,12304.25325,W,4.16,4.44,M,1.40,1,5,0,2,0,*6A
$PSIWMATT,000258.500,271.9,T,5.7,-0.8,1.1,*57
$PSIWMVEL,000258.500,271.9,T,38.8,K,0.07,M,*6E
$PSIWMVSD,000258.500,1.49,1.24,27.27,2,0.07,2.73,-10.00,2,*23
$GPGGA,212822.000,4910.42405,N,12304.25462,W,1,16,0.6,003.90,M,-16.8,M,,*56
$GPRMC,212822.000,A,4910.42405,N,12304.25462,W,20.7,274.1,161018,,,A*47
$GNGSA,A,3,10,32,20,08,27,18,14,24,11,21,,,1.1,0.6,0.9*25
$GNGSA,A,3,81,65,66,88,82,72,,,,,,,1.1,0.6,0.9*26
$PSIWMPVT,178.630,250119.999,3,49.1737342,-123.0709103,3.898,-10.625,0.756,0.208,5.431,4.183,4.938,0.500,0.000,0.354,12.025,0.559,16,*15
$PSIWMPOS,000259.500,4910.42421,N,12304.26212,W,4.16,5.10,M,1.40,1,5,0,2,0,*67
$PSIWMATT,000259.500,270.6,T,5.4,-0.8,1.1,*5B
$PSIWMVEL,000259.500,270.6,T,38.5,K,-0.00,M,*46
$PSIWMVSD,000259.500,1.49,1.24,27.27,2,0.07,2.73,-10.00,2,*22
$GPGGA,212823.000,4910.42451,N,12304.26342,W,1,16,0.6,004.02,M,-16.8,M,,*5C
$GPRMC,212823.000,A,4910.42451,N,12304.26342,W,20.7,274.7,161018,,,A*47
$GNGSA,A,3,10,32,20,08,27,18,14,24,11,01,,,1.0,0.6,0.8*27
$GNGSA,A,3,81,65,66,88,82,75,,,,,,,1.0,0.6,0.8*21
$PSIWMPVT,179.630,250121.000,3,49.1737419,-123.0710570,4.017,-10.631,0.876,0.146,5.477,4.243,4.547,0.500,0.500,0.354,10.772,1.180,16,*14
$PSIWMPOS,000300.500,4910.42455,N,12304.27077,W,4.16,4.84,M,1.40,1,5,0,2,0,*65
$PSIWMATT,000300.500,269.6,T,5.5,-0.1,1.1,*56
$PSIWMVEL,000300.500,269.6,T,37.3,K,0.03,M,*64
$PSIWMVSD,000300.500,1.49,1.24,27.27,2,0.07,2.73,-10.00,2,*2F
$GPGGA,212824.000,4910.42496,N,12304.27203,W,1,17,0.6,004.16,M,-16.8,M,,*51
$GPRMC,212824.000,A,4910.42496,N,12304.27203,W,20.2,273.6,161018,,,A*4D
$GNGSA,A,3,10,32,20,08,27,18,14,24,11,21,01,,1.0,0.6,0.8*24
$GNGSA,A,3,81,65,66,88,82,75,,,,,,,1.0,0.6,0.8*21
$PSIWMPVT,180.630,250122.000,3,49.1737494,-123.0712006,4.162,-10.354,0.651,0.135,5.523,4.243,4.520,0.500,0.500,0.354,8.380,1.160,17,*26
$PSIWMPOS,000301.500,4910.42500,N,12304.27889,W,4.17,4.76,M,1.40,1,5,0,2,0,*60
$PSIWMATT,000301.500,270.1,T,5.6,0.4,1.1,*73
$PSIWMVEL,000301.500,270.1,T,33.2,K,0.14,M,*69
$PSIWMVSD,000301.500,1.49,1.24,27.27,2,0.07,2.73,-10.00,2,*2E
$GPGGA,212825.000,4910.42527,N,12304.28017,W,1,18,0.6,004.38,M,-16.8,M,,*50
$GPRMC,212825.000,A,4910.42527,N,12304.28017,W,18.5,273.1,161018,,,A*44
$GNGSA,A,3,10,32,20,08,27,18,14,24,11,21,01,,1.0,0.6,0.8*24
$GNGSA,A,3,81,65,66,88,82,73,75,,,,,,1.0,0.6,0.8*25
$PSIWMPVT,181.640,250123.000,3,49.1737546,-123.0713362,4.381,-9.517,0.519,0.126,5.568,4.243,3.930,0.612,0.500,0.354,7.618,1.191,18,*1B
$PSIWMPOS,000302.500,4910.42538,N,12304.28591,W,4.16,3.44,M,1.39,1,5,0,2,0,*6A
$PSIWMATT,000302.500,270.6,T,5.6,0.3,1.1,*70
$PSIWMVEL,000302.500,270.6,T,26.4,K,0.13,M,*68
$PSIWMVSD,000302.500,1.49,1.24,27.27,2,0.07,2.73,-10.00,2,*2D
$GPGGA,212826.000,4910.42552,N,12304.28726,W,1,18,0.6,004.32,M,-16.8,M,,*5E
$GPRMC,212826.000,A,4910.42552,N,12304.28726,W,15.0,273.6,161018,,,A*4F
$GNGSA,A,3,10,32,20,08,27,18,14,24,11,21,01,,1.0,0.6,0.8*24
$GNGSA,A,3,81,65,66,88,82,73,75,,,,,,1.0,0.6,0.8*25
$PSIWMPVT,182.640,250124.000,3,49.1737586,-123.0714543,4.317,-7.712,0.487,0.073,5.612,4.301,3.258,0.612,0.500,0.354,7.188,0.918,18,*1A
$PSIWMPOS,000303.500,4910.42560,N,12304.29147,W,4.48,2.53,M,1.47,1,5,0,2,0,*6D
$PSIWMATT,000303.500,271.4,T,5.6,0.0,1.1,*71
$PSIWMVEL,000303.500,271.4,T,18.5,K,0.06,M,*62
$PSIWMVSD,000303.500,1.49,1.24,27.27,2,0.07,2.73,-10.00,2,*2C
$GPGGA,212827.000,4910.42583,N,12304.29277,W,1,17,0.6,004.34,M,-16.8,M,,*5A
$GPRMC,212827.000,A,4910.42583,N,12304.29277,W,10.2,274.7,161018,,,A*43
$GNGSA,A,3,10,32,08,27,18,14,24,11,21,01,,,1.0,0.6,0.8*26
$GNGSA,A,3,81,65,66,88,82,73,75,,,,,,1.0,0.6,0.8*25
$PSIWMPVT,183.640,250125.000,3,49.1737639,-123.0715462,4.340,-5.215,0.426,0.069,5.657,4.472,3.043,0.612,0.612,0.354,8.056,0.988,17,*1D
$PSIWMPOS,000304.500,4910.42594,N,12304.29567,W,4.51,1.71,M,1.48,1,5,0,2,0,*63
$PSIWMATT,000304.500,275.8,T,6.0,-0.3,1.1,*55
$PSIWMVEL,000304.500,275.8,T,14.9,K,0.03,M,*68
$PSIWMVSD,000304.500,1.49,1.24,27.27,2,0.07,2.73,-10.00,2,*2B
$GPGGA,212828.000,4910.42604,N,12304.29595,W,1,19,0.6,004.31,M,-16.8,M,,*59
$GPRMC,212828.000,A,4910.42604,N,12304.29595,W,5.2,276.6,161018,,,A*7C
$GNGSA,A,3,10,32,20,08,27,18,14,24,11,21,01,,1.0,0.6,0.8*24
$GNGSA,A,3,81,65,66,88,74,82,73,87,,,,,1.0,0.6,0.8*2B
$PSIWMPVT,184.640,250126.000,3,49.1737673,-123.0715991,4.310,-2.637,0.305,0.053,5.612,4.301,2.336,0.612,0.500,0.354,6.207,0.883,19,*11
$PSIWMPOS,000305.500,4910.42641,N,12304.29890,W,4.51,1.38,M,1.48,1,5,0,2,0,*61
$PSIWMATT,000305.500,287.0,T,6.4,-0.4,1.2,*51
$PSIWMVEL,000305.500,287.0,T,18.0,K,-0.00,M,*47
$PSIWMVSD,000305.500,1.49,1.24,27.27,2,0.07,2.73,-10.00,2,*2A
$GPGGA,212829.000,4910.42638,N,12304.29793,W,1,19,0.6,004.49,M,-16.8,M,,*5C
$GPRMC,212829.000,A,4910.42638,N,12304.29793,W,5.2,287.1,161018,,,A*7F
$GNGSA,A,3,10,32,20,08,27,18,14,24,11,21,01,,1.0,0.6,0.8*24
$GNGSA,A,3,81,65,66,88,74,82,73,87,,,,,1.0,0.6,0.8*2B
$PSIWMPVT,185.630,250127.000,3,49.1737731,-123.0716321,4.490,-2.540,0.780,0.062,5.568,4.183,2.133,0.612,0.500,0.354,5.160,0.305,19,*11
$PSIWMPOS,000306.500,4910.42741,N,12304.30117,W,4.52,1.47,M,1.48,1,5,0,2,0,*66
$PSIWMATT,000306.500,307.9,T,7.0,-0.1,1.2,*52
$PSIWMVEL,000306.500,307.9,T,19.2,K,0.05,M,*6F
$PSIWMVSD,000306.500,1.49,1.24,27.27,2,0.07,2.73,-10.00,2,*29
$GPGGA,212830.000,4910.42709,N,12304.30026,W,1,17,0.6,004.47,M,-16.8,M,,*56
$GPRMC,212830.000,A,4910.42709,N,12304.30026,W,8.3,303.7,161018,,,A*72
$GNGSA,A,3,10,32,20,08,27,14,24,21,,,,,1.0,0.6,0.8*2C
$GNGSA,A,3,81,65,66,88,74,82,73,87,75,,,,1.0,0.6,0.8*29
$PSIWMPVT,186.630,250128.000,3,49.1737848,-123.0716710,4.473,-3.540,2.362,0.052,5.523,4.243,2.301,0.612,0.500,0.354,5.634,0.441,17,*13
$PSIWMPOS,000307.500,4910.42905,N,12304.30268,W,4.53,2.04,M,1.48,1,5,0,2,0,*67
$PSIWMATT,000307.500,333.3,T,7.6,0.7,1.3,*72
$PSIWMVEL,000307.500,333.3,T,20.2,K,0.02,M,*6E
$PSIWMVSD,000307.500,1.49,1.24,27.27,2,0.07,2.73,-10.00,2,*28
$GPGGA,212831.000,4910.42904,N,12304.30301,W,1,18,0.6,004.28,M,-16.8,M,,*54
$GPRMC,212831.000,A,4910.42904,N,12304.30301,W,11.2,328.4,161018,,,A*45
$GNGSA,A,3,10,32,20,08,27,18,14,24,11,21,01,,1.0,0.6,0.8*24
$GNGSA,A,3,81,65,66,88,82,87,75,,,,,,1.0,0.6,0.8*2E
$PSIWMPVT,187.640,250129.000,3,49.1738173,-123.0717169,4.281,-3.032,4.921,-0.008,5.568,4.183,3.227,0.612,0.500,0.354,6.521,0.785,18,*35
$PSIWMPOS,000308.500,4910.43190,N,12304.30408,W,4.74,2.54,M,1.53,1,5,0,2,0,*67
$PSIWMATT,000308.500,349.4,T,7.7,1.4,1.3,*74
$PSIWMVEL,000308.500,349.4,T,23.6,K,0.01,M,*6F
$PSIWMVSD,000308.500,1.49,1.24,27.27,2,0.07,2.73,-10.00,2,*27
$GPGGA,212832.000,4910.43235,N,12304.30477,W,1,18,0.6,004.08,M,-16.8,M,,*5B
$GPRMC,212832.000,A,4910.43235,N,12304.30477,W,13.8,350.3,161018,,,A*48
$GNGSA,A,3,10,32,20,08,27,18,14,11,21,01,,,1.0,0.6,0.8*22
$GNGSA,A,3,81,65,66,88,82,72,87,75,,,,,1.0,0.6,0.8*2B
$PSIWMPVT,188.640,250130.000,3,49.1738724,-123.0717461,4.075,-1.197,7.001,-0.020,5.568,4.183,1.840,0.612,0.500,0.354,3.520,0.988,18,*32
$PSIWMPOS,000309.500,4910.43570,N,12304.30522,W,4.79,2.54,M,1.54,1,5,0,2,0,*6F
$PSIWMATT,000309.500,353.1,T,7.9,1.6,1.4,*70
$PSIWMVEL,000309.500,353.1,T,27.7,K,0.08,M,*6C
$PSIWMVSD,000309.500,1.49,1.24,27.27,2,0.07,2.73,-10.00,2,*26
$GPGGA,212833.000,4910.43649,N,12304.30541,W,1,19,0.6,004.00,M,-16.8,M,,*58
$GPRMC,212833.000,A,4910.43649,N,12304.30541,W,16.2,357.3,161018,,,A*4A
$GNGSA,A,3,10,32,20,08,27,18,14,24,11,21,01,,1.0,0.6,0.8*24
$GNGSA,A,3,81,65,66,88,74,82,72,75,,,,,1.0,0.6,0.8*27
$PSIWMPVT,189.640,250131.000,3,49.1739414,-123.0717568,3.996,-0.392,8.312,-0.069,5.568,4.123,1.875,0.612,0.500,0.354,3.568,0.984,19,*30
$PSIWMPOS,000310.500,4910.44026,N,12304.30600,W,4.80,3.28,M,1.55,1,5,0,2,0,*68
$PSIWMATT,000310.500,353.5,T,6.8,1.3,1.3,*7E
$PSIWMVEL,000310.500,353.5,T,31.4,K,-0.06,M,*47
$PSIWMVSD,000310.500,1.49,1.24,27.27,2,0.07,2.73,-10.00,2,*2E
$GPGGA,212834.000,4910.44122,N,12304.30570,W,1,17,0.6,003.97,M,-16.8,M,,*57
$GPRMC,212834.000,A,4910.44122,N,12304.30570,W,17.9,357.9,161018,,,A*42
$GNGSA,A,3,10,32,20,08,27,18,14,24,11,21,01,,1.1,0.6,0.9*24
$GNGSA,A,3,81,65,66,88,74,72,,,,,,,1.1,0.6,0.9*2F
$PSIWMPVT,190.630,250131.999,3,49.1740203,-123.0717617,3.965,-0.345,9.201,-0.084,5.568,4.123,2.633,0.612,0.500,0.354,4.766,0.801,17,*32
$PSIWMPOS,000311.500,4910.44546,N,12304.30642,W,4.81,4.10,M,1.56,1,5,0,2,0,*62
$PSIWMATT,000311.500,355.0,T,7.1,1.6,1.3,*71
$PSIWMVEL,000311.500,355.0,T,35.3,K,0.04,M,*69
$PSIWMVSD,000311.500,1.49,1.24,27.27,2,0.07,2.73,-10.00,2,*2F
$GPGGA,212835.000,4910.44650,N,12304.30581,W,1,17,0.6,004.02,M,-16.8,M,,*51
$GPRMC,212835.000,A,4910.44650,N,12304.30581,W,19.5,359.3,161018,,,A*49
$GNGSA,A,3,10,32,20,08,27,18,14,24,11,01,,,1.0,0.6,0.8*27
$GNGSA,A,3,81,65,66,88,74,72,73,,,,,,1.0,0.6,0.8*2B
$PSIWMPVT,191.640,250132.999,3,49.1741083,-123.0717635,4.020,-0.130,10.057,-0.065,5.568,4.123,2.461,0.612,0.500,0.354,4.862,0.992,17,*00
$PSIWMPOS,000312.500,4910.45119,N,12304.30653,W,4.81,4.27,M,1.56,1,5,0,2,0,*6A
$PSIWMATT,000312.500,355.8,T,6.9,1.4,1.3,*71
$PSIWMVEL,000312.500,355.8,T,38.5,K,0.04,M,*69
$PSIWMVSD,000312.500,1.49,1.24,27.27,2,0.07,2.73,-10.00,2,*2C
$GPGGA,212836.000,4910.45219,N,12304.30578,W,1,19,0.6,003.94,M,-16.8,M,,*5A
$GPRMC,212836.000,A,4910.45219,N,12304.30578,W,20.9,359.9,161018,,,A*48
$GNGSA,A,3,10,32,20,08,27,18,14,24,11,21,01,,1.0,0.6,0.8*24
$GNGSA,A,3,81,65,66,88,74,82,72,73,,,,,1.0,0.6,0.8*21
$PSIWMPVT,192.630,250133.999,3,49.1742032,-123.0717629,3.944,-0.011,10.771,-0.073,5.568,4.183,2.566,0.354,0.000,0.354,4.890,0.770,19,*04
$PSIWMPOS,000313.500,4910.45721,N,12304.30626,W,4.59,4.76,M,1.51,1,5,0,2,0,*62
$PSIWMATT,000313.500,357.3,T,6.8,0.9,1.2,*75
$PSIWMVEL,000313.500,357.3,T,40.3,K,0.01,M,*6D
$PSIWMVSD,000313.500,1.49,1.24,27.27,2,0.07,2.73,-10.00,2,*2D
$GPGGA,212837.000,4910.45824,N,12304.30564,W,1,18,0.6,003.82,M,-16.8,M,,*54
$GPRMC,212837.000,A,4910.45824,N,12304.30564,W,22.0,0.0,161018,,,A*4D
$GNGSA,A,3,10,32,20,08,27,18,14,24,11,21,01,,1.0,0.6,0.8*24
$GNGSA,A,3,81,65,66,88,74,72,73,,,,,,1.0,0.6,0.8*2B
$PSIWMPVT,193.630,250134.999,3,49.1743040,-123.0717606,3.818,0.006,11.315,-0.121,5.568,4.243,2.219,0.500,0.612,0.354,4.358,0.812,18,*2E
$PSIWMPOS,000314.500,4910.46349,N,12304.30596,W,4.57,4.60,M,1.50,1,5,0,2,0,*6C
$PSIWMATT,000314.500,358.4,T,6.4,1.0,1.1,*7D
$PSIWMVEL,000314.500,358.4,T,42.2,K,-0.04,M,*49
$PSIWMVSD,000314.500,1.49,1.24,27.27,2,0.07,2.73,-10.00,2,*2A
$GPGGA,212838.000,4910.46450,N,12304.30548,W,1,20,0.6,003.70,M,-16.8,M,,*5F
$GPRMC,212838.000,A,4910.46450,N,12304.30548,W,22.7,0.7,161018,,,A*40
$GNGSA,A,3,10,32,20,08,27,18,14,24,11,21,01,,1.0,0.6,0.8*24
$GNGSA,A,3,81,65,66,88,74,82,72,73,75,,,,1.0,0.6,0.8*23
$PSIWMPVT,194.630,250136.000,3,49.1744084,-123.0717580,3.701,0.137,11.670,-0.127,5.568,4.301,1.965,0.500,0.612,0.354,3.665,0.590,20,*20
$PSIWMPOS,000315.500,4910.46997,N,12304.30570,W,4.56,4.43,M,1.50,1,5,0,2,0,*6C
$PSIWMATT,000315.500,358.6,T,6.5,0.9,1.1,*77
$PSIWMVEL,000315.500,358.6,T,43.5,K,-0.08,M,*40
$PSIWMVSD,000315.500,1.49,1.24,27.27,2,0.07,2.73,-10.00,2,*2B
$GPGGA,212839.000,4910.47091,N,12304.30538,W,1,21,0.6,003.48,M,-16.8,M,,*5B
$GPRMC,212839.000,A,4910.47091,N,12304.30538,W,23.3,0.6,161018,,,A*4A
$GNGSA,A,3,10,32,20,08,27,18,14,24,11,21,01,,1.0,0.6,0.8*24
$GNGSA,A,3,81,65,66,88,74,82,72,73,87,75,,,1.0,0.6,0.8*2C
$PSIWMPVT,195.640,250136.999,3,49.1745151,-123.0717563,3.483,0.136,12.011,-0.105,5.568,4.301,1.582,0.500,0.612,0.354,3.081,0.238,21,*2D
$PSIWMPOS,000316.500,4910.47652,N,12304.30583,W,5.43,5.42,M,1.68,1,5,0,2,0,*6A
$PSIWMATT,000316.500,358.6,T,5.9,0.6,1.1,*74
$PSIWMVEL,000316.500,358.6,T,43.9,K,-0.14,M,*42
$PSIWMVSD,000316.500,1.49,1.24,27.27,2,0.07,2.73,-10.00,2,*28
$GPGGA,212840.000,4910.47749,N,12304.30517,W,1,21,0.6,003.43,M,-16.8,M,,*51
$GPRMC,212840.000,A,4910.47749,N,12304.30517,W,23.7,0.2,161018,,,A*4B
$GNGSA,A,3,10,32,20,08,27,18,14,24,11,21,01,,1.0,0.6,0.8*24
$GNGSA,A,3,81,65,66,88,74,82,72,73,87,75,,,1.0,0.6,0.8*2C
$PSIWMPVT,196.640,250137.999,3,49.1746248,-123.0717529,3.425,0.035,12.203,-0.104,5.523,4.243,1.613,0.500,0.612,0.354,2.966,0.152,21,*2A
$PSIWMPOS,000317.500,4910.48314,N,12304.30579,W,5.93,5.75,M,1.80,1,5,0,2,0,*69
$PSIWMATT,000317.500,359.1,T,5.9,0.5,1.1,*70
$PSIWMVEL,000317.500,359.1,T,44.9,K,-0.09,M,*4E
$PSIWMVSD,000317.500,1.49,1.24,27.27,2,0.07,2.73,-10.00,2,*29
$GPGGA,212841.000,4910.48407,N,12304.30509,W,1,21,0.6,003.35,M,-16.8,M,,*58
$GPRMC,212841.000,A,4910.48407,N,12304.30509,W,23.8,0.7,161018,,,A*49
$GNGSA,A,3,10,32,20,08,27,18,14,24,11,21,01,,1.0,0.6,0.8*24
$GNGSA,A,3,81,65,66,88,74,82,72,73,87,75,,,1.0,0.6,0.8*2C
$PSIWMPVT,197.640,250138.999,3,49.1747345,-123.0717515,3.349,0.140,12.259,-0.094,5.523,4.183,1.258,0.612,0.612,0.354,2.439,0.195,21,*27
$PSIWMPOS,000318.500,4910.48983,N,12304.30570,W,6.10,6.00,M,1.87,1,5,0,2,0,*65
$PSIWMATT,000318.500,358.7,T,5.7,0.6,1.1,*75
$PSIWMVEL,000318.500,358.7,T,44.9,K,-0.07,M,*48
$PSIWMVSD,000318.500,1.49,1.24,27.27,2,0.07,2.73,-10.00,2,*26
$GPGGA,212842.000,4910.49068,N,12304.30499,W,1,21,0.6,003.42,M,-16.8,M,,*5F
$GPRMC,212842.000,A,4910.49068,N,12304.30499,W,23.8,0.3,161018,,,A*4A
$GNGSA,A,3,10,32,20,08,27,18,14,24,11,21,01,,1.0,0.6,0.8*24
$GNGSA,A,3,81,65,66,88,74,82,72,73,87,75,,,1.0,0.6,0.8*2C
$PSIWMPVT,198.640,250140.000,3,49.1748447,-123.0717499,3.420,0.064,12.256,-0.101,5.523,4.243,1.613,0.612,0.612,0.354,3.128,0.230,21,*20
$PSIWMPOS,000319.500,4910.49639,N,12304.30567,W,6.15,5.50,M,1.90,1,5,0,2,0,*68
$PSIWMATT,000319.500,358.0,T,6.1,0.5,1.1,*75
$PSIWMVEL,000319.500,358.0,T,44.2,K,-0.01,M,*43
$PSIWMVSD,000319.500,1.49,1.24,27.27,2,0.07,2.73,-10.00,2,*27
$GPGGA,212843.000,4910.49735,N,12304.30506,W,1,21,0.6,003.28,M,-16.8,M,,*5A
$GPRMC,212843.000,A,4910.49735,N,12304.30506,W,24.0,359.9,161018,,,A*49
$GNGSA,A,3,10,32,20,08,27,18,14,24,11,21,01,,1.0,0.6,0.8*24
$GNGSA,A,3,81,65,66,88,74,82,72,73,87,75,,,1.0,0.6,0.8*2C
$PSIWMPVT,199.640,250141.000,3,49.1749558,-123.0717510,3.284,-0.017,12.340,-0.156,5.523,4.301,1.816,0.354,0.000,0.354,3.504,0.188,21,*0F
$PSIWMPOS,000320.500,4910.50294,N,12304.30572,W,6.16,5.50,M,1.91,1,5,0,2,0,*6F
$PSIWMATT,000320.500,358.0,T,6.3,0.4,1.1,*7C
$PSIWMVEL,000320.500,358.0,T,43.5,K,0.00,M,*65
$PSIWMVSD,000320.500,1.49,1.24,27.27,2,0.07,2.73,-10.00,2,*2D
$GPGGA,212844.000,4910.50399,N,12304.30520,W,1,20,0.6,003.22,M,-16.8,M,,*58
$GPRMC,212844.000,A,4910.50399,N,12304.30520,W,23.6,359.2,161018,,,A*4A
$GNGSA,A,3,10,32,20,08,27,18,14,24,11,21,01,,1.0,0.6,0.8*24
$GNGSA,A,3,81,65,66,88,74,82,72,73,87,,,,1.0,0.6,0.8*2E
$PSIWMPVT,200.680,250141.999,3,49.1750665,-123.0717533,3.221,-0.163,12.150,-0.099,5.568,4.416,2.281,0.354,0.000,0.354,4.448,0.359,20,*09
$PSIWMPOS,000321.500,4910.50924,N,12304.30582,W,6.13,5.91,M,1.91,1,5,0,2,0,*69
$PSIWMATT,000321.500,358.1,T,5.9,-0.1,1.1,*5D
$PSIWMVEL,000321.500,358.1,T,42.5,K,0.13,M,*66
$PSIWMVSD,000321.500,1.49,1.24,27.27,2,0.07,2.73,-10.00,2,*2C
$GPGGA,212845.000,4910.51050,N,12304.30541,W,1,20,0.6,003.32,M,-16.8,M,,*58
$GPRMC,212845.000,A,4910.51050,N,12304.30541,W,23.0,359.1,161018,,,A*4E
$GNGSA,A,3,10,32,20,08,27,18,14,24,11,21,01,,1.0,0.6,0.9*25
$GNGSA,A,3,81,65,66,88,74,82,72,73,87,,,,1.0,0.6,0.9*2F
$PSIWMPVT,201.630,250142.999,3,49.1751750,-123.0717568,3.318,-0.196,11.859,-0.029,5.568,4.472,2.430,0.354,0.000,0.354,4.917,0.320,20,*06
$PSIWMPOS,000322.500,4910.51576,N,12304.30589,W,6.15,5.08,M,1.91,1,5,0,2,0,*6D
$PSIWMATT,000322.500,359.0,T,6.4,0.3,1.1,*7F
$PSIWMVEL,000322.500,359.0,T,42.2,K,0.09,M,*69
$PSIWMVSD,000322.500,1.49,1.24,27.27,2,0.07,2.73,-10.00,2,*2F
$GPGGA,212846.000,4910.51683,N,12304.30548,W,1,20,0.6,003.41,M,-16.8,M,,*5E
$GPRMC,212846.000,A,4910.51683,N,12304.30548,W,22.6,0.0,161018,,,A*45
$GNGSA,A,3,10,32,20,08,27,18,14,24,11,21,01,,1.0,0.6,0.9*25
$GNGSA,A,3,81,65,66,88,74,82,72,73,87,,,,1.0,0.6,0.9*2F
$PSIWMPVT,202.630,250144.000,3,49.1752805,-123.0717580,3.412,-0.009,11.609,0.029,5.612,4.528,2.359,0.354,0.000,0.354,4.635,0.230,20,*2B
$PSIWMPOS,000323.500,4910.52211,N,12304.30584,W,6.17,4.67,M,1.91,1,5,0,2,0,*6E
$PSIWMATT,000323.500,359.5,T,5.7,0.2,1.1,*7A
$PSIWMVEL,000323.500,359.5,T,41.9,K,-0.07,M,*46
$PSIWMVSD,000323.500,1.49,1.24,27.27,2,0.07,2.73,-10.00,2,*2E
$GPGGA,212847.000,4910.52298,N,12304.30556,W,1,20,0.6,003.59,M,-16.8,M,,*54
$GPRMC,212847.000,A,4910.52298,N,12304.30556,W,21.9,359.8,161018,,,A*4D
$GNGSA,A,3,10,32,20,08,27,18,14,24,11,21,01,,1.0,0.6,0.8*24
$GNGSA,A,3,81,65,66,88,74,82,72,73,87,,,,1.0,0.6,0.8*2E
$PSIWMPVT,203.630,250145.000,3,49.1753830,-123.0717594,3.590,-0.033,11.275,0.025,5.568,4.583,5.070,0.500,0.612,0.354,9.722,0.316,20,*25
$PSIWMPOS,000324.500,4910.52826,N,12304.30573,W,5.48,4.42,M,1.76,1,5,0,2,0,*68
$PSIWMATT,000324.500,359.6,T,5.6,0.1,1.0,*7D
$PSIWMVEL,000324.500,359.6,T,41.2,K,-0.06,M,*48
$PSIWMVSD,000324.500,1.49,1.24,27.27,2,0.07,2.73,-10.00,2,*29
$GPGGA,212848.000,4910.52904,N,12304.30550,W,1,19,0.6,003.51,M,-16.8,M,,*51
$GPRMC,212848.000,A,4910.52904,N,12304.30550,W,21.8,0.4,161018,,,A*48
$GNGSA,A,3,10,32,20,08,27,18,14,24,11,21,01,,1.1,0.6,0.9*24
$GNGSA,A,3,81,65,66,88,74,82,72,73,,,,,1.1,0.6,0.9*21
$PSIWMPVT,204.630,250145.999,3,49.1754839,-123.0717583,3.506,0.071,11.218,0.025,5.568,4.583,3.531,0.500,0.612,0.354,6.090,0.340,19,*02
$PSIWMPOS,000325.500,4910.53431,N,12304.30572,W,5.89,4.25,M,1.83,1,5,0,2,0,*65
$PSIWMATT,000325.500,359.6,T,5.6,0.3,1.0,*7E
$PSIWMVEL,000325.500,359.6,T,40.7,K,-0.03,M,*48
$PSIWMVSD,000325.500,1.49,1.24,27.27,2,0.07,2.73,-10.00,2,*28
$GPGGA,212849.000,4910.53504,N,12304.30537,W,1,20,0.6,003.43,M,-16.8,M,,*55
$GPRMC,212849.000,A,4910.53504,N,12304.30537,W,21.3,0.6,161018,,,A*4C
$GNGSA,A,3,10,32,20,08,27,18,14,24,11,21,01,,1.0,0.6,0.8*24
$GNGSA,A,3,81,65,66,88,74,82,72,73,87,,,,1.0,0.6,0.8*2E
$PSIWMPVT,205.630,250146.999,3,49.1755840,-123.0717562,3.427,0.115,10.987,0.017,5.568,4.637,1.992,0.500,0.612,0.354,3.813,0.500,20,*09
$PSIWMPOS,000326.500,4910.54022,N,12304.30566,W,6.07,4.42,M,1.86,1,5,0,2,0,*63
$PSIWMATT,000326.500,359.6,T,5.9,0.4,1.0,*75
$PSIWMVEL,000326.500,359.6,T,39.8,K,-0.00,M,*49
$PSIWMVSD,000326.500,1.49,1.24,27.27,2,0.07,2.73,-10.00,2,*2B
$GPGGA,212850.000,4910.54101,N,12304.30518,W,1,19,0.6,003.57,M,-16.8,M,,*59
$GPRMC,212850.000,A,4910.54101,N,12304.30518,W,21.5,0.8,161018,,,A*47
$GNGSA,A,3,10,32,20,08,27,18,14,24,11,21,01,,1.1,0.6,0.9*24
$GNGSA,A,3,81,65,66,88,74,82,72,73,,,,,1.1,0.6,0.9*21
$PSIWMPVT,206.630,250148.000,3,49.1756835,-123.0717531,3.572,0.153,11.061,0.011,5.568,4.637,2.504,0.500,0.707,0.354,4.398,0.445,19,*0F
$PSIWMPOS,000327.500,4910.54603,N,12304.30553,W,6.12,3.51,M,1.88,1,5,0,2,0,*6E
$PSIWMATT,000327.500,359.8,T,6.2,0.6,1.1,*71
$PSIWMVEL,000327.500,359.8,T,38.6,K,0.08,M,*6C
$PSIWMVSD,000327.500,1.49,1.24,27.27,2,0.07,2.73,-10.00,2,*2A
$GPGGA,212851.000,4910.54706,N,12304.30505,W,1,19,0.6,003.49,M,-16.8,M,,*5A
$GPRMC,212851.000,A,4910.54706,N,12304.30505,W,20.9,1.0,161018,,,A*4F
$GNGSA,A,3,10,32,20,08,27,18,14,24,11,21,01,,1.1,0.6,0.9*24
$GNGSA,A,3,81,65,66,88,74,82,72,73,,,,,1.1,0.6,0.9*21
$PSIWMPVT,207.590,250149.000,3,49.1757844,-123.0717508,3.485,0.195,10.758,-0.034,5.292,4.183,1.789,0.612,0.612,0.354,3.118,0.484,19,*25
$PSIWMPOS,000328.500,4910.55196,N,12304.30533,W,6.09,3.59,M,1.88,1,5,0,2,0,*6F
$PSIWMATT,000328.500,0.3,T,5.6,0.6,1.1,*7D
$PSIWMVEL,000328.500,0.3,T,35.8,K,-0.05,M,*44
$PSIWMVSD,000328.500,1.49,1.24,27.27,2,0.07,2.73,-10.00,2,*25
$GPGGA,212852.000,4910.55273,N,12304.30496,W,1,19,0.6,003.44,M,-16.8,M,,*59
$GPRMC,212852.000,A,4910.55273,N,12304.30496,W,19.7,0.6,161018,,,A*42
$GNGSA,A,3,10,32,20,08,27,18,14,24,11,21,01,,1.1,0.6,0.9*24
$GNGSA,A,3,81,65,66,88,74,72,73,75,,,,,1.1,0.6,0.9*29
$PSIWMPVT,208.630,250150.000,3,49.1758789,-123.0717493,3.445,0.115,10.164,-0.059,5.431,4.301,1.805,0.612,0.500,0.354,3.044,0.289,19,*20
$PSIWMPOS,000329.500,4910.55691,N,12304.30487,W,6.06,2.85,M,1.87,1,5,0,2,0,*60
$PSIWMATT,000329.500,6.0,T,5.9,-0.1,1.1,*5C
$PSIWMVEL,000329.500,6.0,T,29.9,K,0.06,M,*62
$PSIWMVSD,000329.500,1.49,1.24,27.27,2,0.07,2.73,-10.00,2,*24
$GPGGA,212853.000,4910.55768,N,12304.30472,W,1,18,0.6,003.52,M,-16.8,M,,*5B
$GPRMC,212853.000,A,4910.55768,N,12304.30472,W,16.2,4.0,161018,,,A*4E
$GNGSA,A,3,10,32,20,08,27,18,14,24,11,01,,,1.1,0.6,0.9*27
$GNGSA,A,3,81,65,66,88,74,72,73,75,,,,,1.1,0.6,0.9*29
$PSIWMPVT,209.620,250150.999,3,49.1759614,-123.0717453,3.524,0.586,8.338,-0.032,5.523,4.359,2.496,0.354,0.000,0.000,4.391,0.328,18,*1B
$PSIWMPOS,000330.500,4910.56124,N,12304.30342,W,6.05,2.19,M,1.86,1,5,0,2,0,*6B
$PSIWMATT,000330.500,21.2,T,5.9,-0.4,1.1,*66
$PSIWMVEL,000330.500,21.2,T,29.0,K,0.01,M,*53
$PSIWMVSD,000330.500,1.49,1.24,27.27,2,0.07,2.73,-10.00,2,*2C
$GPGGA,212854.000,4910.56179,N,12304.30375,W,1,18,0.6,003.46,M,-16.8,M,,*5C
$GPRMC,212854.000,A,4910.56179,N,12304.30375,W,14.2,15.8,161018,,,A*76
$GNGSA,A,3,10,32,20,08,27,18,14,24,11,,,,1.1,0.6,0.9*26
$GNGSA,A,3,81,65,66,88,74,82,72,73,75,,,,1.1,0.6,0.9*23
$PSIWMPVT,210.620,250152.000,3,49.1760298,-123.0717292,3.459,1.989,7.016,-0.021,5.612,4.416,2.121,0.354,0.000,0.354,4.122,0.090,18,*1E
$PSIWMPOS,000331.500,4910.56470,N,12304.30040,W,6.02,2.03,M,1.87,1,5,0,2,0,*62
$PSIWMATT,000331.500,43.5,T,6.2,-0.9,1.1,*61
$PSIWMVEL,000331.500,43.5,T,28.3,K,-0.02,M,*7D
$PSIWMVSD,000331.500,1.49,1.24,27.27,2,0.07,2.73,-10.00,2,*2D
$GPGGA,212855.000,4910.56520,N,12304.30114,W,1,19,0.6,003.49,M,-16.8,M,,*5E
$GPRMC,212855.000,A,4910.56520,N,12304.30114,W,13.4,37.5,161018,,,A*76
$GNGSA,A,3,10,32,20,08,27,18,14,24,11,01,,,1.1,0.6,0.9*27
$GNGSA,A,3,81,65,66,88,74,82,72,73,75,,,,1.1,0.6,0.9*23
$PSIWMPVT,211.630,250153.000,3,49.1760867,-123.0716856,3.490,4.209,5.495,0.069,5.657,4.472,2.188,0.500,0.612,0.354,4.127,0.688,19,*30
$PSIWMPOS,000332.500,4910.56697,N,12304.29563,W,6.25,2.36,M,1.94,1,5,0,2,0,*67
$PSIWMATT,000332.500,69.0,T,7.1,0.0,1.1,*49
$PSIWMVEL,000332.500,69.0,T,29.6,K,0.01,M,*59
$PSIWMVSD,000332.500,1.49,1.24,27.27,2,0.07,2.73,-10.00,2,*2E
$GPGGA,212856.000,4910.56761,N,12304.29665,W,1,18,0.6,003.60,M,-16.8,M,,*59
$GPRMC,212856.000,A,4910.56761,N,12304.29665,W,14.2,63.4,161018,,,A*7A
$GNGSA,A,3,10,32,20,08,27,18,14,24,11,01,,,1.1,0.6,0.9*27
$GNGSA,A,3,81,65,66,88,74,82,72,73,,,,,1.1,0.6,0.9*21
$PSIWMPVT,212.640,250154.000,3,49.1761269,-123.0716108,3.604,6.517,3.258,0.106,5.745,4.472,2.289,0.500,0.612,0.354,4.047,1.398,18,*3B
$PSIWMPOS,000333.500,4910.56807,N,12304.28974,W,6.38,2.52,M,1.99,1,5,0,2,0,*69
$PSIWMATT,000333.500,81.9,T,6.4,0.8,1.2,*48
$PSIWMVEL,000333.500,81.9,T,31.5,K,-0.08,M,*79
$PSIWMVSD,000333.500,1.49,1.24,27.27,2,0.07,2.73,-10.00,2,*2F
$GPGGA,212857.000,4910.56888,N,12304.29053,W,1,16,0.7,003.73,M,-16.8,M,,*5E
$GPRMC,212857.000,A,4910.56888,N,12304.29053,W,15.8,81.5,161018,,,A*76
$GNGSA,A,3,10,32,20,08,27,18,14,24,11,,,,1.3,0.7,1.1*2C
$GNGSA,A,3,81,65,66,88,74,72,73,,,,,,1.3,0.7,1.1*21
$PSIWMPVT,213.590,250154.999,3,49.1761480,-123.0715089,3.732,8.060,1.208,0.101,5.788,4.416,2.480,0.612,0.612,0.707,4.062,0.176,16,*3C
$PSIWMPOS,000334.500,4910.56883,N,12304.28306,W,6.59,2.69,M,2.00,1,5,0,2,0,*61
$PSIWMATT,000334.500,83.1,T,6.7,1.3,1.2,*4C
$PSIWMVEL,000334.500,83.1,T,33.2,K,-0.03,M,*7A
$PSIWMVSD,000334.500,1.49,1.24,27.27,2,0.07,2.73,-10.00,2,*28
$GPGGA,212858.000,4910.56933,N,12304.28320,W,1,17,0.6,003.84,M,-16.8,M,,*5E
$GPRMC,212858.000,A,4910.56933,N,12304.28320,W,17.4,86.6,161018,,,A*74
$GNGSA,A,3,10,32,20,08,27,18,14,24,11,21,,,1.2,0.6,1.0*2E
$GNGSA,A,3,81,65,66,88,82,72,73,,,,,,1.2,0.6,1.0*29
$PSIWMPVT,214.630,250156.000,3,49.1761555,-123.0713867,3.843,8.963,0.529,0.114,5.874,4.416,5.254,0.612,0.500,0.612,9.638,1.902,17,*32
$PSIWMPOS,000335.500,4910.56972,N,12304.27635,W,6.18,3.35,M,1.91,1,5,0,2,0,*63
$PSIWMATT,000335.500,79.1,T,6.7,-0.1,1.2,*66
$PSIWMVEL,000335.500,79.1,T,34.0,K,0.04,M,*51
$PSIWMVSD,000335.500,1.49,1.24,27.27,2,0.07,2.73,-10.00,2,*29
$GPGGA,212859.000,4910.56974,N,12304.27536,W,1,17,0.6,003.89,M,-16.8,M,,*5F
$GPRMC,212859.000,A,4910.56974,N,12304.27536,W,18.8,83.9,161018,,,A*71
$GNGSA,A,3,10,32,20,08,27,18,14,24,11,21,01,,1.1,0.6,0.9*24
$GNGSA,A,3,81,65,66,88,82,72,,,,,,,1.1,0.6,0.9*26
$PSIWMPVT,215.630,250157.000,3,49.1761624,-123.0712561,3.894,9.624,1.035,0.108,5.874,4.359,3.352,0.612,0.500,0.354,9.503,1.504,17,*35
$PSIWMPOS,000336.500,4910.57081,N,12304.26864,W,6.54,3.84,M,1.96,1,5,0,2,0,*6A
$PSIWMATT,000336.500,75.5,T,6.4,-1.7,1.2,*69
$PSIWMVEL,000336.500,75.5,T,35.7,K,0.12,M,*5B
$PSIWMVSD,000336.500,1.49,1.24,27.27,2,0.07,2.73,-10.00,2,*2A
$GPGGA,212900.000,4910.57046,N,12304.26699,W,1,17,0.6,003.93,M,-16.8,M,,*57
$GPRMC,212900.000,A,4910.57046,N,12304.26699,W,20.1,80.1,161018,,,A*7B
$GNGSA,A,3,10,32,20,08,27,18,14,24,11,21,01,,1.2,0.6,1.0*2F
$GNGSA,A,3,81,65,66,88,82,72,,,,,,,1.2,0.6,1.0*2D
$PSIWMPVT,216.620,250158.000,3,49.1761743,-123.0711166,3.931,10.177,1.773,0.055,5.874,4.301,2.695,0.612,0.500,0.354,7.990,1.035,17,*0E
$PSIWMPOS,000337.500,4910.57211,N,12304.26044,W,6.71,3.76,M,1.99,1,5,0,2,0,*6F
$PSIWMATT,000337.500,72.9,T,6.4,-2.0,1.2,*67
$PSIWMVEL,000337.500,72.9,T,36.7,K,0.11,M,*51
$PSIWMVSD,000337.500,1.49,1.24,27.27,2,0.07,2.73,-10.00,2,*2B
$GPGGA,212901.000,4910.57160,N,12304.25824,W,1,17,0.6,003.91,M,-16.8,M,,*5A
$GPRMC,212901.000,A,4910.57160,N,12304.25824,W,21.0,76.9,161018,,,A*75
$GNGSA,A,3,10,32,20,08,27,18,14,24,11,21,01,,1.1,0.6,0.9*24
$GNGSA,A,3,81,65,66,88,82,75,,,,,,,1.1,0.6,0.9*21
$PSIWMPVT,217.630,250159.000,3,49.1761934,-123.0709707,3.914,10.541,2.449,0.046,5.874,4.301,3.660,0.612,0.500,0.354,8.326,1.176,17,*01
$PSIWMPOS,000338.500,4910.57355,N,12304.25175,W,6.43,3.68,M,1.95,1,5,0,2,0,*63
$PSIWMATT,000338.500,70.6,T,6.5,-1.2,1.2,*65
$PSIWMVEL,000338.500,70.6,T,37.2,K,0.11,M,*57
$PSIWMVSD,000338.500,1.49,1.24,27.27,2,0.07,2.73,-10.00,2,*24
$GPGGA,212902.000,4910.57296,N,12304.24925,W,1,17,0.6,004.09,M,-16.8,M,,*54
$GPRMC,212902.000,A,4910.57296,N,12304.24925,W,21.3,75.2,161018,,,A*76
$GNGSA,A,3,10,32,20,08,27,18,14,24,11,21,,,1.1,0.6,0.9*25
$GNGSA,A,3,81,65,66,88,82,73,75,,,,,,1.1,0.6,0.9*25
$PSIWMPVT,218.620,250160.000,3,49.1762161,-123.0708209,4.090,10.598,2.802,0.196,5.831,4.243,3.367,0.500,0.000,0.354,6.190,0.719,17,*03
$PSIWMPOS,000339.500,4910.57510,N,12304.24301,W,6.33,3.35,M,1.93,1,5,0,2,0,*6C
$PSIWMATT,000339.500,70.3,T,6.5,-0.1,1.2,*63
$PSIWMVEL,000339.500,70.3,T,36.8,K,0.09,M,*51
$PSIWMVSD,000339.500,1.49,1.24,27.27,2,0.07,2.73,-10.00,2,*25
$GPGGA,212903.000,4910.57455,N,12304.24041,W,1,18,0.6,004.24,M,-16.8,M,,*57
$GPRMC,212903.000,A,4910.57455,N,12304.24041,W,21.0,72.8,161018,,,A*7B
$GNGSA,A,3,10,32,20,08,27,18,14,24,11,21,,,1.1,0.6,0.9*25
$GNGSA,A,3,81,65,66,88,82,72,73,75,,,,,1.1,0.6,0.9*20
$PSIWMPVT,219.600,250161.000,3,49.1762426,-123.0706735,4.243,10.311,3.188,0.184,5.831,4.243,3.066,0.354,0.000,0.354,5.166,0.598,18,*0A
$PSIWMPOS,000340.500,4910.57664,N,12304.23396,W,6.34,3.59,M,1.93,1,5,0,2,0,*66
$PSIWMATT,000340.500,72.9,T,6.4,0.4,1.2,*4C
$PSIWMVEL,000340.500,72.9,T,37.3,K,0.09,M,*5D
$PSIWMVSD,000340.500,1.49,1.24,27.27,2,0.07,2.73,-10.00,2,*2B
$GPGGA,212904.000,4910.57622,N,12304.23188,W,1,18,0.6,004.28,M,-16.8,M,,*5D
$GPRMC,212904.000,A,4910.57622,N,12304.23188,W,20.2,73.8,161018,,,A*7F
$GNGSA,A,3,10,32,20,08,27,18,14,24,11,21,,,1.1,0.6,0.9*25
$GNGSA,A,3,81,65,66,88,82,72,73,75,,,,,1.1,0.6,0.9*20
$PSIWMPVT,220.630,250162.000,3,49.1762703,-123.0705313,4.278,9.961,2.889,0.145,5.788,4.243,3.004,0.354,0.000,0.000,5.061,0.398,18,*35
$PSIWMPOS,000341.500,4910.57784,N,12304.22526,W,6.29,3.76,M,1.92,1,5,0,2,0,*64
