$GNGSA,A,3,25,02,12,29,31,06,,,,,,,1.2,0.7,1.0*20
$GNGSA,A,3,85,75,76,69,84,86,74,68,70,,,,1.2,0.7,1.0*20
$PSIWMPOS,000046.800,4910.32943,N,12304.20603,W,8.98,22.99,M,6.35,0,2,0,2,0,*57
$PSIWMATT,000046.800,360.0,T,-0.6,0.0,180.0,*5A
$PSIWMVEL,000046.800,360.0,T,0.0,K,-0.00,M,*7F
$PSIWMVSD,000046.800,0.00,0.00,0.00,2,0.00,0.00,0.00,2,*05
$PSIWMPVT,47.010,224894.000,3,49.1721568,-123.0701016,23.638,0.009,-0.012,-0.005,5.385,3.808,2.621,0.707,0.000,0.000,3.814,0.020,15,*35
$GPGGA,142757.000,4910.32939,N,12304.20632,W,1,15,0.7,027.37,M,-16.8,M,,*53
$GPRMC,142757.000,A,4910.32939,N,12304.20632,W,0.0,0.0,161018,,,A*7E
$GNGSA,A,3,25,02,12,29,31,06,,,,,,,1.2,0.7,1.0*20
$GNGSA,A,3,85,75,76,69,84,86,74,68,70,,,,1.2,0.7,1.0*20
$PSIWMPVT,47.770,224895.000,3,49.1721565,-123.0701053,27.374,-0.021,-0.009,0.009,4.899,3.317,4.461,0.500,0.000,0.000,6.490,0.012,15,*3F
$GPGGA,142758.000,4910.32943,N,12304.20653,W,1,15,0.7,028.04,M,-16.8,M,,*59
$GPRMC,142758.000,A,4910.32943,N,12304.20653,W,0.0,0.0,161018,,,A*7B
$GNGSA,A,3,25,02,12,29,31,06,,,,,,,1.2,0.7,1.0*20
$GNGSA,A,3,85,75,76,69,84,86,74,68,70,,,,1.2,0.7,1.0*20
$PSIWMPVT,48.780,224895.999,3,49.1721572,-123.0701089,28.042,-0.011,-0.018,0.010,5.050,3.464,4.805,0.500,0.000,0.000,6.990,0.008,15,*32
$PSIWMPDR,0.000,0.0000000,0.0000000,0.000,-1010101.125000000,-1010101.125000000,0,0.000000000,0.000000000,0.000000000,0.00,0.000000000,0.000000000,0.000000000,0.000000000,-1010101.125000000,24,*15
$GPGGA,142759.000,4910.32952,N,12304.20677,W,1,15,0.7,028.75,M,-16.8,M,,*58
$GPRMC,142759.000,A,4910.32952,N,12304.20677,W,0.1,0.0,161018,,,A*7D
$GNGSA,A,3,25,02,12,29,31,06,,,,,,,1.2,0.7,1.0*20
$GNGSA,A,3,85,75,76,69,84,86,74,68,70,,,,1.2,0.7,1.0*20
$PSIWMPVT,49.770,224897.000,3,49.1721587,-123.0701128,28.749,-0.021,-0.018,0.021,5.099,3.606,4.488,0.500,0.000,0.000,6.532,0.012,15,*3F
$PSIWMPOS,000050.750,4910.32952,N,12304.20677,W,141.42,28.75,M,100.00,0,8,0,2,0,*51
$PSIWMATT,000050.750,360.0,T,-0.5,0.1,180.0,*55
$PSIWMVEL,000050.750,360.0,T,0.0,K,-0.00,M,*72
$PSIWMVSD,000050.750,0.00,0.00,0.00,2,0.00,0.00,0.00,2,*08
$GPGGA,142800.000,4910.32960,N,12304.20693,W,1,15,0.7,029.38,M,-16.8,M,,*58
$GPRMC,142800.000,A,4910.32960,N,12304.20693,W,0.1,0.0,161018,,,A*75
$GNGSA,A,3,25,02,12,29,31,06,,,,,,,1.2,0.7,1.0*20
$GNGSA,A,3,85,75,76,69,84,86,74,68,70,,,,1.2,0.7,1.0*20
$PSIWMPVT,50.810,224898.000,3,49.1721600,-123.0701154,29.380,-0.013,-0.023,0.025,5.099,3.674,3.312,0.500,0.000,0.000,4.823,0.016,15,*36
$PSIWMPOS,000051.750,4910.32960,N,12304.20693,W,7.21,29.38,M,5.10,0,8,0,2,0,*50
$PSIWMATT,000051.750,360.0,T,-0.5,0.1,180.0,*54
$PSIWMVEL,000051.750,360.0,T,0.1,K,-0.03,M,*71
$PSIWMVSD,000051.750,0.00,0.00,0.00,2,0.00,0.00,0.00,2,*09
$GPGGA,142801.000,4910.32968,N,12304.20700,W,1,15,0.7,030.14,M,-16.8,M,,*5C
$GPRMC,142801.000,A,4910.32968,N,12304.20700,W,0.1,0.0,161018,,,A*77
$GNGSA,A,3,25,02,12,29,31,06,,,,,,,1.2,0.7,1.0*20
$GNGSA,A,3,85,75,76,69,84,86,74,68,70,,,,1.2,0.7,1.0*20
$PSIWMPVT,51.810,224899.000,3,49.1721613,-123.0701167,30.142,-0.002,-0.026,0.012,4.743,3.240,2.840,0.500,0.000,0.000,4.134,0.016,15,*31
$PSIWMPOS,000052.750,4910.32968,N,12304.20700,W,6.71,30.14,M,4.74,0,8,0,2,0,*51
$PSIWMATT,000052.750,360.0,T,-0.5,0.1,180.0,*57
$PSIWMVEL,000052.750,360.0,T,0.0,K,-0.00,M,*70
$PSIWMVSD,000052.750,0.00,0.00,0.00,2,0.00,0.00,0.00,2,*0A
$GPGGA,142802.000,4910.32967,N,12304.20717,W,1,15,0.7,030.12,M,-16.8,M,,*50
$GPRMC,142802.000,A,4910.32967,N,12304.20717,W,0.0,0.0,161018,,,A*7C
$GNGSA,A,3,25,02,12,29,31,06,,,,,,,1.2,0.7,1.0*20
$GNGSA,A,3,85,75,76,69,84,86,74,68,70,,,,1.2,0.7,1.0*20
$PSIWMPVT,52.820,224900.000,3,49.1721612,-123.0701195,30.125,-0.019,-0.016,0.009,4.528,3.082,2.852,0.354,0.000,0.000,4.148,0.016,15,*32
$PSIWMPOS,000053.750,4910.32967,N,12304.20717,W,7.68,30.12,M,5.43,0,8,0,2,0,*53
$PSIWMATT,000053.750,360.0,T,-0.6,-0.1,180.0,*78
$PSIWMVEL,000053.750,360.0,T,0.0,K,-0.00,M,*71
$PSIWMVSD,000053.750,0.00,0.00,0.00,2,0.00,0.00,0.00,2,*0B
$GPGGA,142803.000,4910.32969,N,12304.20719,W,1,15,0.7,029.50,M,-16.8,M,,*5F
$GPRMC,142803.000,A,4910.32969,N,12304.20719,W,0.0,0.0,161018,,,A*7D
$GNGSA,A,3,25,02,12,29,31,06,,,,,,,1.2,0.7,1.0*20
$GNGSA,A,3,85,75,76,69,84,86,74,68,70,,,,1.2,0.7,1.0*20
$PSIWMPVT,53.820,224901.000,3,49.1721614,-123.0701198,29.498,0.003,-0.004,0.018,4.690,3.317,2.945,0.354,0.000,0.000,4.288,0.008,15,*1F
$PSIWMPOS,000054.750,4910.32969,N,12304.20719,W,7.96,29.50,M,5.63,0,8,0,2,0,*59
$PSIWMATT,000054.750,360.0,T,-0.4,-1.6,180.0,*7B
$PSIWMVEL,000054.750,360.0,T,0.0,K,-0.00,M,*76
$PSIWMVSD,000054.750,0.00,0.00,0.00,2,0.00,0.00,0.00,2,*0C
$GPGGA,142804.000,4910.32973,N,12304.20722,W,1,15,0.7,028.98,M,-16.8,M,,*5E
$GPRMC,142804.000,A,4910.32973,N,12304.20722,W,0.0,0.0,161018,,,A*79
$GNGSA,A,3,25,02,12,29,31,06,,,,,,,1.2,0.7,1.0*20
$GNGSA,A,3,85,75,76,69,84,86,74,68,70,,,,1.2,0.7,1.0*20
$PSIWMPVT,54.820,224902.000,3,49.1721622,-123.0701203,28.978,-0.010,-0.019,0.028,4.848,3.536,2.957,0.354,0.000,0.000,4.307,0.012,15,*3D
$PSIWMPOS,000055.750,4910.32973,N,12304.20722,W,8.23,28.98,M,5.82,0,8,0,2,0,*50
$PSIWMATT,000055.750,360.0,T,-0.6,-0.0,180.0,*7F
$PSIWMVEL,000055.750,360.0,T,0.0,K,-0.00,M,*77
$PSIWMVSD,000055.750,0.00,0.00,0.00,2,0.00,0.00,0.00,2,*0D
$GPGGA,142805.000,4910.32981,N,12304.20721,W,1,15,0.7,029.25,M,-16.8,M,,*56
$GPRMC,142805.000,A,4910.32981,N,12304.20721,W,0.0,0.0,161018,,,A*76
$GNGSA,A,3,25,02,12,29,31,06,,,,,,,1.2,0.7,1.0*20
$GNGSA,A,3,85,75,76,69,84,86,74,68,70,,,,1.2,0.7,1.0*20
$PSIWMPVT,55.820,224903.000,3,49.1721635,-123.0701202,29.252,-0.006,-0.008,0.031,4.899,3.606,3.102,0.354,0.000,0.000,4.514,0.016,15,*32
$PSIWMPOS,000056.750,4910.32981,N,12304.20721,W,8.31,29.25,M,5.88,0,8,0,2,0,*53
$PSIWMATT,000056.750,360.0,T,-0.6,-0.0,180.0,*7C
$PSIWMVEL,000056.750,360.0,T,0.0,K,-0.00,M,*74
$PSIWMVSD,000056.750,0.00,0.00,0.00,2,0.00,0.00,0.00,2,*0E
$GPGGA,142806.000,4910.32994,N,12304.20719,W,1,15,0.7,028.05,M,-16.8,M,,*59
$GPRMC,142806.000,A,4910.32994,N,12304.20719,W,0.0,0.0,161018,,,A*7A
$GNGSA,A,3,25,02,12,29,31,06,,,,,,,1.2,0.7,1.0*20
$GNGSA,A,3,85,75,76,69,84,86,74,68,70,,,,1.2,0.7,1.0*20
$PSIWMPVT,56.820,224904.000,3,49.1721656,-123.0701198,28.045,-0.009,-0.006,0.034,4.583,3.162,2.629,0.354,0.000,0.000,3.826,0.016,15,*35
$PSIWMPOS,000057.750,4910.32994,N,12304.20719,W,7.78,28.05,M,5.50,0,8,0,2,0,*59
$PSIWMATT,000057.750,360.0,T,-0.6,-0.1,180.0,*7C
$PSIWMVEL,000057.750,360.0,T,0.0,K,-0.00,M,*75
$PSIWMVSD,000057.750,0.00,0.00,0.00,2,0.00,0.00,0.00,2,*0F
$GPGGA,142807.000,4910.33008,N,12304.20711,W,1,15,0.7,026.84,M,-16.8,M,,*5A
$GPRMC,142807.000,A,4910.33008,N,12304.20711,W,0.0,0.0,161018,,,A*7E
$GNGSA,A,3,25,02,12,29,31,06,,,,,,,1.2,0.7,1.0*20
$GNGSA,A,3,85,75,76,69,84,86,74,68,70,,,,1.2,0.7,1.0*20
$PSIWMPVT,57.820,224905.000,3,49.1721680,-123.0701184,26.838,-0.012,-0.020,0.025,4.416,3.000,2.289,0.354,0.000,0.000,3.332,0.023,15,*3F
$PSIWMPOS,000058.750,4910.33008,N,12304.20711,W,7.49,26.84,M,5.30,0,8,0,2,0,*50
$PSIWMATT,000058.750,360.0,T,-0.6,-0.1,180.0,*73
$PSIWMVEL,000058.750,360.0,T,0.0,K,-0.00,M,*7A
$PSIWMVSD,000058.750,0.00,0.00,0.00,2,0.00,0.00,0.00,2,*00
$GPGGA,142808.000,4910.33016,N,12304.20725,W,1,15,0.7,026.78,M,-16.8,M,,*5E
$GPRMC,142808.000,A,4910.33016,N,12304.20725,W,0.0,0.0,161018,,,A*79
$GNGSA,A,3,25,02,12,29,31,06,,,,,,,1.2,0.7,1.0*20
$GNGSA,A,3,85,75,76,69,84,86,74,68,70,,,,1.2,0.7,1.0*20
$PSIWMPVT,58.820,224906.000,3,49.1721693,-123.0701209,26.785,0.003,0.001,0.001,4.301,2.915,2.340,0.354,0.000,0.000,3.405,0.020,15,*32
$PSIWMPOS,000059.750,4910.33016,N,12304.20725,W,7.30,26.78,M,5.16,0,8,0,2,0,*50
$PSIWMATT,000059.750,360.0,T,-0.7,-0.1,180.0,*73
$PSIWMVEL,000059.750,360.0,T,0.0,K,-0.00,M,*7B
$PSIWMVSD,000059.750,0.00,0.00,0.00,2,0.00,0.00,0.00,2,*01
$GPGGA,142809.000,4910.33011,N,12304.20715,W,1,15,0.7,025.01,M,-16.8,M,,*56
$GPRMC,142809.000,A,4910.33011,N,12304.20715,W,0.0,0.0,161018,,,A*7C
$GNGSA,A,3,25,02,12,29,31,06,,,,,,,1.2,0.7,1.0*20
$GNGSA,A,3,85,75,76,69,84,86,74,68,70,,,,1.2,0.7,1.0*20
$PSIWMPVT,59.820,224906.999,3,49.1721685,-123.0701192,25.006,0.002,-0.002,0.012,4.243,2.915,2.254,0.354,0.000,0.000,3.279,0.004,15,*16
$PSIWMPOS,000100.750,4910.33011,N,12304.20715,W,7.20,25.01,M,5.09,0,8,0,2,0,*5B
$PSIWMATT,000100.750,360.0,T,-0.7,-0.1,180.0,*7E
$PSIWMVEL,000100.750,360.0,T,0.0,K,-0.00,M,*76
$PSIWMVSD,000100.750,0.00,0.00,0.00,2,0.00,0.00,0.00,2,*0C
$GPGGA,142810.000,4910.33018,N,12304.20732,W,1,15,0.7,024.86,M,-16.8,M,,*5C
$GPRMC,142810.000,A,4910.33018,N,12304.20732,W,0.0,0.0,161018,,,A*78
$GNGSA,A,3,25,02,12,29,31,06,,,,,,,1.2,0.7,1.0*20
$GNGSA,A,3,85,75,76,69,84,86,74,68,70,,,,1.2,0.7,1.0*20
$PSIWMPVT,60.830,224907.999,3,49.1721697,-123.0701220,24.860,-0.010,0.001,0.009,4.183,2.915,2.016,0.354,0.000,0.000,2.932,0.016,15,*1B
$PSIWMPOS,000101.750,4910.33018,N,12304.20732,W,7.10,24.86,M,5.02,0,8,0,2,0,*50
$PSIWMATT,000101.750,360.0,T,-0.7,-0.1,180.0,*7F
$PSIWMVEL,000101.750,360.0,T,0.0,K,-0.00,M,*77
$PSIWMVSD,000101.750,0.00,0.00,0.00,2,0.00,0.00,0.00,2,*0D
$GPGGA,142811.000,4910.33022,N,12304.20731,W,1,15,0.7,024.58,M,-16.8,M,,*54
$GPRMC,142811.000,A,4910.33022,N,12304.20731,W,0.0,0.0,161018,,,A*73
$GNGSA,A,3,25,02,12,29,31,06,,,,,,,1.2,0.7,1.0*20
$GNGSA,A,3,85,75,76,69,84,86,74,68,70,,,,1.2,0.7,1.0*20
$PSIWMPVT,61.830,224908.999,3,49.1721703,-123.0701219,24.580,-0.017,-0.013,0.025,4.243,2.915,2.461,0.354,0.000,0.000,3.585,0.020,15,*38
$PSIWMPOS,000102.750,4910.33022,N,12304.20731,W,7.20,24.58,M,5.09,0,8,0,2,0,*52
$PSIWMATT,000102.750,360.0,T,-0.7,-0.1,180.0,*7C
$PSIWMVEL,000102.750,360.0,T,0.0,K,-0.00,M,*74
$PSIWMVSD,000102.750,0.00,0.00,0.00,2,0.00,0.00,0.00,2,*0E
$GPGGA,142812.000,4910.33026,N,12304.20723,W,1,15,0.7,024.16,M,-16.8,M,,*5A
$GPRMC,142812.000,A,4910.33026,N,12304.20723,W,0.0,0.0,161018,,,A*77
$GNGSA,A,3,25,02,12,29,31,06,,,,,,,1.2,0.7,1.0*20
$GNGSA,A,3,85,75,76,69,84,86,74,68,70,,,,1.2,0.7,1.0*20
$PSIWMPVT,62.830,224909.999,3,49.1721710,-123.0701205,24.163,-0.011,-0.010,0.020,4.243,3.000,2.875,0.354,0.000,0.000,4.185,0.012,15,*3B
$PSIWMPOS,000103.750,4910.33026,N,12304.20723,W,7.20,24.16,M,5.09,0,8,0,2,0,*5E
$PSIWMATT,000103.750,360.0,T,-0.7,-0.0,180.0,*7C
$PSIWMVEL,000103.750,360.0,T,0.0,K,-0.00,M,*75
$PSIWMVSD,000103.750,0.00,0.00,0.00,2,0.00,0.00,0.00,2,*0F
$GPGGA,142813.000,4910.33020,N,12304.20705,W,1,15,0.7,024.06,M,-16.8,M,,*58
$GPRMC,142813.000,A,4910.33020,N,12304.20705,W,0.0,0.0,161018,,,A*74
$GNGSA,A,3,25,02,12,29,31,06,,,,,,,1.2,0.7,1.0*20
$GNGSA,A,3,85,75,76,69,84,86,74,68,70,,,,1.2,0.7,1.0*20
$PSIWMPVT,63.830,224910.999,3,49.1721701,-123.0701175,24.063,0.000,-0.025,0.006,4.243,3.082,3.020,0.354,0.000,0.000,4.393,0.016,15,*1A
$PSIWMPOS,000104.750,4910.33020,N,12304.20705,W,7.20,24.06,M,5.09,0,8,0,2,0,*5A
$PSIWMATT,000104.750,360.0,T,-0.7,-0.0,180.0,*7B
$PSIWMVEL,000104.750,360.0,T,0.0,K,-0.00,M,*72
$PSIWMVSD,000104.750,0.00,0.00,0.00,2,0.00,0.00,0.00,2,*08
$GPGGA,142814.000,4910.33018,N,12304.20689,W,1,15,0.7,023.79,M,-16.8,M,,*5E
$GPRMC,142814.000,A,4910.33018,N,12304.20689,W,0.0,0.0,161018,,,A*7D
$GNGSA,A,3,25,02,12,29,31,06,,,,,,,1.2,0.7,1.0*20
$GNGSA,A,3,85,75,76,69,84,86,74,68,70,,,,1.2,0.7,1.0*20
$PSIWMPVT,64.830,224911.999,3,49.1721697,-123.0701149,23.787,-0.016,-0.010,0.006,4.183,3.000,2.328,0.354,0.000,0.000,3.389,0.020,15,*3D
$PSIWMPOS,000105.750,4910.33018,N,12304.20689,W,7.10,23.79,M,5.02,0,8,0,2,0,*52
$PSIWMATT,000105.750,360.0,T,-0.7,-0.0,180.0,*7A
$PSIWMVEL,000105.750,360.0,T,0.0,K,-0.00,M,*73
$PSIWMVSD,000105.750,0.00,0.00,0.00,2,0.00,0.00,0.00,2,*09
$GPGGA,142815.000,4910.33022,N,12304.20664,W,1,15,0.7,024.06,M,-16.8,M,,*5A
$GPRMC,142815.000,A,4910.33022,N,12304.20664,W,0.0,0.0,161018,,,A*76
$GNGSA,A,3,25,02,12,29,31,06,,,,,,,1.2,0.7,1.0*20
$GNGSA,A,3,85,75,76,69,84,86,74,68,70,,,,1.2,0.7,1.0*20
$PSIWMPVT,65.830,224912.999,3,49.1721703,-123.0701106,24.062,-0.005,-0.015,0.003,4.123,2.915,2.383,0.354,0.000,0.000,3.469,0.016,15,*3A
$PSIWMPOS,000106.750,4910.33022,N,12304.20664,W,7.00,24.06,M,4.95,0,8,0,2,0,*5A
$PSIWMATT,000106.750,360.0,T,-0.7,-0.0,180.0,*79
$PSIWMVEL,000106.750,360.0,T,0.0,K,-0.00,M,*70
$PSIWMVSD,000106.750,0.00,0.00,0.00,2,0.00,0.00,0.00,2,*0A
$GPGGA,142816.000,4910.33021,N,12304.20677,W,1,15,0.7,024.44,M,-16.8,M,,*5E
$GPRMC,142816.000,A,4910.33021,N,12304.20677,W,0.0,0.0,161018,,,A*74
$GNGSA,A,3,25,02,12,29,31,06,,,,,,,1.2,0.7,1.0*20
$GNGSA,A,3,85,75,76,69,84,86,74,68,70,,,,1.2,0.7,1.0*20
$PSIWMPVT,66.830,224913.999,3,49.1721702,-123.0701128,24.440,-0.000,-0.016,-0.007,4.123,3.000,2.609,0.354,0.000,0.000,3.798,0.016,15,*18
$PSIWMPOS,000107.750,4910.33021,N,12304.20677,W,7.00,24.44,M,4.95,0,8,0,2,0,*5C
$PSIWMATT,000107.750,360.0,T,-0.7,-0.0,180.0,*78
$PSIWMVEL,000107.750,360.0,T,0.0,K,-0.00,M,*71
$PSIWMVSD,000107.750,0.00,0.00,0.00,2,0.00,0.00,0.00,2,*0B
$GPGGA,142817.000,4910.33037,N,12304.20689,W,1,15,0.7,024.73,M,-16.8,M,,*5D
$GPRMC,142817.000,A,4910.33037,N,12304.20689,W,0.0,0.0,161018,,,A*73
$GNGSA,A,3,25,02,12,29,31,06,,,,,,,1.2,0.7,1.0*20
$GNGSA,A,3,85,75,76,69,84,86,74,68,70,,,,1.2,0.7,1.0*20
$PSIWMPVT,67.820,224914.999,3,49.1721728,-123.0701148,24.728,-0.012,-0.010,-0.005,4.183,3.082,2.586,0.354,0.000,0.000,3.763,0.012,15,*1F
$PSIWMPOS,000108.750,4910.33037,N,12304.20689,W,7.10,24.73,M,5.02,0,8,0,2,0,*5F
$PSIWMATT,000108.750,360.0,T,-0.7,-0.0,180.0,*77
$PSIWMVEL,000108.750,360.0,T,0.0,K,-0.00,M,*7E
$PSIWMVSD,000108.750,0.00,0.00,0.00,2,0.00,0.00,0.00,2,*04
$GPGGA,142818.000,4910.33036,N,12304.20701,W,1,15,0.7,024.79,M,-16.8,M,,*58
$GPRMC,142818.000,A,4910.33036,N,12304.20701,W,0.1,0.0,161018,,,A*7D
$GNGSA,A,3,25,02,12,29,31,06,,,,,,,1.2,0.7,1.0*20
$GNGSA,A,3,85,75,76,69,84,86,74,68,70,,,,1.2,0.7,1.0*20
$PSIWMPVT,68.820,224915.999,3,49.1721726,-123.0701169,24.785,-0.026,-0.027,0.007,4.416,3.317,2.824,0.354,0.000,0.000,4.110,0.020,15,*30
$PSIWMPOS,000109.750,4910.33036,N,12304.20701,W,7.49,24.79,M,5.30,0,8,0,2,0,*59
$PSIWMATT,000109.750,360.0,T,-0.6,-0.1,180.0,*76
$PSIWMVEL,000109.750,360.0,T,0.0,K,-0.00,M,*7F
$PSIWMVSD,000109.750,0.00,0.00,0.00,2,0.00,0.00,0.00,2,*05
$GPGGA,142819.000,4910.33025,N,12304.20708,W,1,15,0.7,024.45,M,-16.8,M,,*5D
$GPRMC,142819.000,A,4910.33025,N,12304.20708,W,0.1,0.0,161018,,,A*77
$GNGSA,A,3,25,02,12,29,31,06,,,,,,,1.2,0.7,1.0*20
$GNGSA,A,3,85,75,76,69,84,86,74,68,70,,,,1.2,0.7,1.0*20
$PSIWMPVT,69.830,224917.000,3,49.1721709,-123.0701180,24.447,-0.004,-0.028,0.005,4.528,3.464,2.785,0.354,0.000,0.000,4.057,0.016,15,*3D
$PSIWMPOS,000110.750,4910.33025,N,12304.20708,W,7.68,24.45,M,5.43,0,8,0,2,0,*52
$PSIWMATT,000110.750,360.0,T,-0.6,-0.1,180.0,*7E
$PSIWMVEL,000110.750,360.0,T,0.0,K,-0.00,M,*77
$PSIWMVSD,000110.750,0.00,0.00,0.00,2,0.00,0.00,0.00,2,*0D
$GPGGA,142820.000,4910.33012,N,12304.20721,W,1,15,0.7,024.24,M,-16.8,M,,*5F
$GPRMC,142820.000,A,4910.33012,N,12304.20721,W,0.0,0.0,161018,,,A*73
$GNGSA,A,3,25,02,12,29,31,06,,,,,,,1.2,0.7,1.0*20
$GNGSA,A,3,85,75,76,69,84,86,74,68,70,,,,1.2,0.7,1.0*20
$PSIWMPVT,70.830,224917.999,3,49.1721686,-123.0701201,24.236,-0.011,-0.002,0.011,4.637,3.606,3.160,0.354,0.000,0.000,4.598,0.012,15,*3C
$PSIWMPOS,000111.750,4910.33012,N,12304.20721,W,7.87,24.24,M,5.56,0,8,0,2,0,*5E
$PSIWMATT,000111.750,360.0,T,-0.6,-0.1,180.0,*7F
$PSIWMVEL,000111.750,360.0,T,0.0,K,-0.00,M,*76
$PSIWMVSD,000111.750,0.00,0.00,0.00,2,0.00,0.00,0.00,2,*0C
$GPGGA,142821.000,4910.32995,N,12304.20722,W,1,15,0.7,024.12,M,-16.8,M,,*5F
$GPRMC,142821.000,A,4910.32995,N,12304.20722,W,0.1,0.0,161018,,,A*77
$GNGSA,A,3,25,02,12,29,31,06,,,,,,,1.2,0.7,1.0*20
$GNGSA,A,3,85,75,76,69,84,86,74,68,70,,,,1.2,0.7,1.0*20
$PSIWMPVT,71.830,224918.999,3,49.1721658,-123.0701203,24.119,-0.004,-0.027,0.007,4.690,3.674,3.297,0.354,0.000,0.000,4.801,0.012,15,*37
$PSIWMPOS,000112.750,4910.32995,N,12304.20722,W,7.96,24.12,M,5.63,0,8,0,2,0,*5A
$PSIWMATT,000112.750,360.0,T,-0.6,-0.1,180.0,*7C
$PSIWMVEL,000112.750,360.0,T,0.0,K,-0.00,M,*75
$PSIWMVSD,000112.750,0.00,0.00,0.00,2,0.00,0.00,0.00,2,*0F
$GPGGA,142822.000,4910.32995,N,12304.20737,W,1,15,0.7,023.90,M,-16.8,M,,*55
$GPRMC,142822.000,A,4910.32995,N,12304.20737,W,0.0,0.0,161018,,,A*71
$GNGSA,A,3,25,02,12,29,31,06,,,,,,,1.2,0.7,1.0*20
$GNGSA,A,3,85,75,76,69,84,86,74,68,70,,,,1.2,0.7,1.0*20
$PSIWMPVT,72.830,224920.000,3,49.1721658,-123.0701229,23.902,-0.001,-0.021,0.003,4.743,3.742,3.090,0.354,0.000,0.000,4.496,0.016,15,*34
$PSIWMPOS,000113.750,4910.32995,N,12304.20737,W,8.05,23.90,M,5.69,0,8,0,2,0,*5D
$PSIWMATT,000113.750,360.0,T,-0.6,-0.1,180.0,*7D
$PSIWMVEL,000113.750,360.0,T,0.0,K,-0.00,M,*74
$PSIWMVSD,000113.750,0.00,0.00,0.00,2,0.00,0.00,0.00,2,*0E
$GPGGA,142823.000,4910.32983,N,12304.20754,W,1,15,0.7,022.82,M,-16.8,M,,*54
$GPRMC,142823.000,A,4910.32983,N,12304.20754,W,0.0,0.0,161018,,,A*72
$GNGSA,A,3,25,02,12,29,31,06,,,,,,,1.2,0.7,1.0*20
$GNGSA,A,3,85,75,76,69,84,86,74,68,70,,,,1.2,0.7,1.0*20
$PSIWMPVT,73.820,224921.000,3,49.1721638,-123.0701256,22.820,-0.013,-0.018,0.009,4.796,3.742,2.984,0.354,0.000,0.000,4.345,0.012,15,*30
$PSIWMPOS,000114.750,4910.32983,N,12304.20754,W,8.14,22.82,M,5.75,0,8,0,2,0,*57
$PSIWMATT,000114.750,360.0,T,-0.6,-0.1,180.0,*7A
$PSIWMVEL,000114.750,360.0,T,0.0,K,-0.00,M,*73
$PSIWMVSD,000114.750,0.00,0.00,0.00,2,0.00,0.00,0.00,2,*09
$GPGGA,142824.000,4910.32968,N,12304.20740,W,1,15,0.7,022.20,M,-16.8,M,,*5B
$GPRMC,142824.000,A,4910.32968,N,12304.20740,W,0.1,0.0,161018,,,A*74
$GNGSA,A,3,25,02,12,29,31,06,,,,,,,1.2,0.7,1.0*20
$GNGSA,A,3,85,75,76,69,84,86,74,68,70,,,,1.2,0.7,1.0*20
$PSIWMPVT,74.830,224921.999,3,49.1721614,-123.0701234,22.200,0.004,-0.028,0.002,4.796,3.742,2.805,0.500,0.000,0.000,4.085,0.020,15,*1F
$PSIWMPOS,000115.750,4910.32968,N,12304.20740,W,8.14,22.20,M,5.75,0,8,0,2,0,*5E
$PSIWMATT,000115.750,360.0,T,-0.6,-0.1,180.0,*7B
$PSIWMVEL,000115.750,360.0,T,0.0,K,-0.00,M,*72
$PSIWMVSD,000115.750,0.00,0.00,0.00,2,0.00,0.00,0.00,2,*08
$GPGGA,142825.000,4910.32970,N,12304.20748,W,1,15,0.7,021.69,M,-16.8,M,,*55
$GPRMC,142825.000,A,4910.32970,N,12304.20748,W,0.0,0.0,161018,,,A*75
$GNGSA,A,3,25,02,12,29,31,06,,,,,,,1.2,0.7,1.0*20
$GNGSA,A,3,85,75,76,69,84,86,74,68,70,,,,1.2,0.7,1.0*20
$PSIWMPVT,75.820,224922.999,3,49.1721617,-123.0701246,21.687,0.005,-0.023,-0.000,4.472,3.240,2.230,0.500,0.000,0.000,3.250,0.016,15,*3D
$PSIWMPOS,000116.750,4910.32970,N,12304.20748,W,7.59,21.69,M,5.37,0,8,0,2,0,*52
$PSIWMATT,000116.750,360.0,T,-0.5,-0.1,180.0,*7B
$PSIWMVEL,000116.750,360.0,T,0.0,K,-0.00,M,*71
$PSIWMVSD,000116.750,0.00,0.00,0.00,2,0.00,0.00,0.00,2,*0B
$GPGGA,142826.000,4910.32951,N,12304.20752,W,1,15,0.7,021.53,M,-16.8,M,,*57
$GPRMC,142826.000,A,4910.32951,N,12304.20752,W,0.0,0.0,161018,,,A*7E
$GNGSA,A,3,25,02,12,29,31,06,,,,,,,1.2,0.7,1.0*20
$GNGSA,A,3,85,75,76,69,84,86,74,68,70,,,,1.2,0.7,1.0*20
$PSIWMPVT,76.830,224924.000,3,49.1721586,-123.0701254,21.534,0.007,-0.017,0.003,4.637,3.464,2.410,0.500,0.000,0.000,3.510,0.012,15,*18
$PSIWMPOS,000117.750,4910.32951,N,12304.20752,W,7.87,21.53,M,5.56,0,8,0,2,0,*56
$PSIWMATT,000117.750,360.0,T,-0.6,-0.1,180.0,*79
$PSIWMVEL,000117.750,360.0,T,0.0,K,-0.00,M,*70
$PSIWMVSD,000117.750,0.00,0.00,0.00,2,0.00,0.00,0.00,2,*0A
$GPGGA,142827.000,4910.32926,N,12304.20753,W,1,15,0.7,020.54,M,-16.8,M,,*51
$GPRMC,142827.000,A,4910.32926,N,12304.20753,W,0.1,0.0,161018,,,A*7F
$GNGSA,A,3,25,02,12,29,31,06,,,,,,,1.2,0.7,1.0*20
$GNGSA,A,3,85,75,76,69,84,86,74,68,70,,,,1.2,0.7,1.0*20
$PSIWMPVT,77.820,224925.000,3,49.1721543,-123.0701254,20.543,-0.022,-0.031,0.010,4.416,3.162,2.406,0.500,0.000,0.000,3.502,0.023,15,*39
$PSIWMPOS,000118.750,4910.32926,N,12304.20753,W,7.49,20.54,M,5.30,0,8,0,2,0,*5C
$PSIWMATT,000118.750,360.0,T,-0.6,-0.1,180.0,*76
$PSIWMVEL,000118.750,360.0,T,0.0,K,-0.00,M,*7F
$PSIWMVSD,000118.750,0.00,0.00,0.00,2,0.00,0.00,0.00,2,*05
$GPGGA,142828.000,4910.32927,N,12304.20749,W,1,15,0.7,020.13,M,-16.8,M,,*57
$GPRMC,142828.000,A,4910.32927,N,12304.20749,W,0.0,0.0,161018,,,A*7B
$GNGSA,A,3,25,02,12,29,31,06,,,,,,,1.2,0.7,1.0*20
$GNGSA,A,3,85,75,76,69,84,86,74,68,70,,,,1.2,0.7,1.0*20
$PSIWMPVT,78.830,224926.000,3,49.1721545,-123.0701249,20.128,0.003,-0.018,-0.000,4.472,3.240,2.422,0.500,0.000,0.000,3.523,0.012,15,*38
$PSIWMPOS,000119.750,4910.32927,N,12304.20749,W,7.59,20.13,M,5.37,0,8,0,2,0,*52
$PSIWMATT,000119.750,360.0,T,-0.6,-0.0,180.0,*76
$PSIWMVEL,000119.750,360.0,T,0.0,K,-0.00,M,*7E
$PSIWMVSD,000119.750,0.00,0.00,0.00,2,0.00,0.00,0.00,2,*04
$GPGGA,142829.000,4910.32924,N,12304.20752,W,1,15,0.7,019.85,M,-16.8,M,,*5A
$GPRMC,142829.000,A,4910.32924,N,12304.20752,W,0.1,0.0,161018,,,A*72
$GNGSA,A,3,25,02,12,29,31,06,,,,,,,1.2,0.7,1.0*20
$GNGSA,A,3,85,75,76,69,84,86,74,68,70,,,,1.2,0.7,1.0*20
$PSIWMPVT,79.820,224926.999,3,49.1721540,-123.0701254,19.852,0.002,-0.035,-0.018,4.472,3.240,2.824,0.500,0.000,0.000,4.111,0.016,15,*3D
$PSIWMPOS,000120.750,4910.32924,N,12304.20752,W,7.59,19.85,M,5.37,0,8,0,2,0,*54
$PSIWMATT,000120.750,360.0,T,-0.6,-0.0,180.0,*7C
$PSIWMVEL,000120.750,360.0,T,0.0,K,-0.00,M,*74
$PSIWMVSD,000120.750,0.00,0.00,0.00,2,0.00,0.00,0.00,2,*0E
$GPGGA,142830.000,4910.32929,N,12304.20757,W,1,15,0.7,019.70,M,-16.8,M,,*50
$GPRMC,142830.000,A,4910.32929,N,12304.20757,W,0.0,0.0,161018,,,A*73
$GNGSA,A,3,25,02,12,29,31,06,,,,,,,1.2,0.7,1.0*20
$GNGSA,A,3,85,75,76,69,84,86,74,68,70,,,,1.2,0.7,1.0*20
$PSIWMPVT,80.830,224928.000,3,49.1721548,-123.0701261,19.695,-0.009,-0.018,-0.011,4.416,3.162,2.918,0.500,0.000,0.000,4.247,0.012,15,*1D
$PSIWMPOS,000121.750,4910.32929,N,12304.20757,W,7.49,19.70,M,5.30,0,8,0,2,0,*51
$PSIWMATT,000121.750,360.0,T,-0.6,-0.0,180.0,*7D
$PSIWMVEL,000121.750,360.0,T,0.0,K,-0.00,M,*75
$PSIWMVSD,000121.750,0.00,0.00,0.00,2,0.00,0.00,0.00,2,*0F
$GPGGA,142831.000,4910.32946,N,12304.20753,W,1,15,0.7,019.57,M,-16.8,M,,*59
$GPRMC,142831.000,A,4910.32946,N,12304.20753,W,0.1,0.0,161018,,,A*7E
$GNGSA,A,3,25,02,12,29,31,06,,,,,,,1.2,0.7,1.0*20
$GNGSA,A,3,85,75,76,69,84,86,74,68,70,,,,1.2,0.7,1.0*20
$PSIWMPVT,81.830,224929.000,3,49.1721577,-123.0701255,19.570,0.003,-0.032,-0.011,4.301,3.082,2.379,0.500,0.000,0.000,3.464,0.016,15,*36
$PSIWMPOS,000122.750,4910.32946,N,12304.20753,W,7.30,19.57,M,5.16,0,8,0,2,0,*50
$PSIWMATT,000122.750,360.0,T,-0.6,-0.0,180.0,*7E
$PSIWMVEL,000122.750,360.0,T,0.0,K,-0.00,M,*76
$PSIWMVSD,000122.750,0.00,0.00,0.00,2,0.00,0.00,0.00,2,*0C
$GPGGA,142832.000,4910.32933,N,12304.20730,W,1,15,0.7,019.43,M,-16.8,M,,*58
$GPRMC,142832.000,A,4910.32933,N,12304.20730,W,0.1,0.0,161018,,,A*7A
$GNGSA,A,3,25,02,12,29,31,06,,,,,,,1.2,0.7,1.0*20
$GNGSA,A,3,85,75,76,69,84,86,74,68,70,,,,1.2,0.7,1.0*20
$PSIWMPVT,82.830,224930.000,3,49.1721555,-123.0701217,19.426,0.003,-0.034,-0.015,4.243,3.000,3.113,0.500,0.000,0.000,4.530,0.020,15,*3B
$PSIWMPOS,000123.750,4910.32933,N,12304.20730,W,7.20,19.43,M,5.09,0,8,0,2,0,*5C
$PSIWMATT,000123.750,360.0,T,-0.6,-0.0,180.0,*7F
$PSIWMVEL,000123.750,360.0,T,0.0,K,-0.00,M,*77
$PSIWMVSD,000123.750,0.00,0.00,0.00,2,0.00,0.00,0.00,2,*0D
$GPGGA,142833.000,4910.32929,N,12304.20757,W,1,15,0.7,019.26,M,-16.8,M,,*50
$GPRMC,142833.000,A,4910.32929,N,12304.20757,W,0.1,0.0,161018,,,A*71
$GNGSA,A,3,25,02,12,29,31,06,,,,,,,1.2,0.7,1.0*20
$GNGSA,A,3,85,75,76,69,84,86,74,68,70,,,,1.2,0.7,1.0*20
$PSIWMPVT,83.830,224930.999,3,49.1721548,-123.0701261,19.256,-0.007,-0.043,-0.021,4.243,3.000,2.539,0.500,0.000,0.000,3.698,0.020,15,*1A
$PSIWMPOS,000124.750,4910.32929,N,12304.20757,W,7.20,19.26,M,5.09,0,8,0,2,0,*52
$PSIWMATT,000124.750,360.0,T,-0.6,-0.0,180.0,*78
$PSIWMVEL,000124.750,360.0,T,0.0,K,-0.00,M,*70
$PSIWMVSD,000124.750,0.00,0.00,0.00,2,0.00,0.00,0.00,2,*0A
$GPGGA,142834.000,4910.32924,N,12304.20741,W,1,15,0.7,019.01,M,-16.8,M,,*58
$GPRMC,142834.000,A,4910.32924,N,12304.20741,W,0.0,0.0,161018,,,A*7D
$GNGSA,A,3,25,02,12,29,31,06,,,,,,,1.2,0.7,1.0*20
$GNGSA,A,3,85,75,76,69,84,86,74,68,70,,,,1.2,0.7,1.0*20
$PSIWMPVT,84.830,224932.000,3,49.1721539,-123.0701236,19.011,0.000,-0.020,-0.023,4.243,3.000,1.953,0.500,0.000,0.000,2.841,0.020,15,*36
$PSIWMPOS,000125.750,4910.32924,N,12304.20741,W,7.20,19.01,M,5.09,0,8,0,2,0,*5C
$PSIWMATT,000125.750,360.0,T,-0.6,-0.0,180.0,*79
$PSIWMVEL,000125.750,360.0,T,0.0,K,-0.00,M,*71
$PSIWMVSD,000125.750,0.00,0.00,0.00,2,0.00,0.00,0.00,2,*0B
$GPGGA,142835.000,4910.32916,N,12304.20740,W,1,15,0.7,018.90,M,-16.8,M,,*50
$GPRMC,142835.000,A,4910.32916,N,12304.20740,W,0.0,0.0,161018,,,A*7C
$GNGSA,A,3,25,02,12,29,31,06,,,,,,,1.2,0.7,1.0*20
$GNGSA,A,3,85,75,76,69,84,86,74,68,70,,,,1.2,0.7,1.0*20
$PSIWMPVT,85.830,224933.000,3,49.1721527,-123.0701233,18.903,-0.001,-0.025,-0.021,4.243,3.000,2.152,0.500,0.000,0.000,3.134,0.016,15,*19
$PSIWMPOS,000126.750,4910.32916,N,12304.20740,W,7.20,18.90,M,5.09,0,8,0,2,0,*56
$PSIWMATT,000126.750,360.0,T,-0.6,-0.1,180.0,*7B
$PSIWMVEL,000126.750,360.0,T,0.0,K,-0.00,M,*72
$PSIWMVSD,000126.750,0.00,0.00,0.00,2,0.00,0.00,0.00,2,*08
$GPGGA,142836.000,4910.32911,N,12304.20715,W,1,15,0.7,018.62,M,-16.8,M,,*59
$GPRMC,142836.000,A,4910.32911,N,12304.20715,W,0.1,0.0,161018,,,A*79
$GNGSA,A,3,25,02,12,29,31,06,,,,,,,1.2,0.7,1.0*20
$GNGSA,A,3,85,75,76,69,84,86,74,68,70,,,,1.2,0.7,1.0*20
$PSIWMPVT,86.830,224934.000,3,49.1721519,-123.0701191,18.618,0.000,-0.032,-0.021,4.243,3.000,2.297,0.500,0.000,0.000,3.345,0.020,15,*3F
$PSIWMPOS,000127.750,4910.32911,N,12304.20715,W,7.20,18.62,M,5.09,0,8,0,2,0,*5D
$PSIWMATT,000127.750,360.0,T,-0.6,-0.1,180.0,*7A
$PSIWMVEL,000127.750,360.0,T,0.0,K,-0.00,M,*73
$PSIWMVSD,000127.750,0.00,0.00,0.00,2,0.00,0.00,0.00,2,*09
$GPGGA,142837.000,4910.32914,N,12304.20666,W,1,15,0.7,018.00,M,-16.8,M,,*5C
$GPRMC,142837.000,A,4910.32914,N,12304.20666,W,0.1,0.0,161018,,,A*78
$GNGSA,A,3,25,02,12,29,31,06,,,,,,,1.2,0.7,1.0*20
$GNGSA,A,3,85,75,76,69,84,86,74,68,70,,,,1.2,0.7,1.0*20
$PSIWMPVT,87.830,224935.000,3,49.1721524,-123.0701110,18.003,-0.000,-0.027,-0.025,4.243,3.082,2.742,0.500,0.000,0.000,3.994,0.020,15,*18
$PSIWMPOS,000128.750,4910.32914,N,12304.20666,W,7.20,18.00,M,5.09,0,8,0,2,0,*56
$PSIWMATT,000128.750,360.0,T,-0.6,-0.1,180.0,*75
$PSIWMVEL,000128.750,360.0,T,0.0,K,-0.00,M,*7C
$PSIWMVSD,000128.750,0.00,0.00,0.00,2,0.00,0.00,0.00,2,*06
$GPGGA,142838.000,4910.32910,N,12304.20665,W,1,15,0.7,017.93,M,-16.8,M,,*51
$GPRMC,142838.000,A,4910.32910,N,12304.20665,W,0.1,0.0,161018,,,A*70
$GNGSA,A,3,25,02,12,29,31,06,,,,,,,1.2,0.7,1.0*20
$GNGSA,A,3,85,75,76,69,84,86,74,68,70,,,,1.2,0.7,1.0*20
$PSIWMPVT,88.830,224936.000,3,49.1721517,-123.0701109,17.934,-0.009,-0.025,-0.018,4.243,3.000,1.965,0.500,0.000,0.000,2.863,0.020,15,*11
$PSIWMPOS,000129.750,4910.32910,N,12304.20665,W,7.20,17.93,M,5.09,0,8,0,2,0,*55
$PSIWMATT,000129.750,360.0,T,-0.6,-0.1,180.0,*74
$PSIWMVEL,000129.750,360.0,T,0.0,K,-0.00,M,*7D
$PSIWMVSD,000129.750,0.00,0.00,0.00,2,0.00,0.00,0.00,2,*07
$GPGGA,142839.000,4910.32901,N,12304.20657,W,1,15,0.7,017.42,M,-16.8,M,,*5D
$GPRMC,142839.000,A,4910.32901,N,12304.20657,W,0.0,0.0,161018,,,A*71
$GNGSA,A,3,25,02,12,29,31,06,,,,,,,1.2,0.7,1.0*20
$GNGSA,A,3,85,75,76,69,84,86,74,68,70,,,,1.2,0.7,1.0*20
$PSIWMPVT,89.830,224937.000,3,49.1721501,-123.0701095,17.419,-0.000,-0.019,-0.017,4.243,3.000,1.762,0.500,0.000,0.000,2.566,0.008,15,*12
$PSIWMPOS,000130.750,4910.32901,N,12304.20657,W,7.20,17.42,M,5.09,0,8,0,2,0,*50
$PSIWMATT,000130.750,360.0,T,-0.6,-0.0,180.0,*7D
$PSIWMVEL,000130.750,360.0,T,0.0,K,-0.00,M,*75
$PSIWMVSD,000130.750,0.00,0.00,0.00,2,0.00,0.00,0.00,2,*0F
$GPGGA,142840.000,4910.32889,N,12304.20633,W,1,15,0.7,016.96,M,-16.8,M,,*58
$GPRMC,142840.000,A,4910.32889,N,12304.20633,W,0.1,0.0,161018,,,A*7D
$GNGSA,A,3,25,02,12,29,31,06,,,,,,,1.2,0.7,1.0*20
$GNGSA,A,3,85,75,76,69,84,86,74,68,70,,,,1.2,0.7,1.0*20
$PSIWMPVT,90.830,224938.000,3,49.1721482,-123.0701055,16.957,-0.021,-0.020,-0.001,4.183,3.000,1.652,0.500,0.000,0.000,2.408,0.020,15,*15
$PSIWMPOS,000131.750,4910.32889,N,12304.20633,W,7.10,16.96,M,5.02,0,8,0,2,0,*52
$PSIWMATT,000131.750,360.0,T,-0.6,-0.1,180.0,*7D
$PSIWMVEL,000131.750,360.0,T,0.0,K,-0.00,M,*74
$PSIWMVSD,000131.750,0.00,0.00,0.00,2,0.00,0.00,0.00,2,*0E
$GPGGA,142841.000,4910.32879,N,12304.20618,W,1,15,0.7,016.85,M,-16.8,M,,*5D
$GPRMC,142841.000,A,4910.32879,N,12304.20618,W,0.0,0.0,161018,,,A*7B
$GNGSA,A,3,25,02,12,29,31,06,,,,,,,1.2,0.7,1.0*20
$GNGSA,A,3,85,75,76,69,84,86,74,68,70,,,,1.2,0.7,1.0*20
$PSIWMPVT,91.820,224939.000,3,49.1721465,-123.0701030,16.853,-0.010,-0.018,0.009,4.243,3.000,2.285,0.500,0.000,0.000,3.325,0.008,15,*36
$PSIWMPOS,000132.750,4910.32879,N,12304.20618,W,7.20,16.85,M,5.09,0,8,0,2,0,*5D
$PSIWMATT,000132.750,360.0,T,-0.6,-0.1,180.0,*7E
$PSIWMVEL,000132.750,360.0,T,0.0,K,-0.00,M,*77
$PSIWMVSD,000132.750,0.00,0.00,0.00,2,0.00,0.00,0.00,2,*0D
$GPGGA,142842.000,4910.32875,N,12304.20620,W,1,15,0.7,016.72,M,-16.8,M,,*51
$GPRMC,142842.000,A,4910.32875,N,12304.20620,W,0.0,0.0,161018,,,A*7F
$GNGSA,A,3,25,02,12,29,31,06,,,,,,,1.2,0.7,1.0*20
$GNGSA,A,3,85,75,76,69,84,86,74,68,70,,,,1.2,0.7,1.0*20
$PSIWMPVT,92.820,224940.000,3,49.1721458,-123.0701033,16.719,-0.001,-0.025,-0.003,4.183,3.000,2.438,0.500,0.000,0.000,3.548,0.016,15,*13
$PSIWMPOS,000133.750,4910.32875,N,12304.20620,W,7.10,16.72,M,5.02,0,8,0,2,0,*5B
$PSIWMATT,000133.750,360.0,T,-0.6,-0.1,180.0,*7F
$PSIWMVEL,000133.750,360.0,T,0.0,K,-0.00,M,*76
$PSIWMVSD,000133.750,0.00,0.00,0.00,2,0.00,0.00,0.00,2,*0C
$GPGGA,142843.000,4910.32866,N,12304.20624,W,1,15,0.7,016.96,M,-16.8,M,,*5C
$GPRMC,142843.000,A,4910.32866,N,12304.20624,W,0.0,0.0,161018,,,A*78
$GNGSA,A,3,25,02,12,29,31,06,,,,,,,1.2,0.7,1.0*20
$GNGSA,A,3,85,75,76,69,84,86,74,68,70,,,,1.2,0.7,1.0*20
$PSIWMPVT,93.830,224940.999,3,49.1721444,-123.0701040,16.959,-0.001,-0.012,-0.006,4.183,2.915,2.098,0.500,0.000,0.000,3.052,0.012,15,*10
$PSIWMPOS,000134.750,4910.32866,N,12304.20624,W,7.10,16.96,M,5.02,0,8,0,2,0,*50
$PSIWMATT,000134.750,360.0,T,-0.6,-0.1,180.0,*78
$PSIWMVEL,000134.750,360.0,T,0.0,K,-0.00,M,*71
$PSIWMVSD,000134.750,0.00,0.00,0.00,2,0.00,0.00,0.00,2,*0B
$GPGGA,142844.000,4910.32866,N,12304.20604,W,1,15,0.7,017.09,M,-16.8,M,,*5E
$GPRMC,142844.000,A,4910.32866,N,12304.20604,W,0.0,0.0,161018,,,A*7D
$GNGSA,A,3,25,02,12,29,31,06,,,,,,,1.2,0.7,1.0*20
$GNGSA,A,3,85,75,76,69,84,86,74,68,70,,,,1.2,0.7,1.0*20
$PSIWMPVT,94.820,224941.999,3,49.1721444,-123.0701006,17.091,-0.005,-0.011,-0.006,4.183,2.915,2.379,0.500,0.000,0.000,3.464,0.012,15,*13
$PSIWMPOS,000135.750,4910.32866,N,12304.20604,W,7.10,17.09,M,5.02,0,8,0,2,0,*54
$PSIWMATT,000135.750,360.0,T,-0.6,-0.0,180.0,*78
$PSIWMVEL,000135.750,360.0,T,0.0,K,-0.00,M,*70
$PSIWMVSD,000135.750,0.00,0.00,0.00,2,0.00,0.00,0.00,2,*0A
$GPGGA,142845.000,4910.32872,N,12304.20567,W,1,15,0.7,017.03,M,-16.8,M,,*56
$GPRMC,142845.000,A,4910.32872,N,12304.20567,W,0.1,0.0,161018,,,A*7E
$GNGSA,A,3,25,02,12,29,31,06,,,,,,,1.2,0.7,1.0*20
$GNGSA,A,3,85,75,76,69,84,86,74,68,70,,,,1.2,0.7,1.0*20
$PSIWMPVT,95.820,224942.999,3,49.1721453,-123.0700946,17.028,-0.009,-0.026,-0.004,4.123,2.915,2.250,0.500,0.000,0.000,3.277,0.012,15,*17
$PSIWMPOS,000136.750,4910.32872,N,12304.20567,W,7.00,17.03,M,4.95,0,8,0,2,0,*50
$PSIWMATT,000136.750,360.0,T,-0.6,-0.0,180.0,*7B
$PSIWMVEL,000136.750,360.0,T,0.0,K,-0.00,M,*73
$PSIWMVSD,000136.750,0.00,0.00,0.00,2,0.00,0.00,0.00,2,*09
$GPGGA,142846.000,4910.32881,N,12304.20580,W,1,15,0.7,017.04,M,-16.8,M,,*57
$GPRMC,142846.000,A,4910.32881,N,12304.20580,W,0.0,0.0,161018,,,A*79
$GNGSA,A,3,25,02,12,29,31,06,,,,,,,1.2,0.7,1.0*20
$GNGSA,A,3,85,75,76,69,84,86,74,68,70,,,,1.2,0.7,1.0*20
$PSIWMPVT,96.820,224943.999,3,49.1721468,-123.0700967,17.043,-0.004,-0.011,0.003,4.123,2.915,2.211,0.500,0.000,0.000,3.221,0.012,15,*36
$PSIWMPOS,000137.750,4910.32881,N,12304.20580,W,7.00,17.04,M,4.95,0,8,0,2,0,*53
$PSIWMATT,000137.750,360.0,T,-0.6,-0.0,180.0,*7A
$PSIWMVEL,000137.750,360.0,T,0.0,K,-0.00,M,*72
$PSIWMVSD,000137.750,0.00,0.00,0.00,2,0.00,0.00,0.00,2,*08
$GPGGA,142847.000,4910.32875,N,12304.20579,W,1,15,0.7,017.32,M,-16.8,M,,*5E
$GPRMC,142847.000,A,4910.32875,N,12304.20579,W,0.1,0.0,161018,,,A*74
$GNGSA,A,3,25,02,12,29,31,06,,,,,,,1.2,0.7,1.0*20
$GNGSA,A,3,85,75,76,69,84,86,74,68,70,,,,1.2,0.7,1.0*20
$PSIWMPVT,97.820,224944.999,3,49.1721459,-123.0700964,17.320,-0.022,-0.021,0.002,4.123,2.915,2.031,0.500,0.000,0.000,2.958,0.023,15,*37
$PSIWMPOS,000138.750,4910.32875,N,12304.20579,W,7.00,17.32,M,4.95,0,8,0,2,0,*54
$PSIWMATT,000138.750,360.0,T,-0.6,-0.1,180.0,*74
$PSIWMVEL,000138.750,360.0,T,0.0,K,-0.00,M,*7D
$PSIWMVSD,000138.750,0.00,0.00,0.00,2,0.00,0.00,0.00,2,*07
$GPGGA,142848.000,4910.32874,N,12304.20571,W,1,15,0.7,017.59,M,-16.8,M,,*55
$GPRMC,142848.000,A,4910.32874,N,12304.20571,W,0.0,0.0,161018,,,A*73
$GNGSA,A,3,25,02,12,29,31,06,,,,,,,1.2,0.7,1.0*20
$GNGSA,A,3,85,75,76,69,84,86,74,68,70,,,,1.2,0.7,1.0*20
$PSIWMPVT,98.820,224945.999,3,49.1721456,-123.0700952,17.593,-0.001,-0.019,-0.005,4.183,3.000,2.336,0.500,0.000,0.000,3.401,0.012,15,*1D
$PSIWMPOS,000139.750,4910.32874,N,12304.20571,W,7.10,17.59,M,5.02,0,8,0,2,0,*5F
$PSIWMATT,000139.750,360.0,T,-0.6,-0.0,180.0,*74
$PSIWMVEL,000139.750,360.0,T,0.0,K,-0.00,M,*7C
$PSIWMVSD,000139.750,0.00,0.00,0.00,2,0.00,0.00,0.00,2,*06
$GPGGA,142849.000,4910.32891,N,12304.20558,W,1,15,0.7,017.70,M,-16.8,M,,*5F
$GPRMC,142849.000,A,4910.32891,N,12304.20558,W,0.0,0.0,161018,,,A*72
$GNGSA,A,3,25,02,12,29,31,06,,,,,,,1.2,0.7,1.0*20
$GNGSA,A,3,85,75,76,69,84,86,74,68,70,,,,1.2,0.7,1.0*20
$PSIWMPVT,99.830,224947.000,3,49.1721485,-123.0700930,17.700,-0.002,-0.022,-0.009,4.301,3.082,3.242,0.500,0.000,0.000,4.717,0.012,15,*11
$PSIWMPOS,000140.750,4910.32891,N,12304.20558,W,7.30,17.70,M,5.16,0,8,0,2,0,*5D
$PSIWMATT,000140.750,360.0,T,-0.6,-0.0,180.0,*7A
$PSIWMVEL,000140.750,360.0,T,0.0,K,-0.00,M,*72
$PSIWMVSD,000140.750,0.00,0.00,0.00,2,0.00,0.00,0.00,2,*08
$GPGGA,142850.000,4910.32891,N,12304.20558,W,1,15,0.7,017.70,M,-16.8,M,,*57
$GPRMC,142850.000,A,4910.32891,N,12304.20558,W,0.0,0.0,161018,,,A*7A
$GNGSA,A,3,25,02,12,29,31,06,,,,,,,1.2,0.7,1.0*20
$GNGSA,A,3,85,75,76,69,84,86,74,68,70,,,,1.2,0.7,1.0*20
$PSIWMPVT,100.820,224947.999,3,49.1721485,-123.0700930,17.700,-0.021,-0.015,0.004,4.301,3.082,3.184,0.500,0.000,0.000,4.635,0.012,15,*05
$PSIWMPOS,000141.750,4910.32891,N,12304.20558,W,7.30,17.70,M,5.16,0,8,0,2,0,*5C
$PSIWMATT,000141.750,360.0,T,-0.6,-0.0,180.0,*7B
$PSIWMVEL,000141.750,360.0,T,0.0,K,-0.00,M,*73
$PSIWMVSD,000141.750,0.00,0.00,0.00,2,0.00,0.00,0.00,2,*09
$GPGGA,142851.000,4910.32891,N,12304.20558,W,1,15,0.7,017.70,M,-16.8,M,,*56
$GPRMC,142851.000,A,4910.32891,N,12304.20558,W,0.0,0.0,161018,,,A*7B
$GNGSA,A,3,25,02,12,29,31,06,,,,,,,1.2,0.7,1.0*20
$GNGSA,A,3,85,75,76,69,84,86,74,68,70,,,,1.2,0.7,1.0*20
$PSIWMPVT,101.820,224948.999,3,49.1721485,-123.0700930,17.700,0.004,-0.014,-0.007,4.301,3.162,3.301,0.500,0.000,0.000,4.803,0.008,15,*0E
$PSIWMPOS,000142.750,4910.32891,N,12304.20558,W,7.30,17.70,M,5.16,0,8,0,2,0,*5F
$PSIWMATT,000142.750,360.0,T,-0.6,0.0,180.0,*55
$PSIWMVEL,000142.750,360.0,T,0.0,K,-0.00,M,*70
$PSIWMVSD,000142.750,0.00,0.00,0.00,2,0.00,0.00,0.00,2,*0A
$GPGGA,142852.000,4910.32891,N,12304.20558,W,1,15,0.7,017.70,M,-16.8,M,,*55
$GPRMC,142852.000,A,4910.32891,N,12304.20558,W,0.0,0.0,161018,,,A*78
$GNGSA,A,3,25,02,12,29,31,06,,,,,,,1.2,0.7,1.0*20
$GNGSA,A,3,85,75,76,69,84,86,74,68,70,,,,1.2,0.7,1.0*20
$PSIWMPVT,102.820,224949.999,3,49.1721485,-123.0700930,17.700,-0.011,-0.020,-0.001,4.301,3.162,3.070,0.500,0.000,0.000,4.466,0.020,15,*24
$PSIWMPOS,000143.750,4910.32891,N,12304.20558,W,7.30,17.70,M,5.16,0,8,0,2,0,*5E
$PSIWMATT,000143.750,360.0,T,-0.6,0.0,180.0,*54
$PSIWMVEL,000143.750,360.0,T,0.0,K,-0.00,M,*71
$PSIWMVSD,000143.750,0.00,0.00,0.00,2,0.00,0.00,0.00,2,*0B
$GPGGA,142853.000,4910.32891,N,12304.20558,W,1,15,0.7,017.70,M,-16.8,M,,*54
$GPRMC,142853.000,A,4910.32891,N,12304.20558,W,0.0,0.0,161018,,,A*79
$GNGSA,A,3,25,02,12,29,31,06,,,,,,,1.2,0.7,1.0*20
$GNGSA,A,3,85,75,76,69,84,86,74,68,70,,,,1.2,0.7,1.0*20
$PSIWMPVT,103.820,224951.000,3,49.1721485,-123.0700930,17.700,-0.013,-0.019,0.019,4.301,3.162,2.457,0.500,0.000,0.000,3.577,0.016,15,*0A
$PSIWMPOS,000144.750,4910.32891,N,12304.20558,W,7.30,17.70,M,5.16,0,8,0,2,0,*59
$PSIWMATT,000144.750,360.0,T,-0.6,-0.0,180.0,*7E
$PSIWMVEL,000144.750,360.0,T,0.0,K,-0.00,M,*76
$PSIWMVSD,000144.750,0.00,0.00,0.00,2,0.00,0.00,0.00,2,*0C
$GPGGA,142854.000,4910.32891,N,12304.20558,W,1,15,0.7,017.70,M,-16.8,M,,*53
$GPRMC,142854.000,A,4910.32891,N,12304.20558,W,0.0,0.0,161018,,,A*7E
$GNGSA,A,3,25,02,12,29,31,06,,,,,,,1.2,0.7,1.0*20
$GNGSA,A,3,85,75,76,69,84,86,74,68,70,,,,1.2,0.7,1.0*20
$PSIWMPVT,104.820,224952.000,3,49.1721485,-123.0700930,17.700,-0.004,-0.015,0.022,4.359,3.162,3.504,0.500,0.000,0.000,5.098,0.016,15,*05
$PSIWMPOS,000145.750,4910.32891,N,12304.20558,W,7.40,17.70,M,5.23,0,8,0,2,0,*59
$PSIWMATT,000145.750,360.0,T,-0.6,-0.0,180.0,*7F
$PSIWMVEL,000145.750,360.0,T,0.0,K,-0.00,M,*77
$PSIWMVSD,000145.750,0.00,0.00,0.00,2,0.00,0.00,0.00,2,*0D
$GPGGA,142855.000,4910.32891,N,12304.20558,W,1,15,0.7,017.70,M,-16.8,M,,*52
$GPRMC,142855.000,A,4910.32891,N,12304.20558,W,0.0,0.0,161018,,,A*7F
$GNGSA,A,3,25,02,12,29,31,06,,,,,,,1.2,0.7,1.0*20
$GNGSA,A,3,85,75,76,69,84,86,74,68,70,,,,1.2,0.7,1.0*20
$PSIWMPVT,105.820,224952.999,3,49.1721485,-123.0700930,17.700,-0.000,-0.018,0.017,4.359,3.162,3.523,0.500,0.000,0.000,5.126,0.016,15,*03
$PSIWMPOS,000146.750,4910.32891,N,12304.20558,W,7.40,17.70,M,5.23,0,8,0,2,0,*5A
$PSIWMATT,000146.750,360.0,T,-0.6,-0.0,180.0,*7C
$PSIWMVEL,000146.750,360.0,T,0.0,K,-0.00,M,*74
$PSIWMVSD,000146.750,0.00,0.00,0.00,2,0.00,0.00,0.00,2,*0E
$GPGGA,142856.000,4910.32891,N,12304.20558,W,1,15,0.7,017.70,M,-16.8,M,,*51
$GPRMC,142856.000,A,4910.32891,N,12304.20558,W,0.1,0.0,161018,,,A*7D
$GNGSA,A,3,25,02,12,29,31,06,,,,,,,1.2,0.7,1.0*20
$GNGSA,A,3,85,75,76,69,84,86,74,68,70,,,,1.2,0.7,1.0*20
$PSIWMPVT,106.820,224953.999,3,49.1721485,-123.0700930,17.700,-0.031,-0.015,0.044,4.359,3.240,3.559,0.500,0.000,0.000,5.178,0.023,15,*0B
$PSIWMPOS,000147.750,4910.32891,N,12304.20558,W,7.40,17.70,M,5.23,0,8,0,2,0,*5B
$PSIWMATT,000147.750,360.0,T,-0.6,-0.0,180.0,*7D
$PSIWMVEL,000147.750,360.0,T,0.0,K,-0.00,M,*75
$PSIWMVSD,000147.750,0.00,0.00,0.00,2,0.00,0.00,0.00,2,*0F
$GPGGA,142857.000,4910.32891,N,12304.20558,W,1,15,0.7,017.70,M,-16.8,M,,*50
$GPRMC,142857.000,A,4910.32891,N,12304.20558,W,0.1,0.0,161018,,,A*7C
$GNGSA,A,3,25,02,12,29,31,06,,,,,,,1.2,0.7,1.0*20
$GNGSA,A,3,85,75,76,69,84,86,74,68,70,,,,1.2,0.7,1.0*20
$PSIWMPVT,107.820,224955.000,3,49.1721485,-123.0700930,17.700,-0.021,-0.023,0.043,4.359,3.240,3.141,0.500,0.000,0.000,4.569,0.023,15,*0E
$PSIWMPOS,000148.750,4910.32891,N,12304.20558,W,7.40,17.70,M,5.23,0,8,0,2,0,*54
$PSIWMATT,000148.750,360.0,T,-0.6,-0.0,180.0,*72
$PSIWMVEL,000148.750,360.0,T,0.0,K,-0.00,M,*7A
$PSIWMVSD,000148.750,0.00,0.00,0.00,2,0.00,0.00,0.00,2,*00
$GPGGA,142858.000,4910.32891,N,12304.20558,W,1,15,0.7,017.70,M,-16.8,M,,*5F
$GPRMC,142858.000,A,4910.32891,N,12304.20558,W,0.1,0.0,161018,,,A*73
$GNGSA,A,3,25,02,12,29,31,06,,,,,,,1.2,0.7,1.0*20
$GNGSA,A,3,85,75,76,69,84,86,74,68,70,,,,1.2,0.7,1.0*20
$PSIWMPVT,108.820,224956.000,3,49.1721485,-123.0700930,17.700,-0.022,-0.023,0.056,4.359,3.240,3.559,0.500,0.000,0.000,5.180,0.031,15,*09
$PSIWMPOS,000149.750,4910.32891,N,12304.20558,W,7.40,17.70,M,5.23,0,8,0,2,0,*55
$PSIWMATT,000149.750,360.0,T,-0.6,-0.1,180.0,*72
$PSIWMVEL,000149.750,360.0,T,0.0,K,-0.00,M,*7B
$PSIWMVSD,000149.750,0.00,0.00,0.00,2,0.00,0.00,0.00,2,*01
$GPGGA,142859.000,4910.32891,N,12304.20558,W,1,15,0.7,017.70,M,-16.8,M,,*5E
$GPRMC,142859.000,A,4910.32891,N,12304.20558,W,0.1,0.0,161018,,,A*72
$GNGSA,A,3,25,02,12,29,31,06,,,,,,,1.2,0.7,1.0*20
$GNGSA,A,3,85,75,76,69,84,86,74,68,70,,,,1.2,0.7,1.0*20
$PSIWMPVT,109.820,224956.999,3,49.1721485,-123.0700930,17.700,-0.016,-0.029,0.053,4.416,3.240,3.777,0.500,0.000,0.000,5.497,0.031,15,*08
$PSIWMPOS,000150.750,4910.32891,N,12304.20558,W,7.49,17.70,M,5.30,0,8,0,2,0,*56
$PSIWMATT,000150.750,360.0,T,-0.6,-0.0,180.0,*7B
$PSIWMVEL,000150.750,360.0,T,0.0,K,-0.00,M,*73
$PSIWMVSD,000150.750,0.00,0.00,0.00,2,0.00,0.00,0.00,2,*09
$GPGGA,142900.000,4910.32891,N,12304.20558,W,1,15,0.7,017.70,M,-16.8,M,,*53
$GPRMC,142900.000,A,4910.32891,N,12304.20558,W,0.0,0.0,161018,,,A*7E
$GNGSA,A,3,25,02,12,29,31,06,,,,,,,1.2,0.7,1.0*20
$GNGSA,A,3,85,75,76,69,84,86,74,68,70,,,,1.2,0.7,1.0*20
$PSIWMPVT,110.820,224957.999,3,49.1721485,-123.0700930,17.700,-0.016,-0.019,0.050,4.416,3.240,4.109,0.500,0.000,0.000,5.979,0.027,15,*03
$PSIWMPOS,000151.750,4910.32891,N,12304.20558,W,7.49,17.70,M,5.30,0,8,0,2,0,*57
$PSIWMATT,000151.750,360.0,T,-0.6,-0.0,180.0,*7A
$PSIWMVEL,000151.750,360.0,T,0.0,K,-0.00,M,*72
$PSIWMVSD,000151.750,0.00,0.00,0.00,2,0.00,0.00,0.00,2,*08
$GPGGA,142901.000,4910.32891,N,12304.20558,W,1,15,0.7,017.70,M,-16.8,M,,*52
$GPRMC,142901.000,A,4910.32891,N,12304.20558,W,0.0,0.0,161018,,,A*7F
$GNGSA,A,3,25,02,12,29,31,06,,,,,,,1.2,0.7,1.0*20
$GNGSA,A,3,85,75,76,69,84,86,74,68,70,,,,1.2,0.7,1.0*20
$PSIWMPVT,111.820,224959.000,3,49.1721485,-123.0700930,17.700,-0.007,-0.024,0.045,4.416,3.317,3.801,0.500,0.000,0.000,5.529,0.020,15,*04
$PSIWMPOS,000152.750,4910.32891,N,12304.20558,W,7.49,17.70,M,5.30,0,8,0,2,0,*54
$PSIWMATT,000152.750,360.0,T,-0.6,-0.0,180.0,*79
$PSIWMVEL,000152.750,360.0,T,0.0,K,-0.00,M,*71
$PSIWMVSD,000152.750,0.00,0.00,0.00,2,0.00,0.00,0.00,2,*0B
$GPGGA,142902.000,4910.32891,N,12304.20558,W,1,15,0.7,017.70,M,-16.8,M,,*51
$GPRMC,142902.000,A,4910.32891,N,12304.20558,W,0.0,0.0,161018,,,A*7C
$GNGSA,A,3,25,02,12,29,31,06,,,,,,,1.2,0.7,1.0*20
$GNGSA,A,3,85,75,76,69,84,86,74,68,70,,,,1.2,0.7,1.0*20
$PSIWMPVT,112.820,224960.000,3,49.1721485,-123.0700930,17.700,-0.014,-0.002,0.057,4.416,3.317,3.184,0.500,0.000,0.000,4.635,0.023,15,*00
$PSIWMPOS,000153.750,4910.32891,N,12304.20558,W,7.49,17.70,M,5.30,0,8,0,2,0,*55
$PSIWMATT,000153.750,360.0,T,-0.7,-0.0,180.0,*79
$PSIWMVEL,000153.750,360.0,T,0.0,K,-0.00,M,*70
$PSIWMVSD,000153.750,0.00,0.00,0.00,2,0.00,0.00,0.00,2,*0A
$GPGGA,142903.000,4910.32891,N,12304.20558,W,1,15,0.7,017.70,M,-16.8,M,,*50
$GPRMC,142903.000,A,4910.32891,N,12304.20558,W,0.0,0.0,161018,,,A*7D
$GNGSA,A,3,25,02,12,29,31,06,,,,,,,1.2,0.7,1.0*20
$GNGSA,A,3,85,75,76,69,84,86,74,68,70,,,,1.2,0.7,1.0*20
$PSIWMPVT,113.820,224961.000,3,49.1721485,-123.0700930,17.700,-0.011,-0.013,0.053,4.416,3.317,3.492,0.500,0.000,0.000,5.083,0.027,15,*0D
$PSIWMPOS,000154.750,4910.32891,N,12304.20558,W,7.49,17.70,M,5.30,0,8,0,2,0,*52
$PSIWMATT,000154.750,360.0,T,-0.6,-0.1,180.0,*7E
$PSIWMVEL,000154.750,360.0,T,0.0,K,-0.00,M,*77
$PSIWMVSD,000154.750,0.00,0.00,0.00,2,0.00,0.00,0.00,2,*0D
$GPGGA,142904.000,4910.32891,N,12304.20558,W,1,15,0.7,017.70,M,-16.8,M,,*57
$GPRMC,142904.000,A,4910.32891,N,12304.20558,W,0.0,0.0,161018,,,A*7A
$GNGSA,A,3,25,02,12,29,31,06,,,,,,,1.2,0.7,1.0*20
$GNGSA,A,3,85,75,76,69,84,86,74,68,70,,,,1.2,0.7,1.0*20
$PSIWMPVT,114.820,224961.999,3,49.1721485,-123.0700930,17.700,-0.007,-0.011,0.053,4.472,3.317,3.902,0.500,0.000,0.000,5.680,0.023,15,*01
$PSIWMPOS,000155.750,4910.32891,N,12304.20558,W,7.59,17.70,M,5.37,0,8,0,2,0,*55
$PSIWMATT,000155.750,360.0,T,-0.7,-0.1,180.0,*7E
$PSIWMVEL,000155.750,360.0,T,0.0,K,-0.00,M,*76
$PSIWMVSD,000155.750,0.00,0.00,0.00,2,0.00,0.00,0.00,2,*0C
$GPGGA,142905.000,4910.32891,N,12304.20558,W,1,15,0.7,017.70,M,-16.8,M,,*56
$GPRMC,142905.000,A,4910.32891,N,12304.20558,W,0.0,0.0,161018,,,A*7B
$GNGSA,A,3,25,02,12,29,31,06,,,,,,,1.2,0.7,1.0*20
$GNGSA,A,3,85,75,76,69,84,86,74,68,70,,,,1.2,0.7,1.0*20
$PSIWMPVT,115.820,224963.000,3,49.1721485,-123.0700930,17.700,-0.009,-0.015,0.058,4.472,3.317,3.145,0.500,0.000,0.000,4.574,0.023,15,*08
$PSIWMPOS,000156.750,4910.32891,N,12304.20558,W,7.59,17.70,M,5.37,0,8,0,2,0,*56
$PSIWMATT,000156.750,360.0,T,-0.7,-0.1,180.0,*7D
$PSIWMVEL,000156.750,360.0,T,0.0,K,-0.00,M,*75
$PSIWMVSD,000156.750,0.00,0.00,0.00,2,0.00,0.00,0.00,2,*0F
$GPGGA,142906.000,4910.32891,N,12304.20558,W,1,15,0.7,017.70,M,-16.8,M,,*55
$GPRMC,142906.000,A,4910.32891,N,12304.20558,W,0.0,0.0,161018,,,A*78
$GNGSA,A,3,25,02,12,29,31,06,,,,,,,1.2,0.7,1.0*20
$GNGSA,A,3,85,75,76,69,84,86,74,68,70,,,,1.2,0.7,1.0*20
$PSIWMPVT,116.820,224964.000,3,49.1721485,-123.0700930,17.700,-0.008,-0.024,0.051,4.472,3.391,2.953,0.500,0.000,0.000,4.296,0.023,15,*0D
$PSIWMPOS,000157.750,4910.32891,N,12304.20558,W,7.59,17.70,M,5.37,0,8,0,2,0,*57
$PSIWMATT,000157.750,360.0,T,-0.7,-0.1,180.0,*7C
$PSIWMVEL,000157.750,360.0,T,0.0,K,-0.00,M,*74
$PSIWMVSD,000157.750,0.00,0.00,0.00,2,0.00,0.00,0.00,2,*0E
$GPGGA,142907.000,4910.32891,N,12304.20558,W,1,15,0.7,017.70,M,-16.8,M,,*54
$GPRMC,142907.000,A,4910.32891,N,12304.20558,W,0.0,0.0,161018,,,A*79
$GNGSA,A,3,25,02,12,29,31,06,,,,,,,1.2,0.7,1.0*20
$GNGSA,A,3,85,75,76,69,84,86,74,68,70,,,,1.2,0.7,1.0*20
$PSIWMPVT,117.820,224965.000,3,49.1721485,-123.0700930,17.700,-0.007,-0.024,0.041,4.472,3.391,3.156,0.500,0.000,0.000,4.594,0.027,15,*0E
$PSIWMPOS,000158.750,4910.32891,N,12304.20558,W,7.59,17.70,M,5.37,0,8,0,2,0,*58
$PSIWMATT,000158.750,360.0,T,-0.7,-0.1,180.0,*73
$PSIWMVEL,000158.750,360.0,T,0.0,K,-0.00,M,*7B
$PSIWMVSD,000158.750,0.00,0.00,0.00,2,0.00,0.00,0.00,2,*01
$GPGGA,142908.000,4910.32891,N,12304.20558,W,1,15,0.7,017.70,M,-16.8,M,,*5B
$GPRMC,142908.000,A,4910.32891,N,12304.20558,W,0.1,0.0,161018,,,A*77
$GNGSA,A,3,25,02,12,29,31,06,,,,,,,1.2,0.7,1.0*20
$GNGSA,A,3,85,75,76,69,84,86,74,68,70,,,,1.2,0.7,1.0*20
$PSIWMPVT,118.820,224965.999,3,49.1721485,-123.0700930,17.700,-0.011,-0.026,0.043,4.472,3.391,2.648,0.500,0.000,0.000,3.855,0.023,15,*05
$PSIWMPOS,000159.750,4910.32891,N,12304.20558,W,7.59,17.70,M,5.37,0,8,0,2,0,*59
$PSIWMATT,000159.750,360.0,T,-0.7,-0.1,180.0,*72
$PSIWMVEL,000159.750,360.0,T,0.0,K,-0.00,M,*7A
$PSIWMVSD,000159.750,0.00,0.00,0.00,2,0.00,0.00,0.00,2,*00
$GPGGA,142909.000,4910.32891,N,12304.20558,W,1,15,0.7,017.70,M,-16.8,M,,*5A
$GPRMC,142909.000,A,4910.32891,N,12304.20558,W,0.0,0.0,161018,,,A*77
$GNGSA,A,3,25,02,12,29,31,06,,,,,,,1.2,0.7,1.0*20
$GNGSA,A,3,85,75,76,69,84,86,74,68,70,,,,1.2,0.7,1.0*20
$PSIWMPVT,119.820,224967.000,3,49.1721485,-123.0700930,17.700,-0.022,-0.014,0.060,4.528,3.391,2.637,0.500,0.000,0.000,3.840,0.023,15,*0D
$PSIWMPOS,000200.750,4910.32891,N,12304.20558,W,7.68,17.70,M,5.43,0,8,0,2,0,*57
$PSIWMATT,000200.750,360.0,T,-0.7,-0.1,180.0,*7D
$PSIWMVEL,000200.750,360.0,T,0.0,K,-0.00,M,*75
$PSIWMVSD,000200.750,0.00,0.00,0.00,2,0.00,0.00,0.00,2,*0F
$GPGGA,142910.000,4910.32891,N,12304.20558,W,1,15,0.7,017.70,M,-16.8,M,,*52
$GPRMC,142910.000,A,4910.32891,N,12304.20558,W,0.0,0.0,161018,,,A*7F
$GNGSA,A,3,25,02,12,29,31,06,,,,,,,1.2,0.7,1.0*20
$GNGSA,A,3,85,75,76,69,84,86,74,68,70,,,,1.2,0.7,1.0*20
$PSIWMPVT,120.820,224968.000,3,49.1721485,-123.0700930,17.700,-0.020,-0.013,0.058,4.528,3.391,2.523,0.500,0.000,0.000,3.671,0.031,15,*0F
$PSIWMPOS,000201.750,4910.32891,N,12304.20558,W,7.68,17.70,M,5.43,0,8,0,2,0,*56
$PSIWMATT,000201.750,360.0,T,-0.7,-0.1,180.0,*7C
$PSIWMVEL,000201.750,360.0,T,0.0,K,-0.00,M,*74
$PSIWMVSD,000201.750,0.00,0.00,0.00,2,0.00,0.00,0.00,2,*0E
$GPGGA,142911.000,4910.32891,N,12304.20558,W,1,15,0.7,017.70,M,-16.8,M,,*53
$GPRMC,142911.000,A,4910.32891,N,12304.20558,W,0.0,0.0,161018,,,A*7E
$GNGSA,A,3,25,02,12,29,31,06,,,,,,,1.2,0.7,1.0*20
$GNGSA,A,3,85,75,76,69,84,86,74,68,70,,,,1.2,0.7,1.0*20
$PSIWMPVT,121.820,224969.000,3,49.1721485,-123.0700930,17.700,0.000,-0.015,0.047,4.528,3.464,3.152,0.500,0.000,0.000,4.589,0.027,15,*22
$PSIWMPOS,000202.750,4910.32891,N,12304.20558,W,7.68,17.70,M,5.43,0,8,0,2,0,*55
$PSIWMATT,000202.750,360.0,T,-0.7,-0.0,180.0,*7E
$PSIWMVEL,000202.750,360.0,T,0.0,K,-0.00,M,*77
$PSIWMVSD,000202.750,0.00,0.00,0.00,2,0.00,0.00,0.00,2,*0D
$GPGGA,142912.000,4910.32891,N,12304.20558,W,1,15,0.7,017.70,M,-16.8,M,,*50
$GPRMC,142912.000,A,4910.32891,N,12304.20558,W,0.0,0.0,161018,,,A*7D
$GNGSA,A,3,25,02,12,29,31,06,,,,,,,1.2,0.7,1.0*20
$GNGSA,A,3,85,75,76,69,84,86,74,68,70,,,,1.2,0.7,1.0*20
$PSIWMPVT,122.820,224970.000,3,49.1721485,-123.0700930,17.700,-0.002,-0.014,0.040,4.528,3.464,2.797,0.500,0.000,0.000,4.069,0.020,15,*02
$PSIWMPOS,000203.750,4910.32891,N,12304.20558,W,7.68,17.70,M,5.43,0,8,0,2,0,*54
$PSIWMATT,000203.750,360.0,T,-0.7,-0.0,180.0,*7F
$PSIWMVEL,000203.750,360.0,T,0.0,K,-0.00,M,*76
$PSIWMVSD,000203.750,0.00,0.00,0.00,2,0.00,0.00,0.00,2,*0C
$GPGGA,142913.000,4910.32891,N,12304.20558,W,1,15,0.7,017.70,M,-16.8,M,,*51
$GPRMC,142913.000,A,4910.32891,N,12304.20558,W,0.0,0.0,161018,,,A*7C
$GNGSA,A,3,25,02,12,29,31,06,,,,,,,1.2,0.7,1.0*20
$GNGSA,A,3,85,75,76,69,84,86,74,68,70,,,,1.2,0.7,1.0*20
$PSIWMPVT,123.830,224971.000,3,49.1721485,-123.0700930,17.700,-0.005,-0.019,0.041,4.528,3.464,2.699,0.500,0.000,0.000,3.929,0.023,15,*0E
$PSIWMPOS,000204.750,4910.32891,N,12304.20558,W,7.68,17.70,M,5.43,0,8,0,2,0,*53
$PSIWMATT,000204.750,360.0,T,-0.7,-0.0,180.0,*78
$PSIWMVEL,000204.750,360.0,T,0.0,K,-0.00,M,*71
$PSIWMVSD,000204.750,0.00,0.00,0.00,2,0.00,0.00,0.00,2,*0B
$GPGGA,142914.000,4910.32891,N,12304.20558,W,1,15,0.7,017.70,M,-16.8,M,,*56
$GPRMC,142914.000,A,4910.32891,N,12304.20558,W,0.1,0.0,161018,,,A*7A
$GNGSA,A,3,25,02,12,29,31,06,,,,,,,1.2,0.7,1.0*20
$GNGSA,A,3,85,75,76,69,84,86,74,68,70,,,,1.2,0.7,1.0*20
$PSIWMPVT,124.820,224972.000,3,49.1721485,-123.0700930,17.700,-0.013,-0.033,0.035,4.583,3.464,2.430,0.500,0.000,0.000,3.537,0.023,15,*04
$PSIWMPOS,000205.750,4910.32891,N,12304.20558,W,7.78,17.70,M,5.50,0,8,0,2,0,*51
$PSIWMATT,000205.750,360.0,T,-0.7,-0.0,180.0,*79
$PSIWMVEL,000205.750,360.0,T,0.0,K,-0.00,M,*70
$PSIWMVSD,000205.750,0.00,0.00,0.00,2,0.00,0.00,0.00,2,*0A
$GPGGA,142915.000,4910.32891,N,12304.20558,W,1,15,0.7,017.70,M,-16.8,M,,*57
$GPRMC,142915.000,A,4910.32891,N,12304.20558,W,0.1,0.0,161018,,,A*7B
$GNGSA,A,3,25,02,12,29,31,06,,,,,,,1.2,0.7,1.0*20
$GNGSA,A,3,85,75,76,69,84,86,74,68,70,,,,1.2,0.7,1.0*20
$PSIWMPVT,125.820,224973.000,3,49.1721485,-123.0700930,17.700,-0.013,-0.022,0.046,4.583,3.464,2.574,0.500,0.000,0.000,3.748,0.023,15,*0B
$PSIWMPOS,000206.750,4910.32891,N,12304.20558,W,7.78,17.70,M,5.50,0,8,0,2,0,*52
$PSIWMATT,000206.750,360.0,T,-0.7,-0.0,180.0,*7A
$PSIWMVEL,000206.750,360.0,T,0.0,K,-0.00,M,*73
$PSIWMVSD,000206.750,0.00,0.00,0.00,2,0.00,0.00,0.00,2,*09
$GPGGA,142916.000,4910.32891,N,12304.20558,W,1,15,0.7,017.70,M,-16.8,M,,*54
$GPRMC,142916.000,A,4910.32891,N,12304.20558,W,0.0,0.0,161018,,,A*79
$GNGSA,A,3,25,02,12,29,31,06,,,,,,,1.2,0.7,1.0*20
$GNGSA,A,3,85,75,76,69,84,86,74,68,70,,,,1.2,0.7,1.0*20
$PSIWMPVT,126.820,224973.999,3,49.1721485,-123.0700930,17.700,-0.001,-0.026,0.038,4.583,3.536,3.320,0.500,0.000,0.000,4.833,0.023,15,*0B
$PSIWMPOS,000207.750,4910.32891,N,12304.20558,W,7.78,17.70,M,5.50,0,8,0,2,0,*53
$PSIWMATT,000207.750,360.0,T,-0.7,-0.0,180.0,*7B
$PSIWMVEL,000207.750,360.0,T,0.0,K,-0.00,M,*72
$PSIWMVSD,000207.750,0.00,0.00,0.00,2,0.00,0.00,0.00,2,*08
$GPGGA,142917.000,4910.32891,N,12304.20558,W,1,15,0.7,017.70,M,-16.8,M,,*55
$GPRMC,142917.000,A,4910.32891,N,12304.20558,W,0.1,0.0,161018,,,A*79
$GNGSA,A,3,25,02,12,29,31,06,,,,,,,1.2,0.7,1.0*20
$GNGSA,A,3,85,75,76,69,84,86,74,68,70,,,,1.2,0.7,1.0*20
$PSIWMPVT,127.820,224974.999,3,49.1721485,-123.0700930,17.700,-0.015,-0.031,0.038,4.583,3.536,4.062,0.500,0.000,0.000,5.913,0.035,15,*09
$PSIWMPOS,000208.750,4910.32891,N,12304.20558,W,7.78,17.70,M,5.50,0,8,0,2,0,*5C
$PSIWMATT,000208.750,360.0,T,-0.7,-0.0,180.0,*74
$PSIWMVEL,000208.750,360.0,T,0.0,K,-0.00,M,*7D
$PSIWMVSD,000208.750,0.00,0.00,0.00,2,0.00,0.00,0.00,2,*07
$GPGGA,142918.000,4910.32891,N,12304.20558,W,1,15,0.7,017.70,M,-16.8,M,,*5A
$GPRMC,142918.000,A,4910.32891,N,12304.20558,W,0.0,0.0,161018,,,A*77
$GNGSA,A,3,25,02,12,29,31,06,,,,,,,1.2,0.7,1.0*20
$GNGSA,A,3,85,75,76,69,84,86,74,68,70,,,,1.2,0.7,1.0*20
$PSIWMPVT,128.820,224975.999,3,49.1721485,-123.0700930,17.700,-0.010,-0.023,0.034,4.583,3.536,3.875,0.500,0.000,0.000,5.638,0.027,15,*01
$PSIWMPOS,000209.750,4910.32891,N,12304.20558,W,7.78,17.70,M,5.50,0,8,0,2,0,*5D
$PSIWMATT,000209.750,360.0,T,-0.7,-0.0,180.0,*75
$PSIWMVEL,000209.750,360.0,T,0.0,K,-0.00,M,*7C
$PSIWMVSD,000209.750,0.00,0.00,0.00,2,0.00,0.00,0.00,2,*06
$GPGGA,142919.000,4910.32891,N,12304.20558,W,1,15,0.7,017.70,M,-16.8,M,,*5B
$GPRMC,142919.000,A,4910.32891,N,12304.20558,W,0.0,0.0,161018,,,A*76
$GNGSA,A,3,25,02,12,29,31,06,,,,,,,1.2,0.7,1.0*20
$GNGSA,A,3,85,75,76,69,84,86,74,68,70,,,,1.2,0.7,1.0*20
$PSIWMPVT,129.830,224976.999,3,49.1721485,-123.0700930,17.700,-0.004,-0.015,0.030,4.637,3.536,3.203,0.500,0.000,0.000,4.659,0.027,15,*07
$PSIWMPOS,000210.750,4910.32891,N,12304.20558,W,7.87,17.70,M,5.56,0,8,0,2,0,*53
$PSIWMATT,000210.750,360.0,T,-0.7,-0.0,180.0,*7D
$PSIWMVEL,000210.750,360.0,T,0.0,K,-0.00,M,*74
$PSIWMVSD,000210.750,0.00,0.00,0.00,2,0.00,0.00,0.00,2,*0E
$GPGGA,142920.000,4910.32891,N,12304.20558,W,1,15,0.7,017.70,M,-16.8,M,,*51
$GPRMC,142920.000,A,4910.32891,N,12304.20558,W,0.0,0.0,161018,,,A*7C
$GNGSA,A,3,25,02,12,29,31,06,,,,,,,1.2,0.7,1.0*20
$GNGSA,A,3,85,75,76,69,84,86,74,68,70,,,,1.2,0.7,1.0*20
$PSIWMPVT,130.830,224978.000,3,49.1721485,-123.0700930,17.700,-0.015,-0.016,0.037,4.637,3.536,2.797,0.500,0.000,0.000,4.069,0.023,15,*04
$PSIWMPOS,000211.750,4910.32891,N,12304.20558,W,7.87,17.70,M,5.56,0,8,0,2,0,*52
$PSIWMATT,000211.750,360.0,T,-0.7,-0.0,180.0,*7C
$PSIWMVEL,000211.750,360.0,T,0.0,K,-0.00,M,*75
$PSIWMVSD,000211.750,0.00,0.00,0.00,2,0.00,0.00,0.00,2,*0F
$GPGGA,142921.000,4910.32891,N,12304.20558,W,1,15,0.7,017.70,M,-16.8,M,,*50
$GPRMC,142921.000,A,4910.32891,N,12304.20558,W,0.1,0.0,161018,,,A*7C
$GNGSA,A,3,25,02,12,29,31,06,,,,,,,1.2,0.7,1.0*20
$GNGSA,A,3,85,75,76,69,84,86,74,68,70,,,,1.2,0.7,1.0*20
$PSIWMPVT,131.820,224978.999,3,49.1721485,-123.0700930,17.700,-0.018,-0.021,0.047,4.637,3.606,2.379,0.500,0.000,0.000,3.462,0.027,15,*0B
$PSIWMPOS,000212.750,4910.32891,N,12304.20558,W,7.87,17.70,M,5.56,0,8,0,2,0,*51
$PSIWMATT,000212.750,360.0,T,-0.7,-0.1,180.0,*7E
$PSIWMVEL,000212.750,360.0,T,0.0,K,-0.00,M,*76
$PSIWMVSD,000212.750,0.00,0.00,0.00,2,0.00,0.00,0.00,2,*0C
$GPGGA,142922.000,4910.32891,N,12304.20558,W,1,15,0.7,017.70,M,-16.8,M,,*53
$GPRMC,142922.000,A,4910.32891,N,12304.20558,W,0.0,0.0,161018,,,A*7E
$GNGSA,A,3,25,02,12,29,31,06,,,,,,,1.2,0.7,1.0*20
$GNGSA,A,3,85,75,76,69,84,86,74,68,70,,,,1.2,0.7,1.0*20
$PSIWMPVT,132.820,224979.999,3,49.1721485,-123.0700930,17.700,-0.005,-0.023,0.041,4.637,3.606,3.023,0.500,0.000,0.000,4.401,0.023,15,*0A
$PSIWMPOS,000213.750,4910.32891,N,12304.20558,W,7.87,17.70,M,5.56,0,8,0,2,0,*50
$PSIWMATT,000213.750,360.0,T,-0.7,-0.1,180.0,*7F
$PSIWMVEL,000213.750,360.0,T,0.0,K,-0.00,M,*77
$PSIWMVSD,000213.750,0.00,0.00,0.00,2,0.00,0.00,0.00,2,*0D
$GPGGA,142923.000,4910.32891,N,12304.20558,W,1,15,0.7,017.70,M,-16.8,M,,*52
$GPRMC,142923.000,A,4910.32891,N,12304.20558,W,0.1,0.0,161018,,,A*7E
$GNGSA,A,3,25,02,12,29,31,06,,,,,,,1.2,0.7,1.0*20
$GNGSA,A,3,85,75,76,69,84,86,74,68,70,,,,1.2,0.7,1.0*20
$PSIWMPVT,133.820,224980.999,3,49.1721485,-123.0700930,17.700,-0.007,-0.029,0.033,4.637,3.606,2.918,0.500,0.000,0.000,4.244,0.020,15,*04
$PSIWMPOS,000214.750,4910.32891,N,12304.20558,W,7.87,17.70,M,5.56,0,8,0,2,0,*57
$PSIWMATT,000214.750,360.0,T,-0.7,-0.1,180.0,*78
$PSIWMVEL,000214.750,360.0,T,0.0,K,-0.00,M,*70
$PSIWMVSD,000214.750,0.00,0.00,0.00,2,0.00,0.00,0.00,2,*0A
$GPGGA,142924.000,4910.32891,N,12304.20558,W,1,15,0.7,017.70,M,-16.8,M,,*55
$GPRMC,142924.000,A,4910.32891,N,12304.20558,W,0.0,0.0,161018,,,A*78
$GNGSA,A,3,25,02,12,29,31,06,,,,,,,1.2,0.7,1.0*20
$GNGSA,A,3,85,75,76,69,84,86,74,68,70,,,,1.2,0.7,1.0*20
$PSIWMPVT,134.820,224982.000,3,49.1721485,-123.0700930,17.700,-0.014,-0.014,0.042,4.690,3.606,2.895,0.500,0.000,0.000,4.214,0.023,15,*0D
$PSIWMPOS,000215.750,4910.32891,N,12304.20558,W,7.96,17.70,M,5.63,0,8,0,2,0,*50
$PSIWMATT,000215.750,360.0,T,-0.7,-0.1,180.0,*79
$PSIWMVEL,000215.750,360.0,T,0.0,K,-0.00,M,*71
$PSIWMVSD,000215.750,0.00,0.00,0.00,2,0.00,0.00,0.00,2,*0B
$GPGGA,142925.000,4910.32891,N,12304.20558,W,1,15,0.7,017.70,M,-16.8,M,,*54
$GPRMC,142925.000,A,4910.32891,N,12304.20558,W,0.0,0.0,161018,,,A*79
$GNGSA,A,3,25,02,12,29,31,06,,,,,,,1.2,0.7,1.0*20
$GNGSA,A,3,85,75,76,69,84,86,74,68,70,,,,1.2,0.7,1.0*20
$PSIWMPVT,135.820,224982.999,3,49.1721485,-123.0700930,17.700,-0.012,-0.013,0.041,4.690,3.606,2.676,0.500,0.000,0.000,3.896,0.016,15,*05
$PSIWMPOS,000216.750,4910.32891,N,12304.20558,W,7.96,17.70,M,5.63,0,8,0,2,0,*53
$PSIWMATT,000216.750,360.0,T,-0.7,-0.1,180.0,*7A
$PSIWMVEL,000216.750,360.0,T,0.0,K,-0.00,M,*72
$PSIWMVSD,000216.750,0.00,0.00,0.00,2,0.00,0.00,0.00,2,*08
$GPGGA,142926.000,4910.32891,N,12304.20558,W,1,15,0.7,017.70,M,-16.8,M,,*57
$GPRMC,142926.000,A,4910.32891,N,12304.20558,W,0.1,0.0,161018,,,A*7B
$GNGSA,A,3,25,02,12,29,31,06,,,,,,,1.2,0.7,1.0*20
$GNGSA,A,3,85,75,76,69,84,86,74,68,70,,,,1.2,0.7,1.0*20
$PSIWMPVT,136.820,224983.999,3,49.1721485,-123.0700930,17.700,-0.024,-0.019,0.046,4.690,3.674,3.238,0.500,0.000,0.000,4.715,0.027,15,*04
$PSIWMPOS,000217.750,4910.32891,N,12304.20558,W,7.96,17.70,M,5.63,0,8,0,2,0,*52
$PSIWMATT,000217.750,360.0,T,-0.7,-0.1,180.0,*7B
$PSIWMVEL,000217.750,360.0,T,0.0,K,-0.00,M,*73
$PSIWMVSD,000217.750,0.00,0.00,0.00,2,0.00,0.00,0.00,2,*09
$GPGGA,142927.000,4910.32891,N,12304.20558,W,1,15,0.7,017.70,M,-16.8,M,,*56
$GPRMC,142927.000,A,4910.32891,N,12304.20558,W,0.1,0.0,161018,,,A*7A
$GNGSA,A,3,25,02,12,29,31,06,,,,,,,1.2,0.7,1.0*20
$GNGSA,A,3,85,75,76,69,84,86,74,68,70,,,,1.2,0.7,1.0*20
$PSIWMPVT,137.820,224984.999,3,49.1721485,-123.0700930,17.700,0.010,-0.034,0.024,4.690,3.674,4.168,0.500,0.000,0.000,6.067,0.023,15,*26
$PSIWMPOS,000218.750,4910.32891,N,12304.20558,W,7.96,17.70,M,5.63,0,8,0,2,0,*5D
$PSIWMATT,000218.750,360.0,T,-0.7,-0.1,180.0,*74
$PSIWMVEL,000218.750,360.0,T,0.0,K,-0.00,M,*7C
$PSIWMVSD,000218.750,0.00,0.00,0.00,2,0.00,0.00,0.00,2,*06
$GPGGA,142928.000,4910.32891,N,12304.20558,W,1,15,0.7,017.70,M,-16.8,M,,*59
$GPRMC,142928.000,A,4910.32891,N,12304.20558,W,0.0,0.0,161018,,,A*74
$GNGSA,A,3,25,02,12,29,31,06,,,,,,,1.2,0.7,1.0*20
$GNGSA,A,3,85,75,76,69,84,86,74,68,70,,,,1.2,0.7,1.0*20
$PSIWMPVT,138.830,224986.000,3,49.1721485,-123.0700930,17.700,-0.004,-0.022,0.030,4.690,3.674,4.664,0.500,0.000,0.000,6.786,0.020,15,*09
$PSIWMPOS,000219.750,4910.32891,N,12304.20558,W,7.96,17.70,M,5.63,0,8,0,2,0,*5C
$PSIWMATT,000219.750,360.0,T,-0.7,-0.1,180.0,*75
$PSIWMVEL,000219.750,360.0,T,0.0,K,-0.00,M,*7D
$PSIWMVSD,000219.750,0.00,0.00,0.00,2,0.00,0.00,0.00,2,*07
$GPGGA,142929.000,4910.32867,N,12304.20614,W,1,15,0.7,018.11,M,-16.8,M,,*52
$GPRMC,142929.000,A,4910.32867,N,12304.20614,W,0.0,0.0,161018,,,A*77
$GNGSA,A,3,25,02,12,29,31,06,,,,,,,1.2,0.7,1.0*20
$GNGSA,A,3,85,75,76,69,84,86,74,68,70,,,,1.2,0.7,1.0*20
$PSIWMPVT,139.830,224987.000,3,49.1721444,-123.0701023,18.107,-0.008,-0.017,0.019,4.472,3.317,3.910,0.500,0.000,0.000,5.691,0.020,15,*00
$PSIWMPOS,000220.750,4910.32867,N,12304.20614,W,7.59,18.11,M,5.37,0,8,0,2,0,*5E
$PSIWMATT,000220.750,360.0,T,-0.7,-0.1,180.0,*7F
$PSIWMVEL,000220.750,360.0,T,0.0,K,-0.00,M,*77
$PSIWMVSD,000220.750,0.00,0.00,0.00,2,0.00,0.00,0.00,2,*0D
$GPGGA,142930.000,4910.32867,N,12304.20614,W,1,15,0.7,018.11,M,-16.8,M,,*5A
$GPRMC,142930.000,A,4910.32867,N,12304.20614,W,0.0,0.0,161018,,,A*7F
$GNGSA,A,3,25,02,12,29,31,06,,,,,,,1.2,0.7,1.0*20
$GNGSA,A,3,85,75,76,69,84,86,74,68,70,,,,1.2,0.7,1.0*20
$PSIWMPVT,140.830,224987.999,3,49.1721444,-123.0701023,18.107,0.003,-0.017,0.014,4.528,3.391,3.609,0.500,0.000,0.000,5.255,0.020,15,*27
$PSIWMPOS,000221.750,4910.32867,N,12304.20614,W,7.68,18.11,M,5.43,0,8,0,2,0,*5E
$PSIWMATT,000221.750,360.0,T,-0.7,-0.1,180.0,*7E
$PSIWMVEL,000221.750,360.0,T,0.0,K,-0.00,M,*76
$PSIWMVSD,000221.750,0.00,0.00,0.00,2,0.00,0.00,0.00,2,*0C
$GPGGA,142931.000,4910.32867,N,12304.20614,W,1,15,0.7,018.11,M,-16.8,M,,*5B
$GPRMC,142931.000,A,4910.32867,N,12304.20614,W,0.1,0.0,161018,,,A*7F
$GNGSA,A,3,25,02,12,29,31,06,,,,,,,1.2,0.7,1.0*20
$GNGSA,A,3,85,75,76,69,84,86,74,68,70,,,,1.2,0.7,1.0*20
$PSIWMPVT,141.820,224988.999,3,49.1721444,-123.0701023,18.107,-0.009,-0.026,0.009,4.528,3.391,3.148,0.500,0.000,0.000,4.584,0.020,15,*09
$PSIWMPOS,000222.750,4910.32867,N,12304.20614,W,7.68,18.11,M,5.43,0,8,0,2,0,*5D
$PSIWMATT,000222.750,360.0,T,-0.7,-0.1,180.0,*7D
$PSIWMVEL,000222.750,360.0,T,0.0,K,-0.00,M,*75
$PSIWMVSD,000222.750,0.00,0.00,0.00,2,0.00,0.00,0.00,2,*0F
$GPGGA,142932.000,4910.32867,N,12304.20614,W,1,15,0.7,018.11,M,-16.8,M,,*58
$GPRMC,142932.000,A,4910.32867,N,12304.20614,W,0.0,0.0,161018,,,A*7D
$GNGSA,A,3,25,02,12,29,31,06,,,,,,,1.2,0.7,1.0*20
$GNGSA,A,3,85,75,76,69,84,86,74,68,70,,,,1.2,0.7,1.0*20
$PSIWMPVT,142.830,224990.000,3,49.1721444,-123.0701023,18.107,-0.009,-0.013,0.022,4.528,3.391,3.059,0.500,0.000,0.000,4.451,0.016,15,*09
$PSIWMPOS,000223.750,4910.32867,N,12304.20614,W,7.68,18.11,M,5.43,0,8,0,2,0,*5C
$PSIWMATT,000223.750,360.0,T,-0.7,-0.1,180.0,*7C
$PSIWMVEL,000223.750,360.0,T,0.0,K,-0.00,M,*74
$PSIWMVSD,000223.750,0.00,0.00,0.00,2,0.00,0.00,0.00,2,*0E
