$GPRMC,212335.000,A,4910.30967,N,12304.12310,W,0.1,0.0,161018,,,A*74
$GNGSA,A,3,11,24,27,08,18,10,20,14,32,,,,1.1,0.6,0.9*26
$GNGSA,A,3,65,88,82,74,81,72,87,66,,,,,1.1,0.6,0.9*2A
$GPGGA,212336.000,4910.30967,N,12304.12310,W,1,17,0.6,003.03,M,-16.8,M,,*59
$GPRMC,212336.000,A,4910.30967,N,12304.12310,W,0.0,0.0,161018,,,A*76
$GNGSA,A,3,11,24,27,08,18,10,20,14,32,,,,1.1,0.6,0.9*26
$GNGSA,A,3,65,88,82,74,81,72,87,66,,,,,1.1,0.6,0.9*2A
$PSIWMPVT,2094.290,249833.999,3,49.1718278,-123.0687183,3.030,-0.009,-0.022,-0.020,5.148,3.808,5.520,0.500,0.354,0.000,9.941,0.117,17,*2A
$GPGGA,212337.000,4910.30967,N,12304.12310,W,1,17,0.6,003.03,M,-16.8,M,,*58
$GPRMC,212337.000,A,4910.30967,N,12304.12310,W,0.1,0.0,161018,,,A*76
$GNGSA,A,3,11,24,27,08,18,10,20,14,32,,,,1.1,0.6,0.9*26
$GNGSA,A,3,65,88,82,74,81,72,87,66,,,,,1.1,0.6,0.9*2A
$PSIWMPVT,2095.290,249834.999,3,49.1718278,-123.0687183,3.030,-0.011,-0.028,-0.024,5.148,3.808,5.441,0.500,0.354,0.000,10.009,0.094,17,*1A
$PSIWMPDR,2093.250,49.1718277,-123.0687185,-0.881,171.308776855,4.648944378,1,-2.418382883,0.525354564,-0.328240275,37.56,0.106265366,0.138313964,0.094037138,0.114536777,-1010101.125000000,152,*19
$GPGGA,212338.000,4910.30967,N,12304.12310,W,1,17,0.6,003.03,M,-16.8,M,,*57
$GPRMC,212338.000,A,4910.30967,N,12304.12310,W,0.1,0.0,161018,,,A*79
$GNGSA,A,3,11,24,27,08,18,10,20,14,32,,,,1.1,0.6,0.9*26
$GNGSA,A,3,65,88,82,74,81,72,87,66,,,,,1.1,0.6,0.9*2A
$PSIWMPVT,2096.290,249835.999,3,49.1718278,-123.0687183,3.030,-0.018,-0.030,-0.029,5.148,3.808,5.285,0.500,0.354,0.000,9.311,0.031,17,*26
$GPGGA,212339.000,4910.30967,N,12304.12310,W,1,17,0.6,003.03,M,-16.8,M,,*56
$GPRMC,212339.000,A,4910.30967,N,12304.12310,W,0.1,0.0,161018,,,A*78
$GNGSA,A,3,11,24,27,08,18,10,20,14,32,,,,1.1,0.6,0.9*26
$GNGSA,A,3,65,88,82,74,81,72,87,66,,,,,1.1,0.6,0.9*2A
$PSIWMPVT,2097.290,249836.999,3,49.1718278,-123.0687183,3.030,-0.024,-0.012,-0.040,5.196,3.808,5.648,0.500,0.354,0.000,10.051,0.020,17,*1D
$PSIWMPOS,003457.850,4910.30967,N,12304.12310,W,141.42,3.03,M,100.00,0,8,0,2,0,*67
$PSIWMATT,003457.850,360.0,T,6.0,-0.7,180.0,*5F
$PSIWMVEL,003457.850,360.0,T,0.0,K,-0.00,M,*7D
$PSIWMVSD,003457.850,0.00,0.00,0.00,2,0.00,0.00,0.00,2,*07
$GPGGA,212340.000,4910.30967,N,12304.12310,W,1,18,0.6,003.03,M,-16.8,M,,*57
$GPRMC,212340.000,A,4910.30967,N,12304.12310,W,0.0,0.0,161018,,,A*77
$GNGSA,A,3,11,24,27,08,18,01,10,20,14,32,,,1.1,0.6,0.9*27
$GNGSA,A,3,65,88,82,74,81,72,87,66,,,,,1.1,0.6,0.9*2A
$PSIWMPVT,2098.320,249837.999,3,49.1718278,-123.0687183,3.030,-0.012,-0.012,-0.044,5.196,3.873,6.195,0.500,0.354,0.000,11.121,0.031,18,*18
$PSIWMPOS,003458.850,4910.30967,N,12304.12310,W,7.35,3.03,M,5.20,0,8,0,2,0,*6D
$PSIWMATT,003458.850,360.0,T,6.0,-0.7,180.0,*50
$PSIWMVEL,003458.850,360.0,T,0.1,K,0.04,M,*5A
$PSIWMVSD,003458.850,0.00,0.00,0.00,2,0.00,0.00,0.00,2,*08
$GPGGA,212341.000,4910.30967,N,12304.12310,W,1,18,0.6,003.03,M,-16.8,M,,*56
$GPRMC,212341.000,A,4910.30967,N,12304.12310,W,0.1,0.0,161018,,,A*77
$GNGSA,A,3,11,24,27,08,18,01,10,20,14,32,,,1.1,0.6,0.9*27
$GNGSA,A,3,65,88,82,74,81,72,87,66,,,,,1.1,0.6,0.9*2A
$PSIWMPVT,2099.330,249838.999,3,49.1718278,-123.0687183,3.030,-0.017,-0.028,-0.046,5.196,3.873,5.840,0.500,0.354,0.000,10.403,0.023,18,*1C
$PSIWMPOS,003459.850,4910.30967,N,12304.12310,W,7.35,3.03,M,5.20,0,8,0,2,0,*6C
$PSIWMATT,003459.850,360.0,T,6.0,-0.7,180.0,*51
$PSIWMVEL,003459.850,360.0,T,0.0,K,-0.00,M,*73
$PSIWMVSD,003459.850,0.00,0.00,0.00,2,0.00,0.00,0.00,2,*09
$GPGGA,212342.000,4910.30967,N,12304.12310,W,1,18,0.6,003.03,M,-16.8,M,,*55
$GPRMC,212342.000,A,4910.30967,N,12304.12310,W,0.0,0.0,161018,,,A*75
$GNGSA,A,3,11,24,27,08,18,01,10,20,14,32,,,1.1,0.6,0.9*27
$GNGSA,A,3,65,88,82,74,81,72,87,66,,,,,1.1,0.6,0.9*2A
$PSIWMPVT,2100.330,249840.000,3,49.1718278,-123.0687183,3.030,-0.012,-0.006,-0.046,5.196,3.873,6.469,0.500,0.354,0.000,11.313,0.020,18,*12
$PSIWMPOS,003500.850,4910.30967,N,12304.12310,W,8.82,3.03,M,6.24,0,8,0,2,0,*65
$PSIWMATT,003500.850,360.0,T,6.0,-0.8,180.0,*53
$PSIWMVEL,003500.850,360.0,T,0.0,K,-0.00,M,*7E
$PSIWMVSD,003500.850,0.00,0.00,0.00,2,0.00,0.00,0.00,2,*04
$GPGGA,212343.000,4910.30967,N,12304.12310,W,1,18,0.6,003.03,M,-16.8,M,,*54
$GPRMC,212343.000,A,4910.30967,N,12304.12310,W,0.0,0.0,161018,,,A*74
$GNGSA,A,3,11,24,27,08,18,01,10,20,14,32,,,1.1,0.6,0.9*27
$GNGSA,A,3,65,88,82,74,81,72,87,66,,,,,1.1,0.6,0.9*2A
$PSIWMPVT,2101.330,249840.999,3,49.1718278,-123.0687183,3.030,0.000,0.005,-0.040,5.196,3.873,6.270,0.500,0.354,0.000,10.981,0.020,18,*12
$PSIWMPOS,003501.850,4910.30967,N,12304.12310,W,8.82,3.03,M,6.24,0,8,0,2,0,*64
$PSIWMATT,003501.850,360.0,T,5.9,-0.6,180.0,*56
$PSIWMVEL,003501.850,360.0,T,0.0,K,-0.00,M,*7F
$PSIWMVSD,003501.850,0.00,0.00,0.00,2,0.00,0.00,0.00,2,*05
$GPGGA,212344.000,4910.30967,N,12304.12310,W,1,18,0.6,003.03,M,-16.8,M,,*53
$GPRMC,212344.000,A,4910.30967,N,12304.12310,W,0.0,0.0,161018,,,A*73
$GNGSA,A,3,11,24,27,08,18,01,10,20,14,32,,,1.1,0.6,0.9*27
$GNGSA,A,3,65,88,82,74,81,72,87,66,,,,,1.1,0.6,0.9*2A
$PSIWMPVT,2102.330,249841.999,3,49.1718278,-123.0687183,3.030,-0.002,-0.018,-0.036,5.244,3.873,6.156,0.500,0.354,0.000,10.805,0.055,18,*1B
$PSIWMPOS,003502.850,4910.30967,N,12304.12310,W,8.90,3.03,M,6.29,0,8,0,2,0,*69
$PSIWMATT,003502.850,360.0,T,6.0,-0.6,180.0,*5F
$PSIWMVEL,003502.850,360.0,T,0.0,K,-0.00,M,*7C
$PSIWMVSD,003502.850,0.00,0.00,0.00,2,0.00,0.00,0.00,2,*06
$GPGGA,212345.000,4910.30967,N,12304.12310,W,1,18,0.6,003.03,M,-16.8,M,,*52
$GPRMC,212345.000,A,4910.30967,N,12304.12310,W,0.0,0.0,161018,,,A*72
$GNGSA,A,3,11,24,27,08,18,01,10,20,14,32,,,1.1,0.6,0.9*27
$GNGSA,A,3,65,88,82,74,81,72,87,66,,,,,1.1,0.6,0.9*2A
$PSIWMPVT,2103.330,249842.999,3,49.1718278,-123.0687183,3.030,-0.003,0.001,-0.036,5.244,3.937,6.203,0.500,0.354,0.000,10.896,0.020,18,*37
$PSIWMPOS,003503.850,4910.30967,N,12304.12310,W,8.90,3.03,M,6.29,0,8,0,2,0,*68
$PSIWMATT,003503.850,360.0,T,6.0,-0.7,180.0,*5F
$PSIWMVEL,003503.850,360.0,T,0.0,K,-0.00,M,*7D
$PSIWMVSD,003503.850,0.00,0.00,0.00,2,0.00,0.00,0.00,2,*07
$GPGGA,212346.000,4910.30967,N,12304.12310,W,1,18,0.6,003.03,M,-16.8,M,,*51
$GPRMC,212346.000,A,4910.30967,N,12304.12310,W,0.0,0.0,161018,,,A*71
$GNGSA,A,3,11,24,27,08,18,01,10,20,14,32,,,1.1,0.6,0.9*27
$GNGSA,A,3,65,88,82,74,81,72,87,66,,,,,1.1,0.6,0.9*2A
$PSIWMPVT,2104.330,249844.000,3,49.1718278,-123.0687183,3.030,-0.004,-0.004,-0.035,5.244,3.937,5.625,0.500,0.354,0.000,9.908,0.074,18,*2F
$PSIWMPOS,003504.850,4910.30967,N,12304.12310,W,8.90,3.03,M,6.29,0,8,0,2,0,*6F
$PSIWMATT,003504.850,360.0,T,5.9,-0.7,180.0,*52
$PSIWMVEL,003504.850,360.0,T,0.0,K,-0.00,M,*7A
$PSIWMVSD,003504.850,0.00,0.00,0.00,2,0.00,0.00,0.00,2,*00
$GPGGA,212347.000,4910.30967,N,12304.12310,W,1,18,0.6,003.03,M,-16.8,M,,*50
$GPRMC,212347.000,A,4910.30967,N,12304.12310,W,0.0,0.0,161018,,,A*70
$GNGSA,A,3,11,24,27,08,18,01,10,20,14,32,,,1.1,0.6,0.9*27
$GNGSA,A,3,65,88,82,74,81,72,87,66,,,,,1.1,0.6,0.9*2A
$PSIWMPVT,2105.330,249844.999,3,49.1718278,-123.0687183,3.030,-0.010,-0.005,-0.030,5.244,3.937,6.102,0.500,0.354,0.000,10.789,0.031,18,*19
$PSIWMPOS,003505.850,4910.30967,N,12304.12310,W,8.90,3.03,M,6.29,0,8,0,2,0,*6E
$PSIWMATT,003505.850,360.0,T,5.9,-0.7,180.0,*53
$PSIWMVEL,003505.850,360.0,T,0.0,K,-0.00,M,*7B
$PSIWMVSD,003505.850,0.00,0.00,0.00,2,0.00,0.00,0.00,2,*01
$GPGGA,212348.000,4910.30967,N,12304.12310,W,1,18,0.6,003.03,M,-16.8,M,,*5F
$GPRMC,212348.000,A,4910.30967,N,12304.12310,W,0.0,0.0,161018,,,A*7F
$GNGSA,A,3,11,24,27,08,18,01,10,20,14,32,,,1.1,0.6,0.9*27
$GNGSA,A,3,65,88,82,74,81,72,87,66,,,,,1.1,0.6,0.9*2A
$PSIWMPVT,2106.330,249845.999,3,49.1718278,-123.0687183,3.030,-0.004,0.003,-0.030,5.244,3.937,6.102,0.500,0.354,0.000,10.789,0.035,18,*31
$PSIWMPOS,003506.850,4910.30967,N,12304.12310,W,8.90,3.03,M,6.29,0,8,0,2,0,*6D
$PSIWMATT,003506.850,360.0,T,5.9,-0.6,180.0,*51
$PSIWMVEL,003506.850,360.0,T,0.0,K,-0.00,M,*78
$PSIWMVSD,003506.850,0.00,0.00,0.00,2,0.00,0.00,0.00,2,*02
$GPGGA,212349.000,4910.30967,N,12304.12310,W,1,19,0.6,003.03,M,-16.8,M,,*5F
$GPRMC,212349.000,A,4910.30967,N,12304.12310,W,0.0,0.0,161018,,,A*7E
$GNGSA,A,3,11,24,27,08,18,01,21,10,20,14,32,,1.1,0.6,0.9*24
$GNGSA,A,3,65,88,82,74,81,72,87,66,,,,,1.1,0.6,0.9*2A
$PSIWMPVT,2107.330,249847.000,3,49.1718278,-123.0687183,3.030,0.005,-0.005,-0.024,5.292,3.937,5.879,0.500,0.354,0.000,10.358,0.023,19,*3A
$PSIWMPOS,003507.850,4910.30967,N,12304.12310,W,8.98,3.03,M,6.35,0,8,0,2,0,*69
$PSIWMATT,003507.850,360.0,T,5.9,-0.6,180.0,*50
$PSIWMVEL,003507.850,360.0,T,0.0,K,-0.00,M,*79
$PSIWMVSD,003507.850,0.00,0.00,0.00,2,0.00,0.00,0.00,2,*03
$GPGGA,212350.000,4910.30967,N,12304.12310,W,1,19,0.6,003.03,M,-16.8,M,,*57
$GPRMC,212350.000,A,4910.30967,N,12304.12310,W,0.0,0.0,161018,,,A*76
$GNGSA,A,3,11,24,27,08,18,01,21,10,20,14,32,,1.1,0.6,0.9*24
$GNGSA,A,3,65,88,82,74,81,72,87,66,,,,,1.1,0.6,0.9*2A
$PSIWMPVT,2108.330,249848.000,3,49.1718278,-123.0687183,3.030,-0.010,0.004,-0.024,5.292,4.000,5.262,0.500,0.354,0.000,9.301,0.051,19,*04
$PSIWMPOS,003508.850,4910.30967,N,12304.12310,W,8.98,3.03,M,6.35,0,8,0,2,0,*66
$PSIWMATT,003508.850,360.0,T,5.9,-0.6,180.0,*5F
$PSIWMVEL,003508.850,360.0,T,0.0,K,-0.00,M,*76
$PSIWMVSD,003508.850,0.00,0.00,0.00,2,0.00,0.00,0.00,2,*0C
$GPGGA,212351.000,4910.30967,N,12304.12310,W,1,19,0.6,003.03,M,-16.8,M,,*56
$GPRMC,212351.000,A,4910.30967,N,12304.12310,W,0.0,0.0,161018,,,A*77
$GNGSA,A,3,11,24,27,08,18,01,21,10,20,14,32,,1.1,0.6,0.9*24
$GNGSA,A,3,65,88,82,74,81,72,87,66,,,,,1.1,0.6,0.9*2A
$PSIWMPVT,2109.330,249849.000,3,49.1718278,-123.0687183,3.030,-0.011,0.010,-0.025,5.292,4.000,6.512,0.500,0.354,0.000,11.522,0.020,19,*3A
$PSIWMPOS,003509.850,4910.30967,N,12304.12310,W,8.98,3.03,M,6.35,0,8,0,2,0,*67
$PSIWMATT,003509.850,360.0,T,6.0,-0.6,180.0,*54
$PSIWMVEL,003509.850,360.0,T,0.0,K,-0.00,M,*77
$PSIWMVSD,003509.850,0.00,0.00,0.00,2,0.00,0.00,0.00,2,*0D
$GPGGA,212352.000,4910.30967,N,12304.12310,W,1,19,0.6,003.03,M,-16.8,M,,*55
$GPRMC,212352.000,A,4910.30967,N,12304.12310,W,0.0,0.0,161018,,,A*74
$GNGSA,A,3,11,24,27,08,18,01,21,10,20,14,32,,1.1,0.6,0.9*24
$GNGSA,A,3,65,88,82,74,81,72,87,66,,,,,1.1,0.6,0.9*2A
$PSIWMPVT,2110.330,249849.999,3,49.1718278,-123.0687183,3.030,-0.021,-0.000,-0.028,5.292,4.000,6.094,0.500,0.354,0.000,10.863,0.020,19,*1B
$PSIWMPOS,003510.850,4910.30967,N,12304.12310,W,8.98,3.03,M,6.35,0,8,0,2,0,*6F
$PSIWMATT,003510.850,360.0,T,6.0,-0.6,180.0,*5C
$PSIWMVEL,003510.850,360.0,T,0.0,K,-0.00,M,*7F
$PSIWMVSD,003510.850,0.00,0.00,0.00,2,0.00,0.00,0.00,2,*05
$GPGGA,212353.000,4910.30967,N,12304.12310,W,1,20,0.6,003.03,M,-16.8,M,,*5E
$GPRMC,212353.000,A,4910.30967,N,12304.12310,W,0.0,0.0,161018,,,A*75
$GNGSA,A,3,11,24,27,08,18,01,21,10,20,14,32,,1.0,0.6,0.9*25
$GNGSA,A,3,65,88,82,74,81,72,87,73,66,,,,1.0,0.6,0.9*2F
$PSIWMPVT,2111.340,249851.000,3,49.1718278,-123.0687183,3.030,-0.015,0.006,-0.028,5.292,4.000,5.906,0.500,0.354,0.000,11.975,0.137,20,*3A
$PSIWMPOS,003511.850,4910.30967,N,12304.12310,W,8.98,3.03,M,6.35,0,8,0,2,0,*6E
$PSIWMATT,003511.850,360.0,T,5.9,-0.7,180.0,*56
$PSIWMVEL,003511.850,360.0,T,0.0,K,-0.00,M,*7E
$PSIWMVSD,003511.850,0.00,0.00,0.00,2,0.00,0.00,0.00,2,*04
$GPGGA,212354.000,4910.30967,N,12304.12310,W,1,20,0.6,003.03,M,-16.8,M,,*59
$GPRMC,212354.000,A,4910.30967,N,12304.12310,W,0.0,0.0,161018,,,A*72
$GNGSA,A,3,11,24,27,08,18,01,21,10,20,14,32,,1.0,0.6,0.9*25
$GNGSA,A,3,65,88,82,74,81,72,87,73,66,,,,1.0,0.6,0.9*2F
$PSIWMPVT,2112.340,249852.000,3,49.1718278,-123.0687183,3.030,-0.008,0.012,-0.019,5.339,4.000,6.336,0.500,0.354,0.000,12.262,0.164,20,*33
$PSIWMPOS,003512.850,4910.30967,N,12304.12310,W,9.06,3.03,M,6.41,0,8,0,2,0,*68
$PSIWMATT,003512.850,360.0,T,6.0,-0.7,180.0,*5F
$PSIWMVEL,003512.850,360.0,T,0.0,K,-0.00,M,*7D
$PSIWMVSD,003512.850,0.00,0.00,0.00,2,0.00,0.00,0.00,2,*07
$GPGGA,212355.000,4910.30967,N,12304.12310,W,1,20,0.6,003.03,M,-16.8,M,,*58
$GPRMC,212355.000,A,4910.30967,N,12304.12310,W,0.0,0.0,161018,,,A*73
$GNGSA,A,3,11,24,27,08,18,01,21,10,20,14,32,,1.0,0.6,0.9*25
$GNGSA,A,3,65,88,82,74,81,72,87,73,66,,,,1.0,0.6,0.9*2F
$PSIWMPVT,2113.340,249853.000,3,49.1718278,-123.0687183,3.030,-0.014,0.010,-0.020,5.339,4.062,6.457,0.500,0.354,0.000,12.459,0.133,20,*3E
$PSIWMPOS,003513.850,4910.30967,N,12304.12310,W,9.06,3.03,M,6.41,0,8,0,2,0,*69
$PSIWMATT,003513.850,360.0,T,6.0,-0.7,180.0,*5E
$PSIWMVEL,003513.850,360.0,T,0.0,K,-0.00,M,*7C
$PSIWMVSD,003513.850,0.00,0.00,0.00,2,0.00,0.00,0.00,2,*06
$GPGGA,212356.000,4910.30967,N,12304.12310,W,1,20,0.6,003.03,M,-16.8,M,,*5B
$GPRMC,212356.000,A,4910.30967,N,12304.12310,W,0.0,0.0,161018,,,A*70
$GNGSA,A,3,11,24,27,08,18,01,21,10,20,14,32,,1.0,0.6,0.9*25
$GNGSA,A,3,65,88,82,74,81,72,87,73,66,,,,1.0,0.6,0.9*2F
$PSIWMPVT,2114.340,249853.999,3,49.1718278,-123.0687183,3.030,-0.011,0.003,-0.019,5.339,4.062,6.578,0.500,0.354,0.000,13.778,0.102,20,*32
$PSIWMPOS,003514.850,4910.30967,N,12304.12310,W,9.06,3.03,M,6.41,0,8,0,2,0,*6E
$PSIWMATT,003514.850,360.0,T,6.0,-0.7,180.0,*59
$PSIWMVEL,003514.850,360.0,T,0.0,K,-0.00,M,*7B
$PSIWMVSD,003514.850,0.00,0.00,0.00,2,0.00,0.00,0.00,2,*01
$GPGGA,212357.000,4910.30967,N,12304.12310,W,1,20,0.6,003.03,M,-16.8,M,,*5A
$GPRMC,212357.000,A,4910.30967,N,12304.12310,W,0.0,0.0,161018,,,A*71
$GNGSA,A,3,11,24,27,08,18,01,21,10,20,14,32,,1.0,0.6,0.9*25
$GNGSA,A,3,65,88,82,74,81,72,87,73,66,,,,1.0,0.6,0.9*2F
$PSIWMPVT,2115.340,249855.000,3,49.1718278,-123.0687183,3.030,-0.008,0.008,-0.020,5.339,4.062,7.125,0.500,0.354,0.000,14.218,0.043,20,*38
$PSIWMPOS,003515.850,4910.30967,N,12304.12310,W,9.06,3.03,M,6.41,0,8,0,2,0,*6F
$PSIWMATT,003515.850,360.0,T,5.9,-0.7,180.0,*52
$PSIWMVEL,003515.850,360.0,T,0.0,K,-0.00,M,*7A
$PSIWMVSD,003515.850,0.00,0.00,0.00,2,0.00,0.00,0.00,2,*00
$GPGGA,212358.000,4910.30967,N,12304.12310,W,1,20,0.6,003.03,M,-16.8,M,,*55
$GPRMC,212358.000,A,4910.30967,N,12304.12310,W,0.0,0.0,161018,,,A*7E
$GNGSA,A,3,11,24,27,08,18,01,21,10,20,14,32,,1.0,0.6,0.9*25
$GNGSA,A,3,65,88,82,74,81,72,87,73,66,,,,1.0,0.6,0.9*2F
$PSIWMPVT,2116.340,249856.000,3,49.1718278,-123.0687183,3.030,-0.003,0.004,-0.021,5.339,4.062,6.699,0.500,0.354,0.000,13.413,0.062,20,*36
$PSIWMPOS,003516.850,4910.30967,N,12304.12310,W,9.06,3.03,M,6.41,0,8,0,2,0,*6C
$PSIWMATT,003516.850,360.0,T,6.0,-0.7,180.0,*5B
$PSIWMVEL,003516.850,360.0,T,0.0,K,-0.00,M,*79
$PSIWMVSD,003516.850,0.00,0.00,0.00,2,0.00,0.00,0.00,2,*03
$GPGGA,212359.000,4910.30921,N,12304.12326,W,1,20,0.6,003.38,M,-16.8,M,,*5B
$GPRMC,212359.000,A,4910.30921,N,12304.12326,W,0.1,0.0,161018,,,A*79
$GNGSA,A,3,11,24,27,08,18,01,21,10,20,14,32,,1.0,0.6,0.9*25
$GNGSA,A,3,65,88,82,74,81,72,87,73,66,,,,1.0,0.6,0.9*2F
$PSIWMPVT,2117.340,249857.000,3,49.1718202,-123.0687210,3.376,-0.012,0.023,-0.020,4.950,3.317,6.855,0.500,0.354,0.000,13.663,0.094,20,*37
$PSIWMPOS,003517.850,4910.30921,N,12304.12326,W,8.40,3.38,M,5.94,0,8,0,2,0,*6A
$PSIWMATT,003517.850,360.0,T,5.9,-0.7,180.0,*50
$PSIWMVEL,003517.850,360.0,T,0.0,K,-0.00,M,*78
$PSIWMVSD,003517.850,0.00,0.00,0.00,2,0.00,0.00,0.00,2,*02
$GPGGA,212400.000,4910.30921,N,12304.12326,W,1,18,0.6,003.38,M,-16.8,M,,*5B
$GPRMC,212400.000,A,4910.30921,N,12304.12326,W,0.0,0.0,161018,,,A*73
$GNGSA,A,3,11,24,27,08,18,01,21,10,20,14,32,,1.0,0.6,0.9*25
$GNGSA,A,3,65,88,82,74,81,72,66,,,,,,1.0,0.6,0.9*24
$PSIWMPVT,2118.340,249858.000,3,49.1718202,-123.0687210,3.376,-0.011,-0.002,-0.026,4.950,3.317,7.590,0.500,0.354,0.000,14.360,0.082,18,*14
$PSIWMPOS,003518.850,4910.30921,N,12304.12326,W,8.40,3.38,M,5.94,0,8,0,2,0,*65
$PSIWMATT,003518.850,360.0,T,6.0,-0.8,180.0,*5A
$PSIWMVEL,003518.850,360.0,T,0.0,K,-0.00,M,*77
$PSIWMVSD,003518.850,0.00,0.00,0.00,2,0.00,0.00,0.00,2,*0D
$GPGGA,212401.000,4910.30921,N,12304.12326,W,1,18,0.6,003.38,M,-16.8,M,,*5A
$GPRMC,212401.000,A,4910.30921,N,12304.12326,W,0.0,0.0,161018,,,A*72
$GNGSA,A,3,11,24,27,08,18,01,21,10,20,14,32,,1.0,0.6,0.9*25
$GNGSA,A,3,65,88,82,74,81,72,66,,,,,,1.0,0.6,0.9*24
$PSIWMPVT,2119.340,249859.000,3,49.1718202,-123.0687210,3.376,0.003,0.010,-0.023,4.950,3.391,7.621,0.500,0.354,0.000,14.336,0.055,18,*1F
$PSIWMPOS,003519.850,4910.30921,N,12304.12326,W,8.40,3.38,M,5.94,0,8,0,2,0,*64
$PSIWMATT,003519.850,360.0,T,5.9,-0.7,180.0,*5E
$PSIWMVEL,003519.850,360.0,T,0.0,K,-0.00,M,*76
$PSIWMVSD,003519.850,0.00,0.00,0.00,2,0.00,0.00,0.00,2,*0C
$GPGGA,212402.000,4910.30921,N,12304.12326,W,1,18,0.6,003.38,M,-16.8,M,,*59
$GPRMC,212402.000,A,4910.30921,N,12304.12326,W,0.0,0.0,161018,,,A*71
$GNGSA,A,3,11,24,27,08,18,01,21,10,20,14,32,,1.0,0.6,0.9*25
$GNGSA,A,3,65,88,82,74,81,72,66,,,,,,1.0,0.6,0.9*24
$PSIWMPVT,2120.340,249860.000,3,49.1718202,-123.0687210,3.376,-0.009,0.014,-0.027,4.950,3.391,7.539,0.500,0.354,0.000,14.211,0.062,18,*32
$PSIWMPOS,003520.850,4910.30921,N,12304.12326,W,8.40,3.38,M,5.94,0,8,0,2,0,*6E
$PSIWMATT,003520.850,360.0,T,5.9,-0.7,180.0,*54
$PSIWMVEL,003520.850,360.0,T,0.0,K,-0.00,M,*7C
$PSIWMVSD,003520.850,0.00,0.00,0.00,2,0.00,0.00,0.00,2,*06
$GPGGA,212403.000,4910.30921,N,12304.12326,W,1,18,0.6,003.38,M,-16.8,M,,*58
$GPRMC,212403.000,A,4910.30921,N,12304.12326,W,0.0,0.0,161018,,,A*70
$GNGSA,A,3,11,24,27,08,18,01,21,10,20,14,32,,1.0,0.6,0.9*25
$GNGSA,A,3,65,88,82,74,81,72,66,,,,,,1.0,0.6,0.9*24
$PSIWMPVT,2121.340,249861.000,3,49.1718202,-123.0687210,3.376,-0.010,0.013,-0.029,4.950,3.391,6.434,0.500,0.354,0.000,12.245,0.105,18,*39
$PSIWMPOS,003521.850,4910.30921,N,12304.12326,W,8.40,3.38,M,5.94,0,8,0,2,0,*6F
$PSIWMATT,003521.850,360.0,T,5.9,-0.8,180.0,*5A
$PSIWMVEL,003521.850,360.0,T,0.0,K,-0.00,M,*7D
$PSIWMVSD,003521.850,0.00,0.00,0.00,2,0.00,0.00,0.00,2,*07
$GPGGA,212404.000,4910.30921,N,12304.12326,W,1,18,0.6,003.38,M,-16.8,M,,*5F
$GPRMC,212404.000,A,4910.30921,N,12304.12326,W,0.0,0.0,161018,,,A*77
$GNGSA,A,3,11,24,27,08,18,01,21,10,20,14,32,,1.0,0.6,0.9*25
$GNGSA,A,3,65,88,82,74,81,72,66,,,,,,1.0,0.6,0.9*24
$PSIWMPVT,2122.340,249862.000,3,49.1718202,-123.0687210,3.376,0.006,-0.001,-0.024,5.000,3.391,6.711,0.500,0.354,0.000,12.860,0.055,18,*30
$PSIWMPOS,003522.850,4910.30921,N,12304.12326,W,8.49,3.38,M,6.00,0,8,0,2,0,*6B
$PSIWMATT,003522.850,360.0,T,6.0,-0.7,180.0,*5C
$PSIWMVEL,003522.850,360.0,T,0.0,K,-0.00,M,*7E
$PSIWMVSD,003522.850,0.00,0.00,0.00,2,0.00,0.00,0.00,2,*04
$GPGGA,212405.000,4910.30921,N,12304.12326,W,1,18,0.6,003.38,M,-16.8,M,,*5E
$GPRMC,212405.000,A,4910.30921,N,12304.12326,W,0.0,0.0,161018,,,A*76
$GNGSA,A,3,11,24,27,08,18,01,21,10,20,14,32,,1.0,0.6,0.9*25
$GNGSA,A,3,65,88,82,74,81,72,66,,,,,,1.0,0.6,0.9*24
$PSIWMPVT,2123.340,249863.000,3,49.1718202,-123.0687210,3.376,-0.009,0.016,-0.022,5.000,3.391,6.668,0.500,0.354,0.000,12.465,0.098,18,*38
$PSIWMPOS,003523.850,4910.30921,N,12304.12326,W,8.49,3.38,M,6.00,0,8,0,2,0,*6A
$PSIWMATT,003523.850,360.0,T,6.0,-0.8,180.0,*52
$PSIWMVEL,003523.850,360.0,T,0.0,K,-0.00,M,*7F
$PSIWMVSD,003523.850,0.00,0.00,0.00,2,0.00,0.00,0.00,2,*05
$GPGGA,212406.000,4910.30921,N,12304.12326,W,1,18,0.6,003.38,M,-16.8,M,,*5D
$GPRMC,212406.000,A,4910.30921,N,12304.12326,W,0.0,0.0,161018,,,A*75
$GNGSA,A,3,11,24,27,08,18,01,21,10,20,14,32,,1.0,0.6,0.9*25
$GNGSA,A,3,65,88,82,74,81,72,66,,,,,,1.0,0.6,0.9*24
$PSIWMPVT,2124.340,249864.000,3,49.1718202,-123.0687210,3.376,-0.005,0.011,-0.016,5.000,3.464,6.816,0.500,0.354,0.000,13.057,0.102,18,*38
$PSIWMPOS,003524.850,4910.30921,N,12304.12326,W,8.49,3.38,M,6.00,0,8,0,2,0,*6D
$PSIWMATT,003524.850,360.0,T,6.0,-0.8,180.0,*55
$PSIWMVEL,003524.850,360.0,T,0.0,K,-0.00,M,*78
$PSIWMVSD,003524.850,0.00,0.00,0.00,2,0.00,0.00,0.00,2,*02
$GPGGA,212407.000,4910.30921,N,12304.12326,W,1,18,0.6,003.38,M,-16.8,M,,*5C
$GPRMC,212407.000,A,4910.30921,N,12304.12326,W,0.0,0.0,161018,,,A*74
$GNGSA,A,3,11,24,27,08,18,01,21,10,20,14,32,,1.0,0.6,0.9*25
$GNGSA,A,3,65,88,82,74,81,72,66,,,,,,1.0,0.6,0.9*24
$PSIWMPVT,2125.340,249864.999,3,49.1718202,-123.0687210,3.376,-0.014,0.011,-0.019,5.000,3.464,7.109,0.500,0.354,0.000,13.648,0.094,18,*3F
$PSIWMPOS,003525.850,4910.30921,N,12304.12326,W,8.49,3.38,M,6.00,0,8,0,2,0,*6C
$PSIWMATT,003525.850,360.0,T,6.0,-0.8,180.0,*54
$PSIWMVEL,003525.850,360.0,T,0.0,K,-0.00,M,*79
$PSIWMVSD,003525.850,0.00,0.00,0.00,2,0.00,0.00,0.00,2,*03
$GPGGA,212408.000,4910.30921,N,12304.12326,W,1,18,0.6,003.38,M,-16.8,M,,*53
$GPRMC,212408.000,A,4910.30921,N,12304.12326,W,0.0,0.0,161018,,,A*7B
$GNGSA,A,3,11,24,27,08,18,01,21,10,20,14,32,,1.0,0.6,0.9*25
$GNGSA,A,3,65,88,82,74,81,72,66,,,,,,1.0,0.6,0.9*24
$PSIWMPVT,2126.340,249865.999,3,49.1718202,-123.0687210,3.376,-0.003,0.003,-0.020,5.000,3.464,7.215,0.500,0.354,0.000,13.840,0.043,18,*30
$PSIWMPOS,003526.850,4910.30921,N,12304.12326,W,8.49,3.38,M,6.00,0,8,0,2,0,*6F
$PSIWMATT,003526.850,360.0,T,6.0,-0.8,180.0,*57
$PSIWMVEL,003526.850,360.0,T,0.0,K,-0.00,M,*7A
$PSIWMVSD,003526.850,0.00,0.00,0.00,2,0.00,0.00,0.00,2,*00
$GPGGA,212409.000,4910.30921,N,12304.12326,W,1,18,0.6,003.38,M,-16.8,M,,*52
$GPRMC,212409.000,A,4910.30921,N,12304.12326,W,0.0,0.0,161018,,,A*7A
$GNGSA,A,3,11,24,27,08,18,01,21,10,20,14,32,,1.0,0.6,0.9*25
$GNGSA,A,3,65,88,82,74,81,72,66,,,,,,1.0,0.6,0.9*24
$PSIWMPVT,2127.340,249866.999,3,49.1718202,-123.0687210,3.376,-0.001,0.004,-0.020,5.050,3.464,7.891,0.500,0.354,0.000,15.129,0.117,18,*34
$PSIWMPOS,003527.850,4910.30921,N,12304.12326,W,8.57,3.38,M,6.06,0,8,0,2,0,*67
$PSIWMATT,003527.850,360.0,T,6.0,-0.7,180.0,*59
$PSIWMVEL,003527.850,360.0,T,0.0,K,-0.00,M,*7B
$PSIWMVSD,003527.850,0.00,0.00,0.00,2,0.00,0.00,0.00,2,*01
$GPGGA,212410.000,4910.30921,N,12304.12326,W,1,18,0.6,003.38,M,-16.8,M,,*5A
$GPRMC,212410.000,A,4910.30921,N,12304.12326,W,0.0,0.0,161018,,,A*72
$GNGSA,A,3,11,24,27,08,18,01,21,10,20,14,32,,1.0,0.6,0.8*24
$GNGSA,A,3,65,88,82,74,81,72,66,,,,,,1.0,0.6,0.8*25
$PSIWMPVT,2128.340,249867.999,3,49.1718202,-123.0687210,3.376,-0.014,0.005,-0.028,5.050,3.464,8.590,0.500,0.354,0.000,17.002,0.066,18,*39
$PSIWMPOS,003528.850,4910.30921,N,12304.12326,W,8.57,3.38,M,6.06,0,8,0,2,0,*68
$PSIWMATT,003528.850,360.0,T,6.0,-0.8,180.0,*59
$PSIWMVEL,003528.850,360.0,T,0.0,K,-0.00,M,*74
$PSIWMVSD,003528.850,0.00,0.00,0.00,2,0.00,0.00,0.00,2,*0E
$GPGGA,212411.000,4910.30921,N,12304.12326,W,1,18,0.6,003.38,M,-16.8,M,,*5B
$GPRMC,212411.000,A,4910.30921,N,12304.12326,W,0.0,0.0,161018,,,A*73
$GNGSA,A,3,11,24,27,08,18,01,21,10,20,14,32,,1.0,0.6,0.8*24
$GNGSA,A,3,65,88,82,74,81,72,66,,,,,,1.0,0.6,0.8*25
$PSIWMPVT,2129.340,249868.999,3,49.1718202,-123.0687210,3.376,-0.005,0.004,-0.028,5.050,3.536,8.531,0.500,0.354,0.000,17.664,0.078,18,*32
$PSIWMPOS,003529.850,4910.30921,N,12304.12326,W,8.57,3.38,M,6.06,0,8,0,2,0,*69
$PSIWMATT,003529.850,360.0,T,6.0,-0.8,180.0,*58
$PSIWMVEL,003529.850,360.0,T,0.0,K,-0.00,M,*75
$PSIWMVSD,003529.850,0.00,0.00,0.00,2,0.00,0.00,0.00,2,*0F
$GPGGA,212412.000,4910.30921,N,12304.12326,W,1,18,0.6,003.38,M,-16.8,M,,*58
$GPRMC,212412.000,A,4910.30921,N,12304.12326,W,0.0,0.0,161018,,,A*70
$GNGSA,A,3,11,24,27,08,18,01,21,10,20,14,32,,1.0,0.6,0.8*24
$GNGSA,A,3,65,88,82,74,81,72,66,,,,,,1.0,0.6,0.8*25
$PSIWMPVT,2130.340,249869.999,3,49.1718202,-123.0687210,3.376,-0.005,0.002,-0.024,5.050,3.536,9.023,0.500,0.354,0.000,18.799,0.059,18,*39
$PSIWMPOS,003530.850,4910.30921,N,12304.12326,W,8.57,3.38,M,6.06,0,8,0,2,0,*61
$PSIWMATT,003530.850,360.0,T,6.0,-0.8,180.0,*50
$PSIWMVEL,003530.850,360.0,T,0.0,K,-0.00,M,*7D
$PSIWMVSD,003530.850,0.00,0.00,0.00,2,0.00,0.00,0.00,2,*07
$GPGGA,212413.000,4910.30921,N,12304.12326,W,1,19,0.6,003.38,M,-16.8,M,,*58
$GPRMC,212413.000,A,4910.30921,N,12304.12326,W,0.0,0.0,161018,,,A*71
$GNGSA,A,3,11,24,27,08,18,01,21,10,20,14,32,,1.0,0.6,0.8*24
$GNGSA,A,3,65,88,82,74,81,72,66,75,,,,,1.0,0.6,0.8*27
$PSIWMPVT,2131.340,249870.999,3,49.1718202,-123.0687210,3.376,-0.002,-0.001,-0.021,5.050,3.536,7.887,0.500,0.354,0.000,17.484,0.188,19,*18
$PSIWMPOS,003531.850,4910.30921,N,12304.12326,W,8.57,3.38,M,6.06,0,8,0,2,0,*60
$PSIWMATT,003531.850,360.0,T,6.0,-0.7,180.0,*5E
$PSIWMVEL,003531.850,360.0,T,0.0,K,-0.00,M,*7C
$PSIWMVSD,003531.850,0.00,0.00,0.00,2,0.00,0.00,0.00,2,*06
$GPGGA,212414.000,4910.30921,N,12304.12326,W,1,19,0.6,003.38,M,-16.8,M,,*5F
$GPRMC,212414.000,A,4910.30921,N,12304.12326,W,0.0,0.0,161018,,,A*76
$GNGSA,A,3,11,24,27,08,18,01,21,10,20,14,32,,1.0,0.6,0.8*24
$GNGSA,A,3,65,88,82,74,81,72,66,75,,,,,1.0,0.6,0.8*27
$PSIWMPVT,2132.340,249871.999,3,49.1718202,-123.0687210,3.376,-0.004,0.004,-0.015,5.099,3.536,7.242,0.500,0.354,0.000,16.196,0.055,19,*33
$PSIWMPOS,003532.850,4910.30921,N,12304.12326,W,8.65,3.38,M,6.12,0,8,0,2,0,*67
$PSIWMATT,003532.850,360.0,T,6.0,-0.7,180.0,*5D
$PSIWMVEL,003532.850,360.0,T,0.0,K,-0.00,M,*7F
$PSIWMVSD,003532.850,0.00,0.00,0.00,2,0.00,0.00,0.00,2,*05
$GPGGA,212415.000,4910.30921,N,12304.12326,W,1,19,0.6,003.38,M,-16.8,M,,*5E
$GPRMC,212415.000,A,4910.30921,N,12304.12326,W,0.0,0.0,161018,,,A*77
$GNGSA,A,3,11,24,27,08,18,01,21,10,20,14,32,,1.0,0.6,0.8*24
$GNGSA,A,3,65,88,82,74,81,72,66,75,,,,,1.0,0.6,0.8*27
$PSIWMPVT,2133.340,249872.999,3,49.1718202,-123.0687210,3.376,0.002,-0.007,-0.009,5.099,3.536,8.199,0.500,0.354,0.000,18.304,0.168,19,*3B
$PSIWMPOS,003533.850,4910.30921,N,12304.12326,W,8.65,3.38,M,6.12,0,8,0,2,0,*66
$PSIWMATT,003533.850,360.0,T,6.0,-0.7,180.0,*5C
$PSIWMVEL,003533.850,360.0,T,0.0,K,-0.00,M,*7E
$PSIWMVSD,003533.850,0.00,0.00,0.00,2,0.00,0.00,0.00,2,*04
$GPGGA,212416.000,4910.30921,N,12304.12326,W,1,19,0.6,003.38,M,-16.8,M,,*5D
$GPRMC,212416.000,A,4910.30921,N,12304.12326,W,0.0,0.0,161018,,,A*74
$GNGSA,A,3,11,24,27,08,18,01,21,10,20,14,32,,1.0,0.6,0.8*24
$GNGSA,A,3,65,88,82,74,81,72,66,75,,,,,1.0,0.6,0.8*27
$PSIWMPVT,2134.340,249874.000,3,49.1718202,-123.0687210,3.376,-0.001,-0.002,-0.004,5.099,3.606,8.074,0.500,0.354,0.000,17.730,0.195,19,*19
$PSIWMPOS,003534.850,4910.30921,N,12304.12326,W,8.65,3.38,M,6.12,0,8,0,2,0,*61
$PSIWMATT,003534.850,360.0,T,6.0,-0.8,180.0,*54
$PSIWMVEL,003534.850,360.0,T,0.0,K,-0.00,M,*79
$PSIWMVSD,003534.850,0.00,0.00,0.00,2,0.00,0.00,0.00,2,*03
$GPGGA,212417.000,4910.30921,N,12304.12326,W,1,19,0.6,003.38,M,-16.8,M,,*5C
$GPRMC,212417.000,A,4910.30921,N,12304.12326,W,0.0,0.0,161018,,,A*75
$GNGSA,A,3,11,24,27,08,18,01,21,10,20,14,32,,1.0,0.6,0.8*24
$GNGSA,A,3,65,88,82,74,81,72,66,75,,,,,1.0,0.6,0.8*27
$PSIWMPVT,2135.340,249875.000,3,49.1718202,-123.0687210,3.376,-0.001,-0.014,-0.000,5.099,3.606,8.242,0.500,0.354,0.000,18.097,0.086,19,*1B
$PSIWMPOS,003535.850,4910.30921,N,12304.12326,W,8.65,3.38,M,6.12,0,8,0,2,0,*60
$PSIWMATT,003535.850,360.0,T,6.0,-0.7,180.0,*5A
$PSIWMVEL,003535.850,360.0,T,0.0,K,-0.00,M,*78
$PSIWMVSD,003535.850,0.00,0.00,0.00,2,0.00,0.00,0.00,2,*02
$GPGGA,212418.000,4910.30921,N,12304.12326,W,1,19,0.6,003.38,M,-16.8,M,,*53
$GPRMC,212418.000,A,4910.30921,N,12304.12326,W,0.0,0.0,161018,,,A*7A
$GNGSA,A,3,11,24,27,08,18,01,21,10,20,14,32,,1.0,0.6,0.8*24
$GNGSA,A,3,65,88,82,74,81,72,66,75,,,,,1.0,0.6,0.8*27
$PSIWMPVT,2136.340,249875.999,3,49.1718202,-123.0687210,3.376,-0.015,-0.005,-0.002,5.099,3.606,8.051,0.500,0.354,0.000,18.231,0.059,19,*1A
$PSIWMPOS,003536.850,4910.30921,N,12304.12326,W,8.65,3.38,M,6.12,0,8,0,2,0,*63
$PSIWMATT,003536.850,360.0,T,6.0,-0.7,180.0,*59
$PSIWMVEL,003536.850,360.0,T,0.0,K,-0.00,M,*7B
$PSIWMVSD,003536.850,0.00,0.00,0.00,2,0.00,0.00,0.00,2,*01
$GPGGA,212419.000,4910.30921,N,12304.12326,W,1,19,0.6,003.38,M,-16.8,M,,*52
$GPRMC,212419.000,A,4910.30921,N,12304.12326,W,0.0,0.0,161018,,,A*7B
$GNGSA,A,3,11,24,27,08,18,01,21,10,20,14,32,,1.0,0.6,0.8*24
$GNGSA,A,3,65,88,82,74,81,72,66,75,,,,,1.0,0.6,0.8*27
$PSIWMPVT,2137.340,249876.999,3,49.1718202,-123.0687210,3.376,-0.015,0.014,-0.008,5.148,3.606,7.824,0.500,0.354,0.000,19.307,0.062,19,*3A
$PSIWMPOS,003537.850,4910.30921,N,12304.12326,W,8.74,3.38,M,6.18,0,8,0,2,0,*68
$PSIWMATT,003537.850,360.0,T,5.9,-0.7,180.0,*52
$PSIWMVEL,003537.850,360.0,T,0.0,K,-0.00,M,*7A
$PSIWMVSD,003537.850,0.00,0.00,0.00,2,0.00,0.00,0.00,2,*00
$GPGGA,212420.000,4910.30921,N,12304.12326,W,1,19,0.6,003.38,M,-16.8,M,,*58
$GPRMC,212420.000,A,4910.30921,N,12304.12326,W,0.0,0.0,161018,,,A*71
$GNGSA,A,3,11,24,27,08,18,01,21,10,20,14,32,,1.0,0.6,0.8*24
$GNGSA,A,3,65,88,82,74,81,72,66,75,,,,,1.0,0.6,0.8*27
$PSIWMPVT,2138.340,249878.000,3,49.1718202,-123.0687210,3.376,-0.002,0.009,-0.005,5.148,3.606,7.812,0.500,0.354,0.000,18.809,0.172,19,*34
$PSIWMPOS,003538.850,4910.30921,N,12304.12326,W,8.74,3.38,M,6.18,0,8,0,2,0,*67
$PSIWMATT,003538.850,360.0,T,5.9,-0.7,180.0,*5D
$PSIWMVEL,003538.850,360.0,T,0.0,K,-0.00,M,*75
$PSIWMVSD,003538.850,0.00,0.00,0.00,2,0.00,0.00,0.00,2,*0F
$GPGGA,212421.000,4910.30921,N,12304.12326,W,1,18,0.6,003.38,M,-16.8,M,,*58
$GPRMC,212421.000,A,4910.30921,N,12304.12326,W,0.0,0.0,161018,,,A*70
$GNGSA,A,3,11,24,27,08,18,01,21,10,20,14,32,,1.0,0.6,0.8*24
$GNGSA,A,3,65,88,82,74,81,72,66,,,,,,1.0,0.6,0.8*25
$PSIWMPVT,2139.340,249879.000,3,49.1718202,-123.0687210,3.376,-0.008,-0.002,-0.008,5.148,3.674,7.941,0.500,0.354,0.000,19.252,0.176,18,*17
$PSIWMPOS,003539.850,4910.30921,N,12304.12326,W,8.74,3.38,M,6.18,0,8,0,2,0,*66
$PSIWMATT,003539.850,360.0,T,6.0,-0.8,180.0,*59
$PSIWMVEL,003539.850,360.0,T,0.0,K,-0.00,M,*74
$PSIWMVSD,003539.850,0.00,0.00,0.00,2,0.00,0.00,0.00,2,*0E
$GPGGA,212422.000,4910.30921,N,12304.12326,W,1,19,0.6,003.38,M,-16.8,M,,*5A
$GPRMC,212422.000,A,4910.30921,N,12304.12326,W,0.0,0.0,161018,,,A*73
$GNGSA,A,3,11,24,27,08,18,01,21,10,20,14,32,,1.0,0.6,0.8*24
$GNGSA,A,3,65,88,82,74,81,72,73,66,,,,,1.0,0.6,0.8*21
$PSIWMPVT,2140.340,249879.999,3,49.1718202,-123.0687210,3.376,-0.002,-0.000,-0.005,5.148,3.674,8.375,0.500,0.354,0.000,19.691,0.156,19,*1F
$PSIWMPOS,003540.850,4910.30921,N,12304.12326,W,8.74,3.38,M,6.18,0,8,0,2,0,*68
$PSIWMATT,003540.850,360.0,T,6.0,-0.8,180.0,*57
$PSIWMVEL,003540.850,360.0,T,0.0,K,-0.00,M,*7A
$PSIWMVSD,003540.850,0.00,0.00,0.00,2,0.00,0.00,0.00,2,*00
$GPGGA,212423.000,4910.30921,N,12304.12326,W,1,19,0.6,003.38,M,-16.8,M,,*5B
$GPRMC,212423.000,A,4910.30921,N,12304.12326,W,0.0,0.0,161018,,,A*72
$GNGSA,A,3,11,24,27,08,18,01,21,10,20,14,32,,1.0,0.6,0.8*24
$GNGSA,A,3,65,88,82,74,81,72,73,66,,,,,1.0,0.6,0.8*21
$PSIWMPVT,2141.340,249880.999,3,49.1718202,-123.0687210,3.376,-0.010,0.008,-0.008,5.148,3.674,8.355,0.500,0.354,0.000,19.190,0.082,19,*3F
$PSIWMPOS,003541.850,4910.30921,N,12304.12326,W,8.74,3.38,M,6.18,0,8,0,2,0,*69
$PSIWMATT,003541.850,360.0,T,6.0,-0.8,180.0,*56
$PSIWMVEL,003541.850,360.0,T,0.0,K,-0.00,M,*7B
$PSIWMVSD,003541.850,0.00,0.00,0.00,2,0.00,0.00,0.00,2,*01
$GPGGA,212424.000,4910.30921,N,12304.12326,W,1,18,0.6,003.38,M,-16.8,M,,*5D
$GPRMC,212424.000,A,4910.30921,N,12304.12326,W,0.0,0.0,161018,,,A*75
$GNGSA,A,3,11,24,27,08,18,01,21,10,20,14,32,,1.0,0.6,0.8*24
$GNGSA,A,3,65,88,82,74,81,72,66,,,,,,1.0,0.6,0.8*25
$PSIWMPVT,2142.340,249882.000,3,49.1718202,-123.0687210,3.376,-0.005,-0.011,-0.007,5.196,3.674,9.160,0.500,0.354,0.000,21.912,0.078,18,*12
$PSIWMPOS,003542.850,4910.30921,N,12304.12326,W,8.82,3.38,M,6.24,0,8,0,2,0,*6C
$PSIWMATT,003542.850,360.0,T,6.0,-0.8,180.0,*55
$PSIWMVEL,003542.850,360.0,T,0.0,K,-0.00,M,*78
$PSIWMVSD,003542.850,0.00,0.00,0.00,2,0.00,0.00,0.00,2,*02
$GPGGA,212425.000,4910.30921,N,12304.12326,W,1,18,0.6,003.38,M,-16.8,M,,*5C
$GPRMC,212425.000,A,4910.30921,N,12304.12326,W,0.0,0.0,161018,,,A*74
$GNGSA,A,3,11,24,27,08,18,01,21,10,20,14,32,,1.0,0.6,0.8*24
$GNGSA,A,3,65,88,82,74,81,72,66,,,,,,1.0,0.6,0.8*25
$PSIWMPVT,2143.340,249883.000,3,49.1718202,-123.0687210,3.376,-0.013,0.006,-0.006,5.196,3.674,8.707,0.500,0.354,0.000,21.252,0.082,18,*33
$PSIWMPOS,003543.850,4910.30921,N,12304.12326,W,8.82,3.38,M,6.24,0,8,0,2,0,*6D
$PSIWMATT,003543.850,360.0,T,6.0,-0.8,180.0,*54
$PSIWMVEL,003543.850,360.0,T,0.0,K,-0.00,M,*79
$PSIWMVSD,003543.850,0.00,0.00,0.00,2,0.00,0.00,0.00,2,*03
$GPGGA,212426.000,4910.30921,N,12304.12326,W,1,18,0.6,003.38,M,-16.8,M,,*5F
$GPRMC,212426.000,A,4910.30921,N,12304.12326,W,0.0,0.0,161018,,,A*77
$GNGSA,A,3,11,24,27,08,18,01,21,10,20,14,32,,1.0,0.6,0.9*25
$GNGSA,A,3,65,88,82,74,81,72,66,,,,,,1.0,0.6,0.9*24
$PSIWMPVT,2144.340,249884.000,3,49.1718202,-123.0687210,3.376,-0.016,-0.004,-0.007,5.196,3.742,8.605,0.500,0.354,0.000,18.667,0.086,18,*13
$PSIWMPOS,003544.850,4910.30921,N,12304.12326,W,8.82,3.38,M,6.24,0,8,0,2,0,*6A
$PSIWMATT,003544.850,360.0,T,6.0,-0.8,180.0,*53
$PSIWMVEL,003544.850,360.0,T,0.0,K,-0.00,M,*7E
$PSIWMVSD,003544.850,0.00,0.00,0.00,2,0.00,0.00,0.00,2,*04
$GPGGA,212427.000,4910.30921,N,12304.12326,W,1,18,0.6,003.38,M,-16.8,M,,*5E
$GPRMC,212427.000,A,4910.30921,N,12304.12326,W,0.0,0.0,161018,,,A*76
$GNGSA,A,3,11,24,27,08,18,01,21,10,20,14,32,,1.0,0.6,0.9*25
$GNGSA,A,3,65,88,82,74,81,72,66,,,,,,1.0,0.6,0.9*24
$PSIWMPVT,2145.330,249884.999,3,49.1718202,-123.0687210,3.376,-0.014,0.002,-0.013,5.196,3.742,7.707,0.500,0.354,0.000,18.603,0.125,18,*36
$PSIWMPOS,003545.850,4910.30921,N,12304.12326,W,8.82,3.38,M,6.24,0,8,0,2,0,*6B
$PSIWMATT,003545.850,360.0,T,6.0,-0.8,180.0,*52
$PSIWMVEL,003545.850,360.0,T,0.0,K,-0.00,M,*7F
$PSIWMVSD,003545.850,0.00,0.00,0.00,2,0.00,0.00,0.00,2,*05
$GPGGA,212428.000,4910.30921,N,12304.12326,W,1,18,0.6,003.38,M,-16.8,M,,*51
$GPRMC,212428.000,A,4910.30921,N,12304.12326,W,0.0,0.0,161018,,,A*79
$GNGSA,A,3,11,24,27,08,18,01,21,10,20,14,32,,1.0,0.6,0.9*25
$GNGSA,A,3,65,88,82,74,81,72,66,,,,,,1.0,0.6,0.9*24
$PSIWMPVT,2146.340,249886.000,3,49.1718202,-123.0687210,3.376,-0.012,0.007,-0.008,5.196,3.742,7.520,0.500,0.354,0.000,17.696,0.023,18,*33
$PSIWMPOS,003546.850,4910.30921,N,12304.12326,W,8.82,3.38,M,6.24,0,8,0,2,0,*68
$PSIWMATT,003546.850,360.0,T,6.0,-0.8,180.0,*51
$PSIWMVEL,003546.850,360.0,T,0.0,K,-0.00,M,*7C
$PSIWMVSD,003546.850,0.00,0.00,0.00,2,0.00,0.00,0.00,2,*06
$GPGGA,212429.000,4910.30921,N,12304.12326,W,1,19,0.6,003.38,M,-16.8,M,,*51
$GPRMC,212429.000,A,4910.30921,N,12304.12326,W,0.0,0.0,161018,,,A*78
$GNGSA,A,3,11,24,27,08,18,01,21,10,20,14,32,,1.0,0.6,0.9*25
$GNGSA,A,3,65,88,82,74,81,72,66,75,,,,,1.0,0.6,0.9*26
$PSIWMPVT,2147.340,249887.000,3,49.1718202,-123.0687210,3.376,-0.002,0.001,-0.004,5.244,3.742,5.801,0.500,0.354,0.000,16.490,0.012,19,*3E
$PSIWMPOS,003547.850,4910.30921,N,12304.12326,W,8.90,3.38,M,6.29,0,8,0,2,0,*67
$PSIWMATT,003547.850,360.0,T,6.0,-0.8,180.0,*50
$PSIWMVEL,003547.850,360.0,T,0.0,K,-0.00,M,*7D
$PSIWMVSD,003547.850,0.00,0.00,0.00,2,0.00,0.00,0.00,2,*07
$GPGGA,212430.000,4910.30921,N,12304.12326,W,1,19,0.6,003.38,M,-16.8,M,,*59
$GPRMC,212430.000,A,4910.30921,N,12304.12326,W,0.0,0.0,161018,,,A*70
$GNGSA,A,3,11,24,27,08,18,01,21,10,20,14,32,,1.0,0.6,0.9*25
$GNGSA,A,3,65,88,82,74,81,72,66,75,,,,,1.0,0.6,0.9*26
$PSIWMPVT,2148.340,249888.000,3,49.1718202,-123.0687210,3.376,-0.002,-0.015,-0.004,5.244,3.742,5.715,0.500,0.354,0.000,17.555,0.062,19,*12
$PSIWMPOS,003548.850,4910.30921,N,12304.12326,W,8.90,3.38,M,6.29,0,8,0,2,0,*68
$PSIWMATT,003548.850,360.0,T,6.0,-0.8,180.0,*5F
$PSIWMVEL,003548.850,360.0,T,0.0,K,-0.00,M,*72
$PSIWMVSD,003548.850,0.00,0.00,0.00,2,0.00,0.00,0.00,2,*08
$GPGGA,212431.000,4910.30921,N,12304.12326,W,1,19,0.6,003.38,M,-16.8,M,,*58
$GPRMC,212431.000,A,4910.30921,N,12304.12326,W,0.0,0.0,161018,,,A*71
$GNGSA,A,3,11,24,27,08,18,01,21,10,20,14,32,,1.0,0.6,0.9*25
$GNGSA,A,3,65,88,82,74,81,72,66,75,,,,,1.0,0.6,0.9*26
$PSIWMPVT,2149.340,249888.999,3,49.1718202,-123.0687210,3.376,-0.009,0.005,-0.000,5.244,3.808,5.891,0.500,0.354,0.000,18.345,0.188,19,*36
$PSIWMPOS,003549.850,4910.30921,N,12304.12326,W,8.90,3.38,M,6.29,0,8,0,2,0,*69
$PSIWMATT,003549.850,360.0,T,6.0,-0.8,180.0,*5E
$PSIWMVEL,003549.850,360.0,T,0.0,K,-0.00,M,*73
$PSIWMVSD,003549.850,0.00,0.00,0.00,2,0.00,0.00,0.00,2,*09
$GPGGA,212432.000,4910.30921,N,12304.12326,W,1,19,0.6,003.38,M,-16.8,M,,*5B
$GPRMC,212432.000,A,4910.30921,N,12304.12326,W,0.0,0.0,161018,,,A*72
$GNGSA,A,3,11,24,27,08,18,01,21,10,20,14,32,,1.0,0.6,0.9*25
$GNGSA,A,3,65,88,82,74,81,72,66,75,,,,,1.0,0.6,0.9*26
$PSIWMPVT,2150.340,249890.000,3,49.1718202,-123.0687210,3.376,-0.011,-0.006,-0.008,5.244,3.808,6.262,0.500,0.354,0.000,18.131,0.172,19,*10
$PSIWMPOS,003550.850,4910.30921,N,12304.12326,W,8.90,3.38,M,6.29,0,8,0,2,0,*61
$PSIWMATT,003550.850,360.0,T,6.0,-0.8,180.0,*56
$PSIWMVEL,003550.850,360.0,T,0.0,K,-0.00,M,*7B
$PSIWMVSD,003550.850,0.00,0.00,0.00,2,0.00,0.00,0.00,2,*01
$GPGGA,212433.000,4910.30921,N,12304.12326,W,1,19,0.6,003.38,M,-16.8,M,,*5A
$GPRMC,212433.000,A,4910.30921,N,12304.12326,W,0.0,0.0,161018,,,A*73
$GNGSA,A,3,11,24,27,08,18,01,21,10,20,14,32,,1.0,0.6,0.9*25
$GNGSA,A,3,65,88,82,74,81,72,66,75,,,,,1.0,0.6,0.9*26
$PSIWMPVT,2151.340,249891.000,3,49.1718202,-123.0687210,3.376,-0.017,-0.014,-0.009,5.244,3.808,5.504,0.500,0.354,0.000,17.275,0.262,19,*1E
$PSIWMPOS,003551.850,4910.30921,N,12304.12326,W,8.90,3.38,M,6.29,0,8,0,2,0,*60
$PSIWMATT,003551.850,360.0,T,6.0,-0.8,180.0,*57
$PSIWMVEL,003551.850,360.0,T,0.0,K,-0.00,M,*7A
$PSIWMVSD,003551.850,0.00,0.00,0.00,2,0.00,0.00,0.00,2,*00
$GPGGA,212434.000,4910.30921,N,12304.12326,W,1,19,0.6,003.38,M,-16.8,M,,*5D
$GPRMC,212434.000,A,4910.30921,N,12304.12326,W,0.1,0.0,161018,,,A*75
$GNGSA,A,3,11,24,27,08,18,01,21,10,20,14,32,,1.0,0.6,0.9*25
$GNGSA,A,3,65,88,82,74,81,72,66,75,,,,,1.0,0.6,0.9*26
$PSIWMPVT,2152.340,249892.000,3,49.1718202,-123.0687210,3.376,-0.024,0.011,-0.015,5.292,3.808,6.246,0.500,0.354,0.000,19.237,0.047,19,*3F
$PSIWMPOS,003552.850,4910.30921,N,12304.12326,W,8.98,3.38,M,6.35,0,8,0,2,0,*66
$PSIWMATT,003552.850,360.0,T,6.0,-0.8,180.0,*54
$PSIWMVEL,003552.850,360.0,T,0.0,K,-0.00,M,*79
$PSIWMVSD,003552.850,0.00,0.00,0.00,2,0.00,0.00,0.00,2,*03
$GPGGA,212435.000,4910.30921,N,12304.12326,W,1,19,0.6,003.38,M,-16.8,M,,*5C
$GPRMC,212435.000,A,4910.30921,N,12304.12326,W,0.0,0.0,161018,,,A*75
$GNGSA,A,3,11,24,27,08,18,01,21,10,20,14,32,,1.0,0.6,0.9*25
$GNGSA,A,3,65,88,82,74,81,72,66,75,,,,,1.0,0.6,0.9*26
$PSIWMPVT,2153.340,249893.000,3,49.1718202,-123.0687210,3.376,0.003,-0.020,-0.016,5.292,3.808,6.172,0.500,0.354,0.000,20.043,0.168,19,*38
$PSIWMPOS,003553.850,4910.30921,N,12304.12326,W,8.98,3.38,M,6.35,0,8,0,2,0,*67
$PSIWMATT,003553.850,360.0,T,6.0,-0.8,180.0,*55
$PSIWMVEL,003553.850,360.0,T,0.0,K,-0.00,M,*78
$PSIWMVSD,003553.850,0.00,0.00,0.00,2,0.00,0.00,0.00,2,*02
$GPGGA,212436.000,4910.30921,N,12304.12326,W,1,18,0.6,003.38,M,-16.8,M,,*5E
$GPRMC,212436.000,A,4910.30921,N,12304.12326,W,0.0,0.0,161018,,,A*76
$GNGSA,A,3,11,24,27,08,18,01,10,20,14,32,,,1.0,0.6,0.9*26
$GNGSA,A,3,65,88,82,74,81,72,66,75,,,,,1.0,0.6,0.9*26
$PSIWMPVT,2154.340,249894.000,3,49.1718202,-123.0687210,3.376,-0.013,-0.000,-0.020,5.292,3.873,5.363,0.612,0.354,0.000,20.333,0.039,18,*1E
$PSIWMPOS,003554.850,4910.30921,N,12304.12326,W,8.98,3.38,M,6.35,0,8,0,2,0,*60
$PSIWMATT,003554.850,360.0,T,6.0,-0.8,180.0,*52
$PSIWMVEL,003554.850,360.0,T,0.0,K,-0.00,M,*7F
$PSIWMVSD,003554.850,0.00,0.00,0.00,2,0.00,0.00,0.00,2,*05
$GPGGA,212437.000,4910.30921,N,12304.12326,W,1,18,0.6,003.38,M,-16.8,M,,*5F
$GPRMC,212437.000,A,4910.30921,N,12304.12326,W,0.0,0.0,161018,,,A*77
$GNGSA,A,3,11,24,27,08,18,01,10,20,14,32,,,1.0,0.6,0.9*26
$GNGSA,A,3,65,88,82,74,81,72,66,75,,,,,1.0,0.6,0.9*26
$PSIWMPVT,2155.340,249895.000,3,49.1718202,-123.0687210,3.376,-0.016,-0.000,-0.023,5.292,3.873,5.305,0.612,0.354,0.000,20.685,0.133,18,*1B
$PSIWMPOS,003555.850,4910.30921,N,12304.12326,W,8.98,3.38,M,6.35,0,8,0,2,0,*61
$PSIWMATT,003555.850,360.0,T,6.0,-0.8,180.0,*53
$PSIWMVEL,003555.850,360.0,T,0.0,K,-0.00,M,*7E
$PSIWMVSD,003555.850,0.00,0.00,0.00,2,0.00,0.00,0.00,2,*04
$GPGGA,212438.000,4910.30921,N,12304.12326,W,1,18,0.6,003.38,M,-16.8,M,,*50
$GPRMC,212438.000,A,4910.30921,N,12304.12326,W,0.0,0.0,161018,,,A*78
$GNGSA,A,3,11,24,27,08,18,01,10,20,14,32,,,1.0,0.6,0.9*26
$GNGSA,A,3,65,88,82,74,81,72,66,75,,,,,1.0,0.6,0.9*26
