$GPRMC,215245.000,A,4910.32496,N,12304.20767,W,0.0,0.0,161018,,,A*70
$GNGSA,A,3,32,10,14,18,08,20,11,27,24,01,22,,1.2,0.6,1.0*2C
$GNGSA,A,3,66,65,74,82,75,81,88,67,,,,,1.2,0.6,1.0*28
$PSIWMPVT,366.930,251583.000,3,49.1720826,-123.0701279,14.272,0.002,-0.014,-0.041,5.431,3.937,3.184,0.354,0.000,0.000,6.084,0.184,19,*00
$GPGGA,215246.000,4910.32496,N,12304.20767,W,1,19,0.6,014.27,M,-16.8,M,,*52
$GPRMC,215246.000,A,4910.32496,N,12304.20767,W,0.0,0.0,161018,,,A*73
$GNGSA,A,3,32,10,14,18,08,20,11,27,24,01,22,,1.2,0.6,1.0*2C
$GNGSA,A,3,66,65,74,82,75,81,88,67,,,,,1.2,0.6,1.0*28
$PSIWMPVT,367.670,251584.000,3,49.1720826,-123.0701279,14.272,0.007,-0.000,-0.055,5.431,3.937,3.723,0.354,0.000,0.000,7.412,0.129,19,*0E
$PSIWMPDR,0.000,0.0000000,0.0000000,0.000,-1010101.125000000,-1010101.125000000,0,0.000000000,0.000000000,0.000000000,0.00,0.000000000,0.000000000,0.000000000,0.000000000,-1010101.125000000,24,*15
$GPGGA,215247.000,4910.32506,N,12304.20793,W,1,18,0.6,013.85,M,-16.8,M,,*5E
$GPRMC,215247.000,A,4910.32506,N,12304.20793,W,0.0,0.0,161018,,,A*71
$GNGSA,A,3,32,10,14,18,08,20,11,27,24,01,22,,1.2,0.6,1.0*2C
$GNGSA,A,3,66,65,74,82,81,88,67,,,,,,1.2,0.6,1.0*2A
$PSIWMPVT,368.670,251585.000,3,49.1720844,-123.0701321,13.855,-0.010,0.011,-0.026,5.148,3.464,3.945,0.354,0.000,0.000,8.315,0.105,18,*0C
$GPGGA,215248.000,4910.32506,N,12304.20793,W,1,18,0.6,013.85,M,-16.8,M,,*51
$GPRMC,215248.000,A,4910.32506,N,12304.20793,W,0.0,0.0,161018,,,A*7E
$GNGSA,A,3,32,10,14,18,08,20,11,27,24,01,22,,1.2,0.6,1.0*2C
$GNGSA,A,3,66,65,74,82,81,88,67,,,,,,1.2,0.6,1.0*2A
$PSIWMPVT,369.670,251586.000,3,49.1720844,-123.0701321,13.855,0.002,-0.000,-0.039,5.148,3.464,4.199,0.354,0.000,0.000,8.651,0.098,18,*0D
$PSIWMPOS,000609.900,4910.32506,N,12304.20793,W,141.42,13.85,M,100.00,0,8,0,2,0,*51
$PSIWMATT,000609.900,360.0,T,0.7,0.2,180.0,*78
$PSIWMVEL,000609.900,360.0,T,0.0,K,-0.00,M,*73
$PSIWMVSD,000609.900,0.00,0.00,0.00,2,0.00,0.00,0.00,2,*09
$GPGGA,215249.000,4910.32506,N,12304.20793,W,1,18,0.6,013.85,M,-16.8,M,,*50
$GPRMC,215249.000,A,4910.32506,N,12304.20793,W,0.0,0.0,161018,,,A*7F
$GNGSA,A,3,32,10,14,18,08,20,11,27,24,01,22,,1.2,0.6,1.0*2C
$GNGSA,A,3,66,65,74,82,81,88,67,,,,,,1.2,0.6,1.0*2A
$PSIWMPVT,370.690,251587.000,3,49.1720844,-123.0701321,13.855,0.006,-0.012,-0.059,5.148,3.536,3.656,0.354,0.000,0.000,7.341,0.199,18,*05
$PSIWMPOS,000610.900,4910.32506,N,12304.20793,W,7.28,13.85,M,5.15,0,8,0,2,0,*56
$PSIWMATT,000610.900,360.0,T,0.7,0.2,180.0,*70
$PSIWMVEL,000610.900,360.0,T,0.0,K,0.06,M,*50
$PSIWMVSD,000610.900,0.00,0.00,0.00,2,0.00,0.00,0.00,2,*01
$GPGGA,215250.000,4910.32506,N,12304.20793,W,1,18,0.6,013.85,M,-16.8,M,,*58
$GPRMC,215250.000,A,4910.32506,N,12304.20793,W,0.0,0.0,161018,,,A*77
$GNGSA,A,3,32,10,14,18,08,20,11,27,24,01,22,,1.2,0.6,1.0*2C
$GNGSA,A,3,66,65,74,82,81,88,67,,,,,,1.2,0.6,1.0*2A
$PSIWMPVT,371.690,251587.999,3,49.1720844,-123.0701321,13.855,0.018,0.007,-0.060,5.148,3.536,3.828,0.354,0.000,0.000,7.793,0.027,18,*29
$PSIWMPOS,000611.900,4910.32506,N,12304.20793,W,7.28,13.85,M,5.15,0,8,0,2,0,*57
$PSIWMATT,000611.900,360.0,T,0.7,0.1,180.0,*72
$PSIWMVEL,000611.900,360.0,T,0.0,K,-0.00,M,*7A
$PSIWMVSD,000611.900,0.00,0.00,0.00,2,0.00,0.00,0.00,2,*00
$GPGGA,215251.000,4910.32506,N,12304.20793,W,1,18,0.6,013.85,M,-16.8,M,,*59
$GPRMC,215251.000,A,4910.32506,N,12304.20793,W,0.0,0.0,161018,,,A*76
$GNGSA,A,3,32,10,14,18,08,20,11,27,24,01,22,,1.2,0.6,1.0*2C
$GNGSA,A,3,66,65,74,82,81,88,67,,,,,,1.2,0.6,1.0*2A
$PSIWMPVT,372.720,251588.999,3,49.1720844,-123.0701321,13.855,0.012,-0.019,-0.069,5.148,3.536,3.820,0.354,0.000,0.000,7.939,0.059,18,*01
$PSIWMPOS,000612.900,4910.32506,N,12304.20793,W,8.74,13.85,M,6.18,0,8,0,2,0,*5C
$PSIWMATT,000612.900,360.0,T,0.8,0.3,180.0,*7C
$PSIWMVEL,000612.900,360.0,T,0.0,K,-0.00,M,*79
$PSIWMVSD,000612.900,0.00,0.00,0.00,2,0.00,0.00,0.00,2,*03
$GPGGA,215252.000,4910.32506,N,12304.20793,W,1,18,0.6,013.85,M,-16.8,M,,*5A
$GPRMC,215252.000,A,4910.32506,N,12304.20793,W,0.0,0.0,161018,,,A*75
$GNGSA,A,3,32,10,14,18,08,20,11,27,24,01,22,,1.2,0.6,1.0*2C
$GNGSA,A,3,66,65,74,82,81,88,67,,,,,,1.2,0.6,1.0*2A
$PSIWMPVT,373.720,251589.999,3,49.1720844,-123.0701321,13.855,0.008,-0.006,-0.059,5.196,3.536,4.086,0.354,0.000,0.000,8.395,0.035,18,*0E
$PSIWMPOS,000613.900,4910.32506,N,12304.20793,W,8.82,13.85,M,6.24,0,8,0,2,0,*5B
$PSIWMATT,000613.900,360.0,T,0.6,0.2,180.0,*72
$PSIWMVEL,000613.900,360.0,T,0.0,K,-0.00,M,*78
$PSIWMVSD,000613.900,0.00,0.00,0.00,2,0.00,0.00,0.00,2,*02
$GPGGA,215253.000,4910.32506,N,12304.20793,W,1,17,0.6,013.85,M,-16.8,M,,*54
$GPRMC,215253.000,A,4910.32506,N,12304.20793,W,0.0,0.0,161018,,,A*74
$GNGSA,A,3,32,10,14,18,08,20,11,27,24,01,,,1.2,0.6,1.0*2C
$GNGSA,A,3,66,65,74,82,81,88,67,,,,,,1.2,0.6,1.0*2A
$PSIWMPVT,374.720,251591.000,3,49.1720844,-123.0701321,13.855,0.006,0.001,-0.059,5.196,3.536,4.539,0.354,0.000,0.000,8.113,0.113,17,*2A
$PSIWMPOS,000614.900,4910.32506,N,12304.20793,W,8.82,13.85,M,6.24,0,8,0,2,0,*5C
$PSIWMATT,000614.900,360.0,T,0.6,0.2,180.0,*75
$PSIWMVEL,000614.900,360.0,T,0.0,K,-0.00,M,*7F
$PSIWMVSD,000614.900,0.00,0.00,0.00,2,0.00,0.00,0.00,2,*05
$GPGGA,215254.000,4910.32506,N,12304.20793,W,1,18,0.6,013.85,M,-16.8,M,,*5C
$GPRMC,215254.000,A,4910.32506,N,12304.20793,W,0.0,0.0,161018,,,A*73
$GNGSA,A,3,32,10,14,18,08,20,11,27,24,01,,,1.2,0.6,1.0*2C
$GNGSA,A,3,66,65,74,82,75,81,88,67,,,,,1.2,0.6,1.0*28
$PSIWMPVT,375.720,251591.999,3,49.1720844,-123.0701321,13.855,0.008,0.004,-0.055,5.196,3.606,4.109,0.354,0.000,0.000,6.757,0.082,18,*2C
$PSIWMPOS,000615.900,4910.32506,N,12304.20793,W,8.82,13.85,M,6.24,0,8,0,2,0,*5D
$PSIWMATT,000615.900,360.0,T,0.6,0.2,180.0,*74
$PSIWMVEL,000615.900,360.0,T,0.0,K,-0.00,M,*7E
$PSIWMVSD,000615.900,0.00,0.00,0.00,2,0.00,0.00,0.00,2,*04
$GPGGA,215255.000,4910.32506,N,12304.20793,W,1,18,0.6,013.85,M,-16.8,M,,*5D
$GPRMC,215255.000,A,4910.32506,N,12304.20793,W,0.0,0.0,161018,,,A*72
$GNGSA,A,3,32,10,14,18,08,20,11,27,24,01,,,1.2,0.6,1.0*2C
$GNGSA,A,3,66,65,74,82,75,81,88,67,,,,,1.2,0.6,1.0*28
$PSIWMPVT,376.720,251592.999,3,49.1720844,-123.0701321,13.855,0.010,-0.002,-0.038,5.196,3.606,3.988,0.354,0.000,0.000,6.528,0.023,18,*02
$PSIWMPOS,000616.900,4910.32506,N,12304.20793,W,8.82,13.85,M,6.24,0,8,0,2,0,*5E
$PSIWMATT,000616.900,360.0,T,0.6,0.2,180.0,*77
$PSIWMVEL,000616.900,360.0,T,0.0,K,-0.00,M,*7D
$PSIWMVSD,000616.900,0.00,0.00,0.00,2,0.00,0.00,0.00,2,*07
$GPGGA,215256.000,4910.32506,N,12304.20793,W,1,18,0.6,013.85,M,-16.8,M,,*5E
$GPRMC,215256.000,A,4910.32506,N,12304.20793,W,0.0,0.0,161018,,,A*71
$GNGSA,A,3,32,10,14,18,08,20,11,27,24,01,,,1.2,0.6,1.0*2C
$GNGSA,A,3,66,65,74,82,75,81,88,67,,,,,1.2,0.6,1.0*28
$PSIWMPVT,377.720,251593.999,3,49.1720844,-123.0701321,13.855,-0.004,-0.011,-0.046,5.196,3.606,4.121,0.354,0.000,0.000,6.684,0.020,18,*2B
$PSIWMPOS,000617.900,4910.32506,N,12304.20793,W,8.82,13.85,M,6.24,0,8,0,2,0,*5F
$PSIWMATT,000617.900,360.0,T,0.6,0.2,180.0,*76
$PSIWMVEL,000617.900,360.0,T,0.0,K,-0.00,M,*7C
$PSIWMVSD,000617.900,0.00,0.00,0.00,2,0.00,0.00,0.00,2,*06
$GPGGA,215257.000,4910.32506,N,12304.20793,W,1,18,0.6,013.85,M,-16.8,M,,*5F
$GPRMC,215257.000,A,4910.32506,N,12304.20793,W,0.0,0.0,161018,,,A*70
$GNGSA,A,3,32,10,14,18,08,20,11,27,24,01,,,1.2,0.6,1.0*2C
$GNGSA,A,3,66,65,74,82,75,81,88,67,,,,,1.2,0.6,1.0*28
$PSIWMPVT,378.720,251595.000,3,49.1720844,-123.0701321,13.855,0.010,-0.010,-0.046,5.244,3.606,3.855,0.354,0.000,0.000,6.286,0.031,18,*05
$PSIWMPOS,000618.900,4910.32506,N,12304.20793,W,8.90,13.85,M,6.29,0,8,0,2,0,*5E
$PSIWMATT,000618.900,360.0,T,0.6,0.2,180.0,*79
$PSIWMVEL,000618.900,360.0,T,0.0,K,-0.00,M,*73
$PSIWMVSD,000618.900,0.00,0.00,0.00,2,0.00,0.00,0.00,2,*09
$GPGGA,215258.000,4910.32506,N,12304.20793,W,1,17,0.6,013.85,M,-16.8,M,,*5F
$GPRMC,215258.000,A,4910.32506,N,12304.20793,W,0.0,0.0,161018,,,A*7F
$GNGSA,A,3,32,10,14,18,08,20,11,27,24,01,,,1.2,0.6,1.0*2C
$GNGSA,A,3,66,65,74,82,81,88,67,,,,,,1.2,0.6,1.0*2A
$PSIWMPVT,379.720,251595.999,3,49.1720844,-123.0701321,13.855,0.008,-0.016,-0.030,5.244,3.606,4.051,0.354,0.000,0.000,6.672,0.020,17,*08
$PSIWMPOS,000619.900,4910.32506,N,12304.20793,W,8.90,13.85,M,6.29,0,8,0,2,0,*5F
$PSIWMATT,000619.900,360.0,T,0.6,0.2,180.0,*78
$PSIWMVEL,000619.900,360.0,T,0.0,K,-0.00,M,*72
$PSIWMVSD,000619.900,0.00,0.00,0.00,2,0.00,0.00,0.00,2,*08
$GPGGA,215259.000,4910.32506,N,12304.20793,W,1,18,0.6,013.85,M,-16.8,M,,*51
$GPRMC,215259.000,A,4910.32506,N,12304.20793,W,0.0,0.0,161018,,,A*7E
$GNGSA,A,3,32,10,14,18,08,20,11,27,24,01,,,1.2,0.6,1.0*2C
$GNGSA,A,3,66,65,74,82,75,81,88,67,,,,,1.2,0.6,1.0*28
$PSIWMPVT,380.720,251596.999,3,49.1720844,-123.0701321,13.855,0.002,-0.004,-0.028,5.244,3.674,3.668,0.354,0.000,0.000,5.925,0.020,18,*02
$PSIWMPOS,000620.900,4910.32506,N,12304.20793,W,8.90,13.85,M,6.29,0,8,0,2,0,*55
$PSIWMATT,000620.900,360.0,T,0.6,0.2,180.0,*72
$PSIWMVEL,000620.900,360.0,T,0.0,K,-0.00,M,*78
$PSIWMVSD,000620.900,0.00,0.00,0.00,2,0.00,0.00,0.00,2,*02
$GPGGA,215300.000,4910.32506,N,12304.20793,W,1,18,0.6,013.85,M,-16.8,M,,*5C
$GPRMC,215300.000,A,4910.32506,N,12304.20793,W,0.0,0.0,161018,,,A*73
$GNGSA,A,3,32,10,14,18,08,20,11,27,24,01,,,1.2,0.6,1.0*2C
$GNGSA,A,3,66,65,74,82,75,81,88,67,,,,,1.2,0.6,1.0*28
$PSIWMPVT,381.720,251597.999,3,49.1720844,-123.0701321,13.855,0.013,-0.001,-0.021,5.244,3.674,3.840,0.354,0.000,0.000,6.182,0.012,18,*0D
$PSIWMPOS,000621.900,4910.32506,N,12304.20793,W,8.90,13.85,M,6.29,0,8,0,2,0,*54
$PSIWMATT,000621.900,360.0,T,0.6,0.2,180.0,*73
$PSIWMVEL,000621.900,360.0,T,0.0,K,-0.00,M,*79
$PSIWMVSD,000621.900,0.00,0.00,0.00,2,0.00,0.00,0.00,2,*03
$GPGGA,215301.000,4910.32506,N,12304.20793,W,1,18,0.6,013.85,M,-16.8,M,,*5D
$GPRMC,215301.000,A,4910.32506,N,12304.20793,W,0.0,0.0,161018,,,A*72
$GNGSA,A,3,32,10,14,18,08,20,11,27,24,01,,,1.2,0.6,1.0*2C
$GNGSA,A,3,66,65,74,82,75,81,88,67,,,,,1.2,0.6,1.0*28
$PSIWMPVT,382.720,251599.000,3,49.1720844,-123.0701321,13.855,0.010,-0.013,-0.022,5.244,3.674,4.289,0.354,0.000,0.000,6.874,0.016,18,*06
$PSIWMPOS,000622.900,4910.32506,N,12304.20793,W,8.90,13.85,M,6.29,0,8,0,2,0,*57
$PSIWMATT,000622.900,360.0,T,0.7,0.2,180.0,*71
$PSIWMVEL,000622.900,360.0,T,0.0,K,-0.00,M,*7A
$PSIWMVSD,000622.900,0.00,0.00,0.00,2,0.00,0.00,0.00,2,*00
$GPGGA,215302.000,4910.32506,N,12304.20793,W,1,18,0.6,013.85,M,-16.8,M,,*5E
$GPRMC,215302.000,A,4910.32506,N,12304.20793,W,0.0,0.0,161018,,,A*71
$GNGSA,A,3,32,10,14,18,08,20,11,27,24,01,,,1.2,0.6,1.0*2C
$GNGSA,A,3,66,65,74,82,75,81,88,67,,,,,1.2,0.6,1.0*28
$PSIWMPVT,383.720,251600.000,3,49.1720844,-123.0701321,13.855,0.003,-0.015,-0.009,5.292,3.674,4.492,0.354,0.000,0.000,7.197,0.016,18,*0B
$PSIWMPOS,000623.900,4910.32506,N,12304.20793,W,8.98,13.85,M,6.35,0,8,0,2,0,*53
$PSIWMATT,000623.900,360.0,T,0.7,0.2,180.0,*70
$PSIWMVEL,000623.900,360.0,T,0.0,K,-0.00,M,*7B
$PSIWMVSD,000623.900,0.00,0.00,0.00,2,0.00,0.00,0.00,2,*01
$GPGGA,215303.000,4910.32506,N,12304.20793,W,1,17,0.6,013.85,M,-16.8,M,,*50
$GPRMC,215303.000,A,4910.32506,N,12304.20793,W,0.0,0.0,161018,,,A*70
$GNGSA,A,3,32,10,14,18,08,20,11,27,24,01,,,1.2,0.6,1.0*2C
$GNGSA,A,3,66,65,74,82,81,88,67,,,,,,1.2,0.6,1.0*2A
$PSIWMPVT,384.720,251600.999,3,49.1720844,-123.0701321,13.855,0.011,-0.007,-0.022,5.292,3.674,4.465,0.354,0.000,0.000,7.133,0.012,17,*01
$PSIWMPOS,000624.900,4910.32506,N,12304.20793,W,8.98,13.85,M,6.35,0,8,0,2,0,*54
$PSIWMATT,000624.900,360.0,T,0.7,0.2,180.0,*77
$PSIWMVEL,000624.900,360.0,T,0.0,K,-0.00,M,*7C
$PSIWMVSD,000624.900,0.00,0.00,0.00,2,0.00,0.00,0.00,2,*06
$GPGGA,215304.000,4910.32506,N,12304.20793,W,1,18,0.6,013.85,M,-16.8,M,,*58
$GPRMC,215304.000,A,4910.32506,N,12304.20793,W,0.0,0.0,161018,,,A*77
$GNGSA,A,3,32,10,14,18,08,20,11,27,24,01,,,1.2,0.6,1.0*2C
$GNGSA,A,3,66,65,74,82,75,81,88,67,,,,,1.2,0.6,1.0*28
$PSIWMPVT,385.720,251601.999,3,49.1720844,-123.0701321,13.855,0.004,0.003,-0.013,5.292,3.742,4.016,0.354,0.000,0.000,6.408,0.012,18,*29
$PSIWMPOS,000625.900,4910.32506,N,12304.20793,W,8.98,13.85,M,6.35,0,8,0,2,0,*55
$PSIWMATT,000625.900,360.0,T,0.6,0.2,180.0,*77
$PSIWMVEL,000625.900,360.0,T,0.0,K,-0.00,M,*7D
$PSIWMVSD,000625.900,0.00,0.00,0.00,2,0.00,0.00,0.00,2,*07
$GPGGA,215305.000,4910.32506,N,12304.20793,W,1,18,0.6,013.85,M,-16.8,M,,*59
$GPRMC,215305.000,A,4910.32506,N,12304.20793,W,0.0,0.0,161018,,,A*76
$GNGSA,A,3,32,10,14,18,08,20,11,27,24,01,,,1.2,0.6,1.0*2C
$GNGSA,A,3,66,65,74,82,75,81,88,67,,,,,1.2,0.6,1.0*28
$PSIWMPVT,386.720,251603.000,3,49.1720844,-123.0701321,13.855,0.005,-0.009,-0.009,5.292,3.742,4.566,0.354,0.000,0.000,7.298,0.035,18,*05
$PSIWMPOS,000626.900,4910.32506,N,12304.20793,W,8.98,13.85,M,6.35,0,8,0,2,0,*56
$PSIWMATT,000626.900,360.0,T,0.7,0.2,180.0,*75
$PSIWMVEL,000626.900,360.0,T,0.0,K,-0.00,M,*7E
$PSIWMVSD,000626.900,0.00,0.00,0.00,2,0.00,0.00,0.00,2,*04
$GPGGA,215306.000,4910.32506,N,12304.20793,W,1,17,0.6,013.85,M,-16.8,M,,*55
$GPRMC,215306.000,A,4910.32506,N,12304.20793,W,0.0,0.0,161018,,,A*75
$GNGSA,A,3,32,10,14,18,08,20,11,27,24,01,,,1.2,0.6,1.0*2C
$GNGSA,A,3,66,65,74,82,75,81,88,,,,,,1.2,0.6,1.0*29
$PSIWMPVT,387.720,251604.000,3,49.1720844,-123.0701321,13.855,0.004,-0.004,-0.019,5.292,3.742,5.137,0.354,0.000,0.000,8.240,0.012,17,*0F
$PSIWMPOS,000627.900,4910.32506,N,12304.20793,W,8.98,13.85,M,6.35,0,8,0,2,0,*57
$PSIWMATT,000627.900,360.0,T,0.7,0.2,180.0,*74
$PSIWMVEL,000627.900,360.0,T,0.0,K,-0.00,M,*7F
$PSIWMVSD,000627.900,0.00,0.00,0.00,2,0.00,0.00,0.00,2,*05
$GPGGA,215307.000,4910.32506,N,12304.20793,W,1,17,0.6,013.85,M,-16.8,M,,*54
$GPRMC,215307.000,A,4910.32506,N,12304.20793,W,0.0,0.0,161018,,,A*74
$GNGSA,A,3,32,10,14,18,08,20,11,27,24,01,,,1.2,0.6,1.0*2C
$GNGSA,A,3,66,65,74,82,75,81,88,,,,,,1.2,0.6,1.0*29
$PSIWMPVT,388.720,251604.999,3,49.1720844,-123.0701321,13.855,0.008,0.004,-0.015,5.339,3.742,5.062,0.354,0.000,0.000,8.157,0.012,17,*20
$PSIWMPOS,000628.900,4910.32506,N,12304.20793,W,9.06,13.85,M,6.41,0,8,0,2,0,*5D
$PSIWMATT,000628.900,360.0,T,0.6,0.2,180.0,*7A
$PSIWMVEL,000628.900,360.0,T,0.0,K,-0.00,M,*70
$PSIWMVSD,000628.900,0.00,0.00,0.00,2,0.00,0.00,0.00,2,*0A
$GPGGA,215308.000,4910.32506,N,12304.20793,W,1,17,0.6,013.85,M,-16.8,M,,*5B
$GPRMC,215308.000,A,4910.32506,N,12304.20793,W,0.0,0.0,161018,,,A*7B
$GNGSA,A,3,32,10,14,18,08,20,11,27,24,01,,,1.2,0.6,1.0*2C
$GNGSA,A,3,66,65,74,82,81,88,67,,,,,,1.2,0.6,1.0*2A
$PSIWMPVT,389.720,251605.999,3,49.1720844,-123.0701321,13.855,0.015,0.003,-0.004,5.339,3.742,4.926,0.354,0.000,0.000,7.891,0.016,17,*2B
$PSIWMPOS,000629.900,4910.32506,N,12304.20793,W,9.06,13.85,M,6.41,0,8,0,2,0,*5C
$PSIWMATT,000629.900,360.0,T,0.7,0.2,180.0,*7A
$PSIWMVEL,000629.900,360.0,T,0.0,K,-0.00,M,*71
$PSIWMVSD,000629.900,0.00,0.00,0.00,2,0.00,0.00,0.00,2,*0B
$GPGGA,215309.000,4910.32506,N,12304.20793,W,1,17,0.6,013.85,M,-16.8,M,,*5A
$GPRMC,215309.000,A,4910.32506,N,12304.20793,W,0.0,0.0,161018,,,A*7A
$GNGSA,A,3,32,10,14,18,08,20,11,27,24,01,,,1.2,0.6,1.0*2C
$GNGSA,A,3,66,65,74,82,81,88,67,,,,,,1.2,0.6,1.0*2A
$PSIWMPVT,390.720,251607.000,3,49.1720844,-123.0701321,13.855,0.011,0.008,0.008,5.339,3.808,5.516,0.354,0.000,0.000,8.885,0.035,17,*02
$PSIWMPOS,000630.900,4910.32506,N,12304.20793,W,9.06,13.85,M,6.41,0,8,0,2,0,*54
$PSIWMATT,000630.900,360.0,T,0.7,0.2,180.0,*72
$PSIWMVEL,000630.900,360.0,T,0.0,K,-0.00,M,*79
$PSIWMVSD,000630.900,0.00,0.00,0.00,2,0.00,0.00,0.00,2,*03
$GPGGA,215310.000,4910.32506,N,12304.20793,W,1,17,0.6,013.85,M,-16.8,M,,*52
$GPRMC,215310.000,A,4910.32506,N,12304.20793,W,0.0,0.0,161018,,,A*72
$GNGSA,A,3,32,10,14,18,08,20,11,27,24,01,,,1.2,0.6,1.0*2C
$GNGSA,A,3,66,65,74,82,81,88,67,,,,,,1.2,0.6,1.0*2A
$PSIWMPVT,391.720,251608.000,3,49.1720844,-123.0701321,13.855,-0.002,-0.001,0.006,5.339,3.808,5.863,0.354,0.000,0.000,9.464,0.016,17,*05
$PSIWMPOS,000631.900,4910.32506,N,12304.20793,W,9.06,13.85,M,6.41,0,8,0,2,0,*55
$PSIWMATT,000631.900,360.0,T,0.7,0.2,180.0,*73
$PSIWMVEL,000631.900,360.0,T,0.0,K,-0.00,M,*78
$PSIWMVSD,000631.900,0.00,0.00,0.00,2,0.00,0.00,0.00,2,*02
$GPGGA,215311.000,4910.32506,N,12304.20793,W,1,17,0.6,013.85,M,-16.8,M,,*53
$GPRMC,215311.000,A,4910.32506,N,12304.20793,W,0.0,0.0,161018,,,A*73
$GNGSA,A,3,32,10,14,18,08,20,11,27,24,01,,,1.2,0.6,1.0*2C
$GNGSA,A,3,66,65,74,82,81,88,67,,,,,,1.2,0.6,1.0*2A
$PSIWMPVT,392.720,251609.000,3,49.1720844,-123.0701321,13.855,0.003,0.006,0.014,5.339,3.808,5.215,0.354,0.000,0.000,8.399,0.020,17,*08
$PSIWMPOS,000632.900,4910.32506,N,12304.20793,W,9.06,13.85,M,6.41,0,8,0,2,0,*56
$PSIWMATT,000632.900,360.0,T,0.7,0.2,180.0,*70
$PSIWMVEL,000632.900,360.0,T,0.0,K,-0.00,M,*7B
$PSIWMVSD,000632.900,0.00,0.00,0.00,2,0.00,0.00,0.00,2,*01
$GPGGA,215312.000,4910.32506,N,12304.20793,W,1,17,0.6,013.85,M,-16.8,M,,*50
$GPRMC,215312.000,A,4910.32506,N,12304.20793,W,0.0,0.0,161018,,,A*70
$GNGSA,A,3,32,10,14,18,08,20,11,27,24,01,,,1.2,0.6,1.0*2C
$GNGSA,A,3,66,65,74,82,81,88,67,,,,,,1.2,0.6,1.0*2A
$PSIWMPVT,393.720,251609.999,3,49.1720844,-123.0701321,13.855,0.011,0.012,0.030,5.385,3.808,4.449,0.354,0.000,0.000,7.155,0.023,17,*07
$PSIWMPOS,000633.900,4910.32506,N,12304.20793,W,9.14,13.85,M,6.46,0,8,0,2,0,*53
$PSIWMATT,000633.900,360.0,T,0.7,0.2,180.0,*71
$PSIWMVEL,000633.900,360.0,T,0.0,K,-0.00,M,*7A
$PSIWMVSD,000633.900,0.00,0.00,0.00,2,0.00,0.00,0.00,2,*00
$GPGGA,215313.000,4910.32506,N,12304.20793,W,1,18,0.6,013.85,M,-16.8,M,,*5E
$GPRMC,215313.000,A,4910.32506,N,12304.20793,W,0.0,0.0,161018,,,A*71
$GNGSA,A,3,32,10,14,18,08,20,11,27,24,01,,,1.2,0.6,1.0*2C
$GNGSA,A,3,66,65,74,82,75,81,88,67,,,,,1.2,0.6,1.0*28
$PSIWMPVT,394.720,251611.000,3,49.1720844,-123.0701321,13.855,-0.001,0.004,0.047,5.385,3.808,4.148,0.354,0.000,0.000,6.634,0.027,18,*25
$PSIWMPOS,000634.900,4910.32506,N,12304.20793,W,9.14,13.85,M,6.46,0,8,0,2,0,*54
$PSIWMATT,000634.900,360.0,T,0.7,0.2,180.0,*76
$PSIWMVEL,000634.900,360.0,T,0.0,K,-0.00,M,*7D
$PSIWMVSD,000634.900,0.00,0.00,0.00,2,0.00,0.00,0.00,2,*07
$GPGGA,215314.000,4910.32506,N,12304.20793,W,1,18,0.6,013.85,M,-16.8,M,,*59
$GPRMC,215314.000,A,4910.32506,N,12304.20793,W,0.0,0.0,161018,,,A*76
$GNGSA,A,3,32,10,14,18,08,20,11,27,24,01,,,1.2,0.6,1.0*2C
$GNGSA,A,3,66,65,74,82,75,81,88,67,,,,,1.2,0.6,1.0*28
$PSIWMPVT,395.730,251612.000,3,49.1720844,-123.0701321,13.855,0.008,0.015,0.041,5.385,3.873,4.512,0.354,0.000,0.000,7.224,0.020,18,*00
$PSIWMPOS,000635.900,4910.32506,N,12304.20793,W,9.14,13.85,M,6.46,0,8,0,2,0,*55
$PSIWMATT,000635.900,360.0,T,0.6,0.2,180.0,*76
$PSIWMVEL,000635.900,360.0,T,0.0,K,-0.00,M,*7C
$PSIWMVSD,000635.900,0.00,0.00,0.00,2,0.00,0.00,0.00,2,*06
$GPGGA,215315.000,4910.32506,N,12304.20793,W,1,18,0.6,013.85,M,-16.8,M,,*58
$GPRMC,215315.000,A,4910.32506,N,12304.20793,W,0.0,0.0,161018,,,A*77
$GNGSA,A,3,32,10,14,18,08,20,11,27,24,01,,,1.2,0.6,1.0*2C
$GNGSA,A,3,66,65,74,82,75,81,88,67,,,,,1.2,0.6,1.0*28
$PSIWMPVT,396.730,251613.000,3,49.1720844,-123.0701321,13.855,-0.001,0.004,0.042,5.385,3.873,4.020,0.354,0.000,0.000,6.406,0.012,18,*27
$PSIWMPOS,000636.900,4910.32506,N,12304.20793,W,9.14,13.85,M,6.46,0,8,0,2,0,*56
$PSIWMATT,000636.900,360.0,T,0.7,0.2,180.0,*74
$PSIWMVEL,000636.900,360.0,T,0.0,K,-0.00,M,*7F
$PSIWMVSD,000636.900,0.00,0.00,0.00,2,0.00,0.00,0.00,2,*05
$GPGGA,215316.000,4910.32506,N,12304.20793,W,1,18,0.6,013.85,M,-16.8,M,,*5B
$GPRMC,215316.000,A,4910.32506,N,12304.20793,W,0.0,0.0,161018,,,A*74
$GNGSA,A,3,32,10,14,18,08,20,11,27,24,01,,,1.2,0.6,1.0*2C
$GNGSA,A,3,66,65,74,82,75,81,88,67,,,,,1.2,0.6,1.0*28
$PSIWMPVT,397.720,251613.999,3,49.1720844,-123.0701321,13.855,0.009,0.003,0.028,5.385,3.873,3.879,0.354,0.000,0.000,6.190,0.016,18,*0D
$PSIWMPOS,000637.900,4910.32506,N,12304.20793,W,9.14,13.85,M,6.46,0,8,0,2,0,*57
$PSIWMATT,000637.900,360.0,T,0.7,0.2,180.0,*75
$PSIWMVEL,000637.900,360.0,T,0.0,K,-0.00,M,*7E
$PSIWMVSD,000637.900,0.00,0.00,0.00,2,0.00,0.00,0.00,2,*04
$GPGGA,215317.000,4910.32506,N,12304.20793,W,1,18,0.6,013.85,M,-16.8,M,,*5A
$GPRMC,215317.000,A,4910.32506,N,12304.20793,W,0.0,0.0,161018,,,A*75
$GNGSA,A,3,32,10,14,18,08,20,11,27,24,01,,,1.2,0.6,1.0*2C
$GNGSA,A,3,66,65,74,82,75,81,88,67,,,,,1.2,0.6,1.0*28
$PSIWMPVT,398.720,251615.000,3,49.1720844,-123.0701321,13.855,0.004,0.007,0.039,5.431,3.873,3.730,0.354,0.000,0.000,5.969,0.020,18,*06
$PSIWMPOS,000638.900,4910.32506,N,12304.20793,W,9.22,13.85,M,6.52,0,8,0,2,0,*58
$PSIWMATT,000638.900,360.0,T,0.7,0.2,180.0,*7A
$PSIWMVEL,000638.900,360.0,T,0.0,K,-0.00,M,*71
$PSIWMVSD,000638.900,0.00,0.00,0.00,2,0.00,0.00,0.00,2,*0B
$GPGGA,215318.000,4910.32506,N,12304.20793,W,1,17,0.6,013.85,M,-16.8,M,,*5A
$GPRMC,215318.000,A,4910.32506,N,12304.20793,W,0.0,0.0,161018,,,A*7A
$GNGSA,A,3,32,10,14,18,08,20,11,27,24,01,,,1.2,0.6,1.0*2C
$GNGSA,A,3,66,65,74,82,75,81,88,,,,,,1.2,0.6,1.0*29
$PSIWMPVT,399.720,251616.000,3,49.1720844,-123.0701321,13.855,-0.005,0.006,0.058,5.431,3.873,4.074,0.354,0.000,0.000,6.546,0.039,17,*2B
$PSIWMPOS,000639.900,4910.32506,N,12304.20793,W,9.22,13.85,M,6.52,0,8,0,2,0,*59
$PSIWMATT,000639.900,360.0,T,0.7,0.2,180.0,*7B
$PSIWMVEL,000639.900,360.0,T,0.0,K,-0.00,M,*70
$PSIWMVSD,000639.900,0.00,0.00,0.00,2,0.00,0.00,0.00,2,*0A
$GPGGA,215319.000,4910.32506,N,12304.20793,W,1,17,0.6,013.85,M,-16.8,M,,*5B
$GPRMC,215319.000,A,4910.32506,N,12304.20793,W,0.0,0.0,161018,,,A*7B
$GNGSA,A,3,32,10,14,18,08,20,11,27,24,01,,,1.2,0.6,1.0*2C
$GNGSA,A,3,66,65,74,82,75,81,88,,,,,,1.2,0.6,1.0*29
$PSIWMPVT,400.720,251617.000,3,49.1720844,-123.0701321,13.855,0.010,0.002,0.049,5.431,3.937,4.117,0.354,0.000,0.000,6.618,0.020,17,*05
$PSIWMPOS,000640.900,4910.32506,N,12304.20793,W,9.22,13.85,M,6.52,0,8,0,2,0,*57
$PSIWMATT,000640.900,360.0,T,0.7,0.2,180.0,*75
$PSIWMVEL,000640.900,360.0,T,0.0,K,-0.00,M,*7E
$PSIWMVSD,000640.900,0.00,0.00,0.00,2,0.00,0.00,0.00,2,*04
$GPGGA,215320.000,4910.32506,N,12304.20793,W,1,18,0.6,013.85,M,-16.8,M,,*5E
$GPRMC,215320.000,A,4910.32506,N,12304.20793,W,0.0,0.0,161018,,,A*71
$GNGSA,A,3,32,10,14,18,08,20,11,27,24,01,,,1.2,0.6,1.0*2C
$GNGSA,A,3,66,65,74,82,75,81,88,67,,,,,1.2,0.6,1.0*28
$PSIWMPVT,401.720,251618.000,3,49.1720844,-123.0701321,13.855,-0.007,0.009,0.051,5.431,3.937,3.945,0.354,0.000,0.000,6.317,0.020,18,*2F
$PSIWMPOS,000641.900,4910.32506,N,12304.20793,W,9.22,13.85,M,6.52,0,8,0,2,0,*56
$PSIWMATT,000641.900,360.0,T,0.7,0.2,180.0,*74
$PSIWMVEL,000641.900,360.0,T,0.0,K,-0.00,M,*7F
$PSIWMVSD,000641.900,0.00,0.00,0.00,2,0.00,0.00,0.00,2,*05
$GPGGA,215321.000,4910.32506,N,12304.20793,W,1,18,0.6,013.85,M,-16.8,M,,*5F
$GPRMC,215321.000,A,4910.32506,N,12304.20793,W,0.0,0.0,161018,,,A*70
$GNGSA,A,3,32,10,14,18,08,20,11,27,24,01,,,1.2,0.6,1.0*2C
$GNGSA,A,3,66,65,74,82,75,81,88,67,,,,,1.2,0.6,1.0*28
$PSIWMPVT,402.720,251619.000,3,49.1720844,-123.0701321,13.855,-0.000,-0.006,0.047,5.431,3.937,4.141,0.354,0.000,0.000,6.630,0.023,18,*07
$PSIWMPOS,000642.900,4910.32506,N,12304.20793,W,9.22,13.85,M,6.52,0,8,0,2,0,*55
$PSIWMATT,000642.900,360.0,T,0.7,0.2,180.0,*77
$PSIWMVEL,000642.900,360.0,T,0.0,K,-0.00,M,*7C
$PSIWMVSD,000642.900,0.00,0.00,0.00,2,0.00,0.00,0.00,2,*06
$GPGGA,215322.000,4910.32506,N,12304.20793,W,1,18,0.6,013.85,M,-16.8,M,,*5C
$GPRMC,215322.000,A,4910.32506,N,12304.20793,W,0.0,0.0,161018,,,A*73
$GNGSA,A,3,32,10,14,18,08,20,11,27,24,01,,,1.2,0.6,1.0*2C
$GNGSA,A,3,66,65,74,82,75,81,88,67,,,,,1.2,0.6,1.0*28
$PSIWMPVT,403.720,251620.000,3,49.1720844,-123.0701321,13.855,-0.008,0.015,0.062,5.477,3.937,4.062,0.354,0.000,0.000,6.490,0.031,18,*25
$PSIWMPOS,000643.900,4910.32506,N,12304.20793,W,9.30,13.85,M,6.57,0,8,0,2,0,*52
$PSIWMATT,000643.900,360.0,T,0.7,0.2,180.0,*76
$PSIWMVEL,000643.900,360.0,T,0.0,K,-0.00,M,*7D
$PSIWMVSD,000643.900,0.00,0.00,0.00,2,0.00,0.00,0.00,2,*07
$GPGGA,215323.000,4910.32506,N,12304.20793,W,1,18,0.6,013.85,M,-16.8,M,,*5D
$GPRMC,215323.000,A,4910.32506,N,12304.20793,W,0.0,0.0,161018,,,A*72
$GNGSA,A,3,32,10,14,18,08,20,11,27,24,01,22,,1.2,0.6,1.0*2C
$GNGSA,A,3,66,65,74,82,75,81,88,,,,,,1.2,0.6,1.0*29
$PSIWMPVT,404.720,251620.999,3,49.1720844,-123.0701321,13.855,-0.005,0.004,0.060,5.477,3.937,4.332,0.354,0.000,0.000,7.007,0.027,18,*2E
$PSIWMPOS,000644.900,4910.32506,N,12304.20793,W,9.30,13.85,M,6.57,0,8,0,2,0,*55
$PSIWMATT,000644.900,360.0,T,0.7,0.2,180.0,*71
$PSIWMVEL,000644.900,360.0,T,0.0,K,-0.00,M,*7A
$PSIWMVSD,000644.900,0.00,0.00,0.00,2,0.00,0.00,0.00,2,*00
$GPGGA,215324.000,4910.32506,N,12304.20793,W,1,18,0.6,013.85,M,-16.8,M,,*5A
$GPRMC,215324.000,A,4910.32506,N,12304.20793,W,0.0,0.0,161018,,,A*75
$GNGSA,A,3,32,10,14,18,08,20,11,27,24,01,22,,1.2,0.6,1.0*2C
$GNGSA,A,3,66,65,74,82,75,81,88,,,,,,1.2,0.6,1.0*29
$PSIWMPVT,405.720,251621.999,3,49.1720844,-123.0701321,13.855,0.013,0.012,0.045,5.477,4.000,4.328,0.354,0.000,0.000,6.999,0.016,18,*08
$PSIWMPOS,000645.900,4910.32506,N,12304.20793,W,9.30,13.85,M,6.57,0,8,0,2,0,*54
$PSIWMATT,000645.900,360.0,T,0.7,0.2,180.0,*70
$PSIWMVEL,000645.900,360.0,T,0.0,K,-0.00,M,*7B
$PSIWMVSD,000645.900,0.00,0.00,0.00,2,0.00,0.00,0.00,2,*01
$GPGGA,215325.000,4910.32506,N,12304.20793,W,1,18,0.6,013.85,M,-16.8,M,,*5B
$GPRMC,215325.000,A,4910.32506,N,12304.20793,W,0.0,0.0,161018,,,A*74
$GNGSA,A,3,32,10,14,18,08,20,11,27,24,01,22,,1.2,0.6,1.0*2C
$GNGSA,A,3,66,65,74,82,75,81,88,,,,,,1.2,0.6,1.0*29
$PSIWMPVT,406.720,251622.999,3,49.1720844,-123.0701321,13.855,-0.012,-0.010,0.035,5.477,4.000,4.430,0.354,0.000,0.000,7.199,0.023,18,*0D
$PSIWMPOS,000646.900,4910.32506,N,12304.20793,W,9.30,13.85,M,6.57,0,8,0,2,0,*57
$PSIWMATT,000646.900,360.0,T,0.7,0.2,180.0,*73
$PSIWMVEL,000646.900,360.0,T,0.0,K,-0.00,M,*78
$PSIWMVSD,000646.900,0.00,0.00,0.00,2,0.00,0.00,0.00,2,*02
$GPGGA,215326.000,4910.32506,N,12304.20793,W,1,18,0.6,013.85,M,-16.8,M,,*58
$GPRMC,215326.000,A,4910.32506,N,12304.20793,W,0.0,0.0,161018,,,A*77
$GNGSA,A,3,32,10,14,18,08,20,11,27,24,01,22,,1.2,0.6,1.0*2C
$GNGSA,A,3,66,65,74,82,75,81,88,,,,,,1.2,0.6,1.0*29
$PSIWMPVT,407.720,251623.999,3,49.1720844,-123.0701321,13.855,-0.004,0.008,0.049,5.477,4.000,4.145,0.354,0.000,0.000,6.745,0.020,18,*27
$PSIWMPOS,000647.900,4910.32506,N,12304.20793,W,9.30,13.85,M,6.57,0,8,0,2,0,*56
$PSIWMATT,000647.900,360.0,T,0.6,0.2,180.0,*73
$PSIWMVEL,000647.900,360.0,T,0.0,K,-0.00,M,*79
$PSIWMVSD,000647.900,0.00,0.00,0.00,2,0.00,0.00,0.00,2,*03
$GPGGA,215327.000,4910.32516,N,12304.20792,W,1,19,0.6,013.53,M,-16.8,M,,*53
$GPRMC,215327.000,A,4910.32516,N,12304.20792,W,0.0,0.0,161018,,,A*76
$GNGSA,A,3,32,10,14,18,08,20,11,27,24,01,22,,1.2,0.6,1.0*2C
$GNGSA,A,3,66,65,74,82,75,81,88,67,,,,,1.2,0.6,1.0*28
$PSIWMPVT,408.730,251624.999,3,49.1720860,-123.0701320,13.529,-0.000,-0.002,0.042,5.196,3.536,3.613,0.354,0.000,0.000,5.863,0.016,19,*05
$PSIWMPOS,000648.900,4910.32516,N,12304.20792,W,8.82,13.53,M,6.24,0,8,0,2,0,*5E
$PSIWMATT,000648.900,360.0,T,0.7,0.2,180.0,*7D
$PSIWMVEL,000648.900,360.0,T,0.0,K,-0.00,M,*76
$PSIWMVSD,000648.900,0.00,0.00,0.00,2,0.00,0.00,0.00,2,*0C
$GPGGA,215328.000,4910.32516,N,12304.20792,W,1,17,0.6,013.53,M,-16.8,M,,*52
$GPRMC,215328.000,A,4910.32516,N,12304.20792,W,0.0,0.0,161018,,,A*79
$GNGSA,A,3,32,10,14,18,08,20,11,27,24,01,,,1.2,0.6,1.0*2C
$GNGSA,A,3,66,65,74,82,75,81,88,,,,,,1.2,0.6,1.0*29
$PSIWMPVT,409.720,251626.000,3,49.1720860,-123.0701320,13.529,-0.001,0.003,0.024,5.244,3.536,3.637,0.354,0.000,0.000,5.914,0.027,17,*24
$PSIWMPOS,000649.900,4910.32516,N,12304.20792,W,8.90,13.53,M,6.29,0,8,0,2,0,*51
$PSIWMATT,000649.900,360.0,T,0.7,0.2,180.0,*7C
$PSIWMVEL,000649.900,360.0,T,0.0,K,-0.00,M,*77
$PSIWMVSD,000649.900,0.00,0.00,0.00,2,0.00,0.00,0.00,2,*0D
$GPGGA,215329.000,4910.32516,N,12304.20792,W,1,18,0.6,013.53,M,-16.8,M,,*5C
$GPRMC,215329.000,A,4910.32516,N,12304.20792,W,0.0,0.0,161018,,,A*78
$GNGSA,A,3,32,10,14,18,08,20,11,27,24,01,22,,1.2,0.6,1.0*2C
$GNGSA,A,3,66,65,74,82,75,81,88,,,,,,1.2,0.6,1.0*29
$PSIWMPVT,410.720,251626.999,3,49.1720860,-123.0701320,13.529,0.002,-0.014,0.013,5.244,3.536,3.797,0.354,0.000,0.000,6.193,0.016,18,*26
$PSIWMPOS,000650.900,4910.32516,N,12304.20792,W,8.90,13.53,M,6.29,0,8,0,2,0,*59
$PSIWMATT,000650.900,360.0,T,0.7,0.2,180.0,*74
$PSIWMVEL,000650.900,360.0,T,0.0,K,-0.00,M,*7F
$PSIWMVSD,000650.900,0.00,0.00,0.00,2,0.00,0.00,0.00,2,*05
$GPGGA,215330.000,4910.32516,N,12304.20792,W,1,18,0.6,013.53,M,-16.8,M,,*54
$GPRMC,215330.000,A,4910.32516,N,12304.20792,W,0.0,0.0,161018,,,A*70
$GNGSA,A,3,32,10,14,18,08,20,11,27,24,01,22,,1.2,0.6,1.0*2C
$GNGSA,A,3,66,65,74,82,75,81,88,,,,,,1.2,0.6,1.0*29
$PSIWMPVT,411.720,251627.999,3,49.1720860,-123.0701320,13.529,-0.004,-0.009,0.037,5.244,3.536,4.301,0.354,0.000,0.000,7.039,0.016,18,*0B
$PSIWMPOS,000651.900,4910.32516,N,12304.20792,W,8.90,13.53,M,6.29,0,8,0,2,0,*58
$PSIWMATT,000651.900,360.0,T,0.6,0.2,180.0,*74
$PSIWMVEL,000651.900,360.0,T,0.0,K,-0.00,M,*7E
$PSIWMVSD,000651.900,0.00,0.00,0.00,2,0.00,0.00,0.00,2,*04
$GPGGA,215331.000,4910.32516,N,12304.20792,W,1,18,0.6,013.53,M,-16.8,M,,*55
$GPRMC,215331.000,A,4910.32516,N,12304.20792,W,0.0,0.0,161018,,,A*71
$GNGSA,A,3,32,10,14,18,08,20,11,27,24,01,22,,1.2,0.6,1.0*2C
$GNGSA,A,3,66,65,74,82,75,81,88,,,,,,1.2,0.6,1.0*29
$PSIWMPVT,412.720,251628.999,3,49.1720860,-123.0701320,13.529,0.005,-0.013,0.029,5.244,3.606,4.309,0.354,0.000,0.000,6.996,0.023,18,*2C
$PSIWMPOS,000652.900,4910.32516,N,12304.20792,W,8.90,13.53,M,6.29,0,8,0,2,0,*5B
$PSIWMATT,000652.900,360.0,T,0.7,0.2,180.0,*76
$PSIWMVEL,000652.900,360.0,T,0.0,K,-0.00,M,*7D
$PSIWMVSD,000652.900,0.00,0.00,0.00,2,0.00,0.00,0.00,2,*07
$GPGGA,215332.000,4910.32516,N,12304.20792,W,1,17,0.6,013.53,M,-16.8,M,,*59
$GPRMC,215332.000,A,4910.32516,N,12304.20792,W,0.0,0.0,161018,,,A*72
$GNGSA,A,3,32,10,14,18,08,20,11,27,24,01,22,,1.2,0.6,1.0*2C
$GNGSA,A,3,66,65,74,82,75,88,,,,,,,1.2,0.6,1.0*20
$PSIWMPVT,413.720,251630.000,3,49.1720860,-123.0701320,13.529,0.002,-0.008,0.035,5.244,3.606,4.270,0.354,0.000,0.000,6.910,0.012,17,*21
$PSIWMPOS,000653.900,4910.32516,N,12304.20792,W,8.90,13.53,M,6.29,0,8,0,2,0,*5A
$PSIWMATT,000653.900,360.0,T,0.7,0.2,180.0,*77
$PSIWMVEL,000653.900,360.0,T,0.0,K,-0.00,M,*7C
$PSIWMVSD,000653.900,0.00,0.00,0.00,2,0.00,0.00,0.00,2,*06
$GPGGA,215333.000,4910.32516,N,12304.20792,W,1,18,0.6,013.53,M,-16.8,M,,*57
$GPRMC,215333.000,A,4910.32516,N,12304.20792,W,0.0,0.0,161018,,,A*73
$GNGSA,A,3,32,10,14,18,08,20,11,27,24,01,22,,1.2,0.6,1.0*2C
$GNGSA,A,3,66,65,74,82,75,81,88,,,,,,1.2,0.6,1.0*29
$PSIWMPVT,414.720,251630.999,3,49.1720860,-123.0701320,13.529,-0.006,-0.002,0.014,5.292,3.606,3.984,0.354,0.000,0.000,6.444,0.016,18,*04
$PSIWMPOS,000654.900,4910.32516,N,12304.20792,W,8.98,13.53,M,6.35,0,8,0,2,0,*58
$PSIWMATT,000654.900,360.0,T,0.7,0.2,180.0,*70
$PSIWMVEL,000654.900,360.0,T,0.0,K,-0.00,M,*7B
$PSIWMVSD,000654.900,0.00,0.00,0.00,2,0.00,0.00,0.00,2,*01
$GPGGA,215334.000,4910.32516,N,12304.20792,W,1,18,0.6,013.53,M,-16.8,M,,*50
$GPRMC,215334.000,A,4910.32516,N,12304.20792,W,0.0,0.0,161018,,,A*74
$GNGSA,A,3,32,10,14,18,08,20,11,27,24,01,22,,1.2,0.6,1.0*2C
$GNGSA,A,3,66,65,74,82,75,81,88,,,,,,1.2,0.6,1.0*29
$PSIWMPVT,415.720,251631.999,3,49.1720860,-123.0701320,13.529,-0.003,-0.001,0.025,5.292,3.606,3.887,0.354,0.000,0.000,6.309,0.012,18,*08
$PSIWMPOS,000655.900,4910.32516,N,12304.20792,W,8.98,13.53,M,6.35,0,8,0,2,0,*59
$PSIWMATT,000655.900,360.0,T,0.6,0.2,180.0,*70
$PSIWMVEL,000655.900,360.0,T,0.0,K,-0.00,M,*7A
$PSIWMVSD,000655.900,0.00,0.00,0.00,2,0.00,0.00,0.00,2,*00
$GPGGA,215335.000,4910.32516,N,12304.20792,W,1,19,0.6,013.53,M,-16.8,M,,*50
$GPRMC,215335.000,A,4910.32516,N,12304.20792,W,0.0,0.0,161018,,,A*75
$GNGSA,A,3,32,10,14,18,08,20,11,27,24,01,22,,1.2,0.6,1.0*2C
$GNGSA,A,3,66,65,74,82,75,81,88,67,,,,,1.2,0.6,1.0*28
$PSIWMPVT,416.720,251632.999,3,49.1720860,-123.0701320,13.529,0.002,-0.002,0.016,5.292,3.606,3.660,0.354,0.000,0.000,5.906,0.027,19,*21
$PSIWMPOS,000656.900,4910.32516,N,12304.20792,W,8.98,13.53,M,6.35,0,8,0,2,0,*5A
$PSIWMATT,000656.900,360.0,T,0.6,0.2,180.0,*73
$PSIWMVEL,000656.900,360.0,T,0.0,K,-0.00,M,*79
$PSIWMVSD,000656.900,0.00,0.00,0.00,2,0.00,0.00,0.00,2,*03
$GPGGA,215336.000,4910.32516,N,12304.20792,W,1,19,0.6,013.53,M,-16.8,M,,*53
$GPRMC,215336.000,A,4910.32516,N,12304.20792,W,0.0,0.0,161018,,,A*76
$GNGSA,A,3,32,10,14,18,08,20,11,27,24,01,22,,1.2,0.6,1.0*2C
$GNGSA,A,3,66,65,74,82,75,81,88,67,,,,,1.2,0.6,1.0*28
$PSIWMPVT,417.720,251634.000,3,49.1720860,-123.0701320,13.529,-0.001,-0.007,0.021,5.292,3.674,3.180,0.354,0.000,0.000,5.149,0.016,19,*0D
$PSIWMPOS,000657.900,4910.32516,N,12304.20792,W,8.98,13.53,M,6.35,0,8,0,2,0,*5B
$PSIWMATT,000657.900,360.0,T,0.6,0.2,180.0,*72
$PSIWMVEL,000657.900,360.0,T,0.0,K,-0.00,M,*78
$PSIWMVSD,000657.900,0.00,0.00,0.00,2,0.00,0.00,0.00,2,*02
$GPGGA,215337.000,4910.32516,N,12304.20792,W,1,18,0.6,013.53,M,-16.8,M,,*53
$GPRMC,215337.000,A,4910.32516,N,12304.20792,W,0.0,0.0,161018,,,A*77
$GNGSA,A,3,32,10,14,18,08,20,11,27,24,01,22,,1.2,0.6,1.0*2C
$GNGSA,A,3,66,65,74,82,75,81,88,,,,,,1.2,0.6,1.0*29
$PSIWMPVT,418.720,251635.000,3,49.1720860,-123.0701320,13.529,0.001,-0.014,0.001,5.292,3.674,3.742,0.354,0.000,0.000,6.070,0.020,18,*2A
$PSIWMPOS,000658.900,4910.32516,N,12304.20792,W,8.98,13.53,M,6.35,0,8,0,2,0,*54
$PSIWMATT,000658.900,360.0,T,0.6,0.2,180.0,*7D
$PSIWMVEL,000658.900,360.0,T,0.0,K,-0.00,M,*77
$PSIWMVSD,000658.900,0.00,0.00,0.00,2,0.00,0.00,0.00,2,*0D
$GPGGA,215338.000,4910.32516,N,12304.20792,W,1,18,0.6,013.53,M,-16.8,M,,*5C
$GPRMC,215338.000,A,4910.32516,N,12304.20792,W,0.0,0.0,161018,,,A*78
$GNGSA,A,3,32,10,14,18,08,20,11,27,24,01,22,,1.2,0.6,1.0*2C
$GNGSA,A,3,66,65,74,82,75,81,88,,,,,,1.2,0.6,1.0*29
$PSIWMPVT,419.720,251635.999,3,49.1720860,-123.0701320,13.529,-0.001,-0.017,-0.000,5.339,3.674,3.875,0.354,0.000,0.000,6.329,0.023,18,*27
$PSIWMPOS,000659.900,4910.32516,N,12304.20792,W,9.06,13.53,M,6.41,0,8,0,2,0,*50
$PSIWMATT,000659.900,360.0,T,0.6,0.2,180.0,*7C
$PSIWMVEL,000659.900,360.0,T,0.0,K,-0.00,M,*76
$PSIWMVSD,000659.900,0.00,0.00,0.00,2,0.00,0.00,0.00,2,*0C
$GPGGA,215339.000,4910.32516,N,12304.20792,W,1,18,0.6,013.53,M,-16.8,M,,*5D
$GPRMC,215339.000,A,4910.32516,N,12304.20792,W,0.0,0.0,161018,,,A*79
$GNGSA,A,3,32,10,14,18,08,20,11,27,24,01,22,,1.2,0.6,1.0*2C
$GNGSA,A,3,66,65,74,82,75,81,88,,,,,,1.2,0.6,1.0*29
$PSIWMPVT,420.730,251636.999,3,49.1720860,-123.0701320,13.529,-0.007,-0.002,0.027,5.339,3.674,3.848,0.354,0.000,0.000,6.268,0.027,18,*0B
$PSIWMPOS,000700.900,4910.32516,N,12304.20792,W,9.06,13.53,M,6.41,0,8,0,2,0,*5D
$PSIWMATT,000700.900,360.0,T,0.6,0.2,180.0,*71
$PSIWMVEL,000700.900,360.0,T,0.0,K,-0.00,M,*7B
$PSIWMVSD,000700.900,0.00,0.00,0.00,2,0.00,0.00,0.00,2,*01
$GPGGA,215340.000,4910.32516,N,12304.20792,W,1,19,0.6,013.53,M,-16.8,M,,*52
$GPRMC,215340.000,A,4910.32516,N,12304.20792,W,0.0,0.0,161018,,,A*77
$GNGSA,A,3,32,10,14,18,08,20,11,27,24,01,22,,1.2,0.6,1.0*2C
$GNGSA,A,3,66,65,74,82,75,81,88,67,,,,,1.2,0.6,1.0*28
$PSIWMPVT,421.720,251638.000,3,49.1720860,-123.0701320,13.529,0.003,0.002,0.013,5.339,3.674,3.602,0.354,0.000,0.000,5.816,0.008,19,*03
$PSIWMPOS,000701.900,4910.32516,N,12304.20792,W,9.06,13.53,M,6.41,0,8,0,2,0,*5C
$PSIWMATT,000701.900,360.0,T,0.6,0.2,180.0,*70
$PSIWMVEL,000701.900,360.0,T,0.0,K,-0.00,M,*7A
$PSIWMVSD,000701.900,0.00,0.00,0.00,2,0.00,0.00,0.00,2,*00
$GPGGA,215341.000,4910.32516,N,12304.20792,W,1,18,0.6,013.53,M,-16.8,M,,*52
$GPRMC,215341.000,A,4910.32516,N,12304.20792,W,0.0,0.0,161018,,,A*76
$GNGSA,A,3,32,10,14,18,08,20,11,27,24,01,22,,1.2,0.6,1.0*2C
$GNGSA,A,3,66,65,74,82,75,81,88,,,,,,1.2,0.6,1.0*29
$PSIWMPVT,422.720,251639.000,3,49.1720860,-123.0701320,13.529,-0.007,-0.015,-0.002,5.339,3.742,3.578,0.354,0.000,0.000,5.816,0.012,18,*2E
$PSIWMPOS,000702.900,4910.32516,N,12304.20792,W,9.06,13.53,M,6.41,0,8,0,2,0,*5F
$PSIWMATT,000702.900,360.0,T,0.6,0.2,180.0,*73
$PSIWMVEL,000702.900,360.0,T,0.0,K,-0.00,M,*79
$PSIWMVSD,000702.900,0.00,0.00,0.00,2,0.00,0.00,0.00,2,*03
$GPGGA,215342.000,4910.32516,N,12304.20792,W,1,18,0.6,013.53,M,-16.8,M,,*51
$GPRMC,215342.000,A,4910.32516,N,12304.20792,W,0.0,0.0,161018,,,A*75
$GNGSA,A,3,32,10,14,18,08,20,11,27,24,01,22,,1.2,0.6,1.0*2C
$GNGSA,A,3,66,65,74,82,75,81,88,,,,,,1.2,0.6,1.0*29
$PSIWMPVT,423.720,251639.999,3,49.1720860,-123.0701320,13.529,-0.003,-0.009,0.001,5.339,3.742,3.629,0.354,0.000,0.000,5.909,0.031,18,*08
$PSIWMPOS,000703.900,4910.32516,N,12304.20792,W,9.06,13.53,M,6.41,0,8,0,2,0,*5E
$PSIWMATT,000703.900,360.0,T,0.6,0.2,180.0,*72
$PSIWMVEL,000703.900,360.0,T,0.0,K,-0.00,M,*78
$PSIWMVSD,000703.900,0.00,0.00,0.00,2,0.00,0.00,0.00,2,*02
$GPGGA,215343.000,4910.32516,N,12304.20792,W,1,19,0.6,013.53,M,-16.8,M,,*51
$GPRMC,215343.000,A,4910.32516,N,12304.20792,W,0.0,0.0,161018,,,A*74
$GNGSA,A,3,32,10,14,18,08,20,11,27,24,01,22,,1.2,0.6,1.0*2C
$GNGSA,A,3,66,65,74,82,75,81,88,67,,,,,1.2,0.6,1.0*28
$PSIWMPVT,424.720,251640.999,3,49.1720860,-123.0701320,13.529,0.010,-0.010,-0.014,5.385,3.742,3.039,0.354,0.000,0.000,4.938,0.012,19,*0C
$PSIWMPOS,000704.900,4910.32516,N,12304.20792,W,9.14,13.53,M,6.46,0,8,0,2,0,*5D
$PSIWMATT,000704.900,360.0,T,0.6,0.2,180.0,*75
$PSIWMVEL,000704.900,360.0,T,0.0,K,-0.00,M,*7F
$PSIWMVSD,000704.900,0.00,0.00,0.00,2,0.00,0.00,0.00,2,*05
$GPGGA,215344.000,4910.32516,N,12304.20792,W,1,19,0.6,013.53,M,-16.8,M,,*56
$GPRMC,215344.000,A,4910.32516,N,12304.20792,W,0.0,0.0,161018,,,A*73
$GNGSA,A,3,32,10,14,18,08,20,11,27,24,01,22,,1.2,0.6,1.0*2C
$GNGSA,A,3,66,65,74,82,75,81,88,67,,,,,1.2,0.6,1.0*28
$PSIWMPVT,425.730,251642.000,3,49.1720860,-123.0701320,13.529,-0.011,0.005,-0.012,5.385,3.742,2.355,0.354,0.000,0.000,3.799,0.016,19,*0A
$PSIWMPOS,000705.900,4910.32516,N,12304.20792,W,9.14,13.53,M,6.46,0,8,0,2,0,*5C
$PSIWMATT,000705.900,360.0,T,0.6,0.2,180.0,*74
$PSIWMVEL,000705.900,360.0,T,0.0,K,-0.00,M,*7E
$PSIWMVSD,000705.900,0.00,0.00,0.00,2,0.00,0.00,0.00,2,*04
$GPGGA,215345.000,4910.32516,N,12304.20792,W,1,19,0.6,013.53,M,-16.8,M,,*57
$GPRMC,215345.000,A,4910.32516,N,12304.20792,W,0.0,0.0,161018,,,A*72
$GNGSA,A,3,32,10,14,18,08,20,11,27,24,01,22,,1.2,0.6,1.0*2C
$GNGSA,A,3,66,65,74,82,75,81,88,67,,,,,1.2,0.6,1.0*28
$PSIWMPVT,426.730,251643.000,3,49.1720860,-123.0701320,13.529,0.001,-0.009,-0.015,5.385,3.742,2.801,0.354,0.000,0.000,4.562,0.012,19,*0D
$PSIWMPOS,000706.900,4910.32516,N,12304.20792,W,9.14,13.53,M,6.46,0,8,0,2,0,*5F
$PSIWMATT,000706.900,360.0,T,0.6,0.2,180.0,*77
$PSIWMVEL,000706.900,360.0,T,0.0,K,-0.00,M,*7D
$PSIWMVSD,000706.900,0.00,0.00,0.00,2,0.00,0.00,0.00,2,*07
$GPGGA,215346.000,4910.32516,N,12304.20792,W,1,19,0.6,013.53,M,-16.8,M,,*54
$GPRMC,215346.000,A,4910.32516,N,12304.20792,W,0.0,0.0,161018,,,A*71
$GNGSA,A,3,32,10,14,18,08,20,11,27,24,01,22,,1.2,0.6,1.0*2C
$GNGSA,A,3,66,65,74,82,75,81,88,67,,,,,1.2,0.6,1.0*28
$PSIWMPVT,427.720,251644.000,3,49.1720860,-123.0701320,13.529,0.005,-0.013,-0.025,5.385,3.808,2.176,0.354,0.000,0.000,3.484,0.012,19,*00
$PSIWMPOS,000707.900,4910.32516,N,12304.20792,W,9.14,13.53,M,6.46,0,8,0,2,0,*5E
$PSIWMATT,000707.900,360.0,T,0.6,0.2,180.0,*76
$PSIWMVEL,000707.900,360.0,T,0.0,K,-0.00,M,*7C
$PSIWMVSD,000707.900,0.00,0.00,0.00,2,0.00,0.00,0.00,2,*06
$GPGGA,215347.000,4910.32516,N,12304.20792,W,1,19,0.6,013.53,M,-16.8,M,,*55
$GPRMC,215347.000,A,4910.32516,N,12304.20792,W,0.0,0.0,161018,,,A*70
$GNGSA,A,3,32,10,14,18,08,20,11,27,24,01,22,,1.2,0.6,1.0*2C
$GNGSA,A,3,66,65,74,82,75,81,88,67,,,,,1.2,0.6,1.0*28
$PSIWMPVT,428.730,251645.000,3,49.1720860,-123.0701320,13.529,-0.002,-0.016,-0.032,5.385,3.808,2.234,0.354,0.000,0.000,3.579,0.016,19,*24
$PSIWMPOS,000708.900,4910.32516,N,12304.20792,W,9.14,13.53,M,6.46,0,8,0,2,0,*51
$PSIWMATT,000708.900,360.0,T,0.6,0.2,180.0,*79
$PSIWMVEL,000708.900,360.0,T,0.0,K,-0.00,M,*73
$PSIWMVSD,000708.900,0.00,0.00,0.00,2,0.00,0.00,0.00,2,*09
$GPGGA,215348.000,4910.32516,N,12304.20792,W,1,19,0.6,013.53,M,-16.8,M,,*5A
$GPRMC,215348.000,A,4910.32516,N,12304.20792,W,0.0,0.0,161018,,,A*7F
$GNGSA,A,3,32,10,14,18,08,20,11,27,24,01,22,,1.2,0.6,1.0*2C
$GNGSA,A,3,66,65,74,82,75,81,88,67,,,,,1.2,0.6,1.0*28
$PSIWMPVT,429.730,251646.000,3,49.1720860,-123.0701320,13.529,0.004,-0.008,-0.044,5.431,3.808,2.344,0.354,0.000,0.000,3.768,0.031,19,*0A
$PSIWMPOS,000709.900,4910.32516,N,12304.20792,W,9.22,13.53,M,6.52,0,8,0,2,0,*50
$PSIWMATT,000709.900,360.0,T,0.6,0.2,180.0,*78
$PSIWMVEL,000709.900,360.0,T,0.0,K,-0.00,M,*72
$PSIWMVSD,000709.900,0.00,0.00,0.00,2,0.00,0.00,0.00,2,*08
$GPGGA,215349.000,4910.32516,N,12304.20792,W,1,19,0.6,013.53,M,-16.8,M,,*5B
$GPRMC,215349.000,A,4910.32516,N,12304.20792,W,0.0,0.0,161018,,,A*7E
$GNGSA,A,3,32,10,14,18,08,20,11,27,24,01,22,,1.2,0.6,1.0*2C
$GNGSA,A,3,66,65,74,82,75,81,88,67,,,,,1.2,0.6,1.0*28
$PSIWMPVT,430.730,251647.000,3,49.1720860,-123.0701320,13.529,-0.002,-0.022,-0.037,5.431,3.808,3.695,0.354,0.000,0.000,6.032,0.023,19,*22
$PSIWMPOS,000710.900,4910.32516,N,12304.20792,W,9.22,13.53,M,6.52,0,8,0,2,0,*58
$PSIWMATT,000710.900,360.0,T,0.6,0.2,180.0,*70
$PSIWMVEL,000710.900,360.0,T,0.0,K,-0.00,M,*7A
$PSIWMVSD,000710.900,0.00,0.00,0.00,2,0.00,0.00,0.00,2,*00
$GPGGA,215350.000,4910.32516,N,12304.20792,W,1,19,0.6,013.53,M,-16.8,M,,*53
$GPRMC,215350.000,A,4910.32516,N,12304.20792,W,0.0,0.0,161018,,,A*76
$GNGSA,A,3,32,10,14,18,08,20,11,27,24,01,22,,1.2,0.6,1.0*2C
$GNGSA,A,3,66,65,74,82,75,81,88,67,,,,,1.2,0.6,1.0*28
$PSIWMPVT,431.730,251648.000,3,49.1720860,-123.0701320,13.529,0.002,-0.013,-0.046,5.431,3.808,3.242,0.354,0.000,0.000,5.242,0.031,19,*0E
$PSIWMPOS,000711.900,4910.32516,N,12304.20792,W,9.22,13.53,M,6.52,0,8,0,2,0,*59
$PSIWMATT,000711.900,360.0,T,0.6,0.2,180.0,*71
$PSIWMVEL,000711.900,360.0,T,0.0,K,-0.00,M,*7B
$PSIWMVSD,000711.900,0.00,0.00,0.00,2,0.00,0.00,0.00,2,*01
$GPGGA,215351.000,4910.32516,N,12304.20792,W,1,19,0.6,013.53,M,-16.8,M,,*52
$GPRMC,215351.000,A,4910.32516,N,12304.20792,W,0.0,0.0,161018,,,A*77
$GNGSA,A,3,32,10,14,18,08,20,11,27,24,01,22,,1.2,0.6,1.0*2C
$GNGSA,A,3,66,65,74,82,75,81,88,67,,,,,1.2,0.6,1.0*28
$PSIWMPVT,432.730,251649.000,3,49.1720860,-123.0701320,13.529,0.004,-0.012,-0.062,5.431,3.873,3.383,0.354,0.000,0.000,5.545,0.027,19,*0A
$PSIWMPOS,000712.900,4910.32516,N,12304.20792,W,9.22,13.53,M,6.52,0,8,0,2,0,*5A
$PSIWMATT,000712.900,360.0,T,0.6,0.2,180.0,*72
$PSIWMVEL,000712.900,360.0,T,0.0,K,-0.00,M,*78
$PSIWMVSD,000712.900,0.00,0.00,0.00,2,0.00,0.00,0.00,2,*02
$GPGGA,215352.000,4910.32516,N,12304.20792,W,1,19,0.6,013.53,M,-16.8,M,,*51
$GPRMC,215352.000,A,4910.32516,N,12304.20792,W,0.0,0.0,161018,,,A*74
$GNGSA,A,3,32,10,14,18,08,20,11,27,24,01,22,,1.2,0.6,1.0*2C
$GNGSA,A,3,66,65,74,82,75,81,88,67,,,,,1.2,0.6,1.0*28
$PSIWMPVT,433.720,251650.000,3,49.1720860,-123.0701320,13.529,0.001,-0.005,-0.046,5.431,3.873,3.934,0.354,0.000,0.000,6.603,0.055,19,*06
$PSIWMPOS,000713.900,4910.32516,N,12304.20792,W,9.22,13.53,M,6.52,0,8,0,2,0,*5B
$PSIWMATT,000713.900,360.0,T,0.7,0.2,180.0,*72
$PSIWMVEL,000713.900,360.0,T,0.0,K,-0.00,M,*79
$PSIWMVSD,000713.900,0.00,0.00,0.00,2,0.00,0.00,0.00,2,*03
$GPGGA,215353.000,4910.32516,N,12304.20792,W,1,19,0.6,013.53,M,-16.8,M,,*50
$GPRMC,215353.000,A,4910.32516,N,12304.20792,W,0.0,0.0,161018,,,A*75
$GNGSA,A,3,32,10,14,18,08,20,11,27,24,01,22,,1.2,0.6,1.0*2C
$GNGSA,A,3,66,65,74,82,75,81,88,67,,,,,1.2,0.6,1.0*28
$PSIWMPVT,434.730,251651.000,3,49.1720860,-123.0701320,13.529,-0.002,-0.007,-0.042,5.477,3.873,4.266,0.354,0.000,0.000,7.089,0.016,19,*22
$PSIWMPOS,000714.900,4910.32516,N,12304.20792,W,9.30,13.53,M,6.57,0,8,0,2,0,*5A
$PSIWMATT,000714.900,360.0,T,0.7,0.2,180.0,*75
$PSIWMVEL,000714.900,360.0,T,0.0,K,-0.00,M,*7E
$PSIWMVSD,000714.900,0.00,0.00,0.00,2,0.00,0.00,0.00,2,*04
$GPGGA,215354.000,4910.32516,N,12304.20792,W,1,18,0.6,013.53,M,-16.8,M,,*56
$GPRMC,215354.000,A,4910.32516,N,12304.20792,W,0.0,0.0,161018,,,A*72
$GNGSA,A,3,32,10,14,18,08,20,11,27,24,01,22,,1.2,0.6,1.0*2C
$GNGSA,A,3,66,65,74,82,75,81,88,,,,,,1.2,0.6,1.0*29
$PSIWMPVT,435.720,251652.000,3,49.1720860,-123.0701320,13.529,0.009,-0.003,-0.042,5.477,3.873,4.258,0.354,0.000,0.000,7.084,0.020,18,*07
$PSIWMPOS,000715.900,4910.32516,N,12304.20792,W,9.30,13.53,M,6.57,0,8,0,2,0,*5B
$PSIWMATT,000715.900,360.0,T,0.7,0.2,180.0,*74
$PSIWMVEL,000715.900,360.0,T,0.0,K,-0.00,M,*7F
$PSIWMVSD,000715.900,0.00,0.00,0.00,2,0.00,0.00,0.00,2,*05
$GPGGA,215355.000,4910.32516,N,12304.20792,W,1,18,0.6,013.53,M,-16.8,M,,*57
$GPRMC,215355.000,A,4910.32516,N,12304.20792,W,0.0,0.0,161018,,,A*73
$GNGSA,A,3,32,10,14,18,08,20,11,27,24,01,22,,1.2,0.6,1.0*2C
$GNGSA,A,3,66,65,74,82,75,81,88,,,,,,1.2,0.6,1.0*29
$PSIWMPVT,436.720,251653.000,3,49.1720860,-123.0701320,13.529,0.017,-0.012,-0.060,5.477,3.873,4.051,0.354,0.000,0.000,6.754,0.055,18,*08
$PSIWMPOS,000716.900,4910.32516,N,12304.20792,W,9.30,13.53,M,6.57,0,8,0,2,0,*58
$PSIWMATT,000716.900,360.0,T,0.7,0.2,180.0,*77
$PSIWMVEL,000716.900,360.0,T,0.0,K,-0.00,M,*7C
$PSIWMVSD,000716.900,0.00,0.00,0.00,2,0.00,0.00,0.00,2,*06
$GPGGA,215356.000,4910.32516,N,12304.20792,W,1,18,0.6,013.53,M,-16.8,M,,*54
$GPRMC,215356.000,A,4910.32516,N,12304.20792,W,0.0,0.0,161018,,,A*70
$GNGSA,A,3,32,10,14,18,08,20,11,27,24,01,22,,1.2,0.6,1.0*2C
$GNGSA,A,3,66,65,74,82,75,81,88,,,,,,1.2,0.6,1.0*29
$PSIWMPVT,437.720,251653.999,3,49.1720860,-123.0701320,13.529,0.001,-0.010,-0.065,5.477,3.937,3.867,0.354,0.000,0.000,6.701,0.035,18,*0D
$PSIWMPOS,000717.900,4910.32516,N,12304.20792,W,9.30,13.53,M,6.57,0,8,0,2,0,*59
$PSIWMATT,000717.900,360.0,T,0.7,0.2,180.0,*76
$PSIWMVEL,000717.900,360.0,T,0.0,K,-0.00,M,*7D
$PSIWMVSD,000717.900,0.00,0.00,0.00,2,0.00,0.00,0.00,2,*07
$GPGGA,215357.000,4910.32516,N,12304.20792,W,1,18,0.6,013.53,M,-16.8,M,,*55
$GPRMC,215357.000,A,4910.32516,N,12304.20792,W,0.0,0.0,161018,,,A*71
$GNGSA,A,3,32,10,14,18,08,20,11,27,24,01,22,,1.2,0.6,1.0*2C
$GNGSA,A,3,66,65,74,82,75,81,88,,,,,,1.2,0.6,1.0*29
$PSIWMPVT,438.720,251654.999,3,49.1720860,-123.0701320,13.529,-0.001,-0.011,-0.051,5.477,3.937,3.715,0.354,0.000,0.000,6.393,0.020,18,*2F
$PSIWMPOS,000718.900,4910.32516,N,12304.20792,W,9.30,13.53,M,6.57,0,8,0,2,0,*56
$PSIWMATT,000718.900,360.0,T,0.7,0.2,180.0,*79
$PSIWMVEL,000718.900,360.0,T,0.0,K,-0.00,M,*72
$PSIWMVSD,000718.900,0.00,0.00,0.00,2,0.00,0.00,0.00,2,*08
$GPGGA,215358.000,4910.32516,N,12304.20792,W,1,18,0.6,013.53,M,-16.8,M,,*5A
$GPRMC,215358.000,A,4910.32516,N,12304.20792,W,0.0,0.0,161018,,,A*7E
$GNGSA,A,3,32,10,14,18,08,20,11,27,24,01,22,,1.2,0.6,1.0*2C
$GNGSA,A,3,66,65,74,82,75,81,88,,,,,,1.2,0.6,1.0*29
$PSIWMPVT,439.720,251655.999,3,49.1720860,-123.0701320,13.529,-0.002,-0.014,-0.042,5.523,3.937,3.520,0.354,0.000,0.000,6.032,0.023,18,*24
$PSIWMPOS,000719.900,4910.32516,N,12304.20792,W,9.37,13.53,M,6.63,0,8,0,2,0,*57
$PSIWMATT,000719.900,360.0,T,0.7,0.2,180.0,*78
$PSIWMVEL,000719.900,360.0,T,0.0,K,-0.00,M,*73
$PSIWMVSD,000719.900,0.00,0.00,0.00,2,0.00,0.00,0.00,2,*09
$GPGGA,215359.000,4910.32516,N,12304.20792,W,1,19,0.6,013.53,M,-16.8,M,,*5A
$GPRMC,215359.000,A,4910.32516,N,12304.20792,W,0.0,0.0,161018,,,A*7F
$GNGSA,A,3,32,10,14,18,08,20,11,27,24,01,22,,1.2,0.6,1.0*2C
$GNGSA,A,3,66,65,74,82,75,81,88,67,,,,,1.2,0.6,1.0*28
$PSIWMPVT,440.730,251656.999,3,49.1720860,-123.0701320,13.529,0.008,-0.001,-0.030,5.523,3.937,3.062,0.354,0.000,0.000,5.193,0.043,19,*03
$PSIWMPOS,000720.900,4910.32516,N,12304.20792,W,9.37,13.53,M,6.63,0,8,0,2,0,*5D
$PSIWMATT,000720.900,360.0,T,0.7,0.2,180.0,*72
$PSIWMVEL,000720.900,360.0,T,0.0,K,-0.00,M,*79
$PSIWMVSD,000720.900,0.00,0.00,0.00,2,0.00,0.00,0.00,2,*03
$GPGGA,215400.000,4910.32516,N,12304.20792,W,1,19,0.6,013.53,M,-16.8,M,,*51
$GPRMC,215400.000,A,4910.32516,N,12304.20792,W,0.0,0.0,161018,,,A*74
$GNGSA,A,3,32,10,14,18,08,20,11,27,24,01,22,,1.2,0.6,1.0*2C
$GNGSA,A,3,66,65,74,82,75,81,88,67,,,,,1.2,0.6,1.0*28
$PSIWMPVT,441.730,251657.999,3,49.1720860,-123.0701320,13.529,0.001,-0.002,-0.026,5.523,3.937,3.492,0.354,0.000,0.000,5.913,0.043,19,*05
$PSIWMPOS,000721.900,4910.32516,N,12304.20792,W,9.37,13.53,M,6.63,0,8,0,2,0,*5C
$PSIWMATT,000721.900,360.0,T,0.7,0.2,180.0,*73
$PSIWMVEL,000721.900,360.0,T,0.0,K,-0.00,M,*78
$PSIWMVSD,000721.900,0.00,0.00,0.00,2,0.00,0.00,0.00,2,*02
$GPGGA,215401.000,4910.32516,N,12304.20792,W,1,18,0.6,013.53,M,-16.8,M,,*51
$GPRMC,215401.000,A,4910.32516,N,12304.20792,W,0.0,0.0,161018,,,A*75
$GNGSA,A,3,32,10,14,18,08,20,11,27,24,01,22,,1.2,0.6,1.0*2C
$GNGSA,A,3,66,65,74,82,75,81,88,,,,,,1.2,0.6,1.0*29
$PSIWMPVT,442.730,251658.999,3,49.1720860,-123.0701320,13.529,0.000,-0.003,-0.027,5.523,4.000,3.574,0.354,0.000,0.000,6.095,0.035,18,*0F
$PSIWMPOS,000722.900,4910.32516,N,12304.20792,W,9.37,13.53,M,6.63,0,8,0,2,0,*5F
$PSIWMATT,000722.900,360.0,T,0.7,0.2,180.0,*70
$PSIWMVEL,000722.900,360.0,T,0.0,K,-0.00,M,*7B
$PSIWMVSD,000722.900,0.00,0.00,0.00,2,0.00,0.00,0.00,2,*01
$GPGGA,215402.000,4910.32516,N,12304.20792,W,1,18,0.6,013.53,M,-16.8,M,,*52
$GPRMC,215402.000,A,4910.32516,N,12304.20792,W,0.0,0.0,161018,,,A*76
$GNGSA,A,3,32,10,14,18,08,20,11,27,24,01,22,,1.2,0.6,1.0*2C
$GNGSA,A,3,66,65,74,82,75,81,88,,,,,,1.2,0.6,1.0*29
$PSIWMPVT,443.720,251659.999,3,49.1720860,-123.0701320,13.529,0.004,-0.011,-0.043,5.523,4.000,3.762,0.354,0.000,0.000,6.510,0.055,18,*00
$PSIWMPOS,000723.900,4910.32516,N,12304.20792,W,9.37,13.53,M,6.63,0,8,0,2,0,*5E
$PSIWMATT,000723.900,360.0,T,0.7,0.2,180.0,*71
$PSIWMVEL,000723.900,360.0,T,0.0,K,-0.00,M,*7A
$PSIWMVSD,000723.900,0.00,0.00,0.00,2,0.00,0.00,0.00,2,*00
$GPGGA,215403.000,4910.32516,N,12304.20792,W,1,18,0.6,013.53,M,-16.8,M,,*53
$GPRMC,215403.000,A,4910.32516,N,12304.20792,W,0.0,0.0,161018,,,A*77
$GNGSA,A,3,32,10,14,18,08,20,11,27,24,01,22,,1.2,0.6,1.0*2C
$GNGSA,A,3,66,65,74,82,75,81,88,,,,,,1.2,0.6,1.0*29
$PSIWMPVT,444.730,251661.000,3,49.1720860,-123.0701320,13.529,0.016,0.009,-0.019,5.568,4.000,3.730,0.354,0.000,0.000,6.437,0.105,18,*24
$PSIWMPOS,000724.900,4910.32516,N,12304.20792,W,9.45,13.53,M,6.68,0,8,0,2,0,*57
$PSIWMATT,000724.900,360.0,T,0.6,0.2,180.0,*77
$PSIWMVEL,000724.900,360.0,T,0.0,K,-0.00,M,*7D
$PSIWMVSD,000724.900,0.00,0.00,0.00,2,0.00,0.00,0.00,2,*07
$GPGGA,215404.000,4910.32516,N,12304.20792,W,1,18,0.6,013.53,M,-16.8,M,,*54
$GPRMC,215404.000,A,4910.32516,N,12304.20792,W,0.0,0.0,161018,,,A*70
$GNGSA,A,3,32,10,14,18,08,20,11,27,24,01,22,,1.2,0.6,1.0*2C
$GNGSA,A,3,66,65,74,82,75,81,88,,,,,,1.2,0.6,1.0*29
$PSIWMPVT,445.720,251661.999,3,49.1720860,-123.0701320,13.529,0.008,-0.008,-0.013,5.568,4.000,3.941,0.354,0.000,0.000,6.913,0.012,18,*00
$PSIWMPOS,000725.900,4910.32516,N,12304.20792,W,9.45,13.53,M,6.68,0,8,0,2,0,*56
$PSIWMATT,000725.900,360.0,T,0.7,0.2,180.0,*77
$PSIWMVEL,000725.900,360.0,T,0.0,K,-0.00,M,*7C
$PSIWMVSD,000725.900,0.00,0.00,0.00,2,0.00,0.00,0.00,2,*06
$GPGGA,215405.000,4910.32516,N,12304.20792,W,1,19,0.6,013.53,M,-16.8,M,,*54
$GPRMC,215405.000,A,4910.32516,N,12304.20792,W,0.0,0.0,161018,,,A*71
$GNGSA,A,3,32,10,14,18,08,20,11,27,24,01,22,,1.2,0.6,1.0*2C
$GNGSA,A,3,66,65,74,82,75,81,88,67,,,,,1.2,0.6,1.0*28
$PSIWMPVT,446.720,251662.999,3,49.1720860,-123.0701320,13.529,0.000,0.012,-0.013,5.568,4.000,3.402,0.354,0.000,0.000,5.637,0.031,19,*2E
$PSIWMPOS,000726.900,4910.32516,N,12304.20792,W,9.45,13.53,M,6.68,0,8,0,2,0,*55
$PSIWMATT,000726.900,360.0,T,0.7,0.2,180.0,*74
$PSIWMVEL,000726.900,360.0,T,0.0,K,-0.00,M,*7F
$PSIWMVSD,000726.900,0.00,0.00,0.00,2,0.00,0.00,0.00,2,*05
$GPGGA,215406.000,4910.32516,N,12304.20792,W,1,17,0.6,013.53,M,-16.8,M,,*59
$GPRMC,215406.000,A,4910.32516,N,12304.20792,W,0.0,0.0,161018,,,A*72
$GNGSA,A,3,32,10,14,18,08,20,11,27,24,01,,,1.2,0.6,1.0*2C
$GNGSA,A,3,66,65,74,82,75,81,88,,,,,,1.2,0.6,1.0*29
$PSIWMPVT,447.720,251663.999,3,49.1720860,-123.0701320,13.529,0.010,0.006,-0.018,5.568,4.062,4.086,0.354,0.000,0.000,6.905,0.090,17,*22
$PSIWMPOS,000727.900,4910.32516,N,12304.20792,W,9.45,13.53,M,6.68,0,8,0,2,0,*54
$PSIWMATT,000727.900,360.0,T,0.7,0.2,180.0,*75
$PSIWMVEL,000727.900,360.0,T,0.0,K,-0.00,M,*7E
$PSIWMVSD,000727.900,0.00,0.00,0.00,2,0.00,0.00,0.00,2,*04
$GPGGA,215407.000,4910.32534,N,12304.20778,W,1,18,0.6,013.08,M,-16.8,M,,*5D
$GPRMC,215407.000,A,4910.32534,N,12304.20778,W,0.0,0.0,161018,,,A*77
$GNGSA,A,3,32,10,14,18,08,20,11,27,24,01,,,1.2,0.6,1.0*2C
$GNGSA,A,3,66,65,74,82,75,81,88,67,,,,,1.2,0.6,1.0*28
$PSIWMPVT,448.730,251665.000,3,49.1720890,-123.0701296,13.083,0.020,0.003,-0.010,5.292,3.606,3.332,0.354,0.000,0.000,5.511,0.051,18,*29
$PSIWMPOS,000728.900,4910.32534,N,12304.20778,W,8.98,13.08,M,6.35,0,8,0,2,0,*58
$PSIWMATT,000728.900,360.0,T,0.7,0.2,180.0,*7A
$PSIWMVEL,000728.900,360.0,T,0.0,K,-0.00,M,*71
$PSIWMVSD,000728.900,0.00,0.00,0.00,2,0.00,0.00,0.00,2,*0B
$GPGGA,215408.000,4910.32534,N,12304.20778,W,1,18,0.6,013.08,M,-16.8,M,,*52
$GPRMC,215408.000,A,4910.32534,N,12304.20778,W,0.0,0.0,161018,,,A*78
$GNGSA,A,3,32,10,14,18,08,20,11,27,24,01,,,1.2,0.6,1.0*2C
$GNGSA,A,3,66,65,74,82,75,81,88,67,,,,,1.2,0.6,1.0*28
$PSIWMPVT,449.720,251665.999,3,49.1720890,-123.0701296,13.083,0.007,-0.000,-0.009,5.292,3.606,3.137,0.354,0.000,0.000,5.255,0.027,18,*02
$PSIWMPOS,000729.900,4910.32534,N,12304.20778,W,8.98,13.08,M,6.35,0,8,0,2,0,*59
$PSIWMATT,000729.900,360.0,T,0.7,0.2,180.0,*7B
$PSIWMVEL,000729.900,360.0,T,0.0,K,-0.00,M,*70
$PSIWMVSD,000729.900,0.00,0.00,0.00,2,0.00,0.00,0.00,2,*0A
$GPGGA,215409.000,4910.32534,N,12304.20778,W,1,18,0.6,013.08,M,-16.8,M,,*53
$GPRMC,215409.000,A,4910.32534,N,12304.20778,W,0.0,0.0,161018,,,A*79
$GNGSA,A,3,32,10,14,18,08,20,11,27,24,01,,,1.2,0.6,1.0*2C
$GNGSA,A,3,66,65,74,82,75,81,88,67,,,,,1.2,0.6,1.0*28
$PSIWMPVT,450.720,251666.999,3,49.1720890,-123.0701296,13.083,0.008,0.005,-0.006,5.292,3.606,3.320,0.354,0.000,0.000,5.632,0.062,18,*21
$PSIWMPOS,000730.900,4910.32534,N,12304.20778,W,8.98,13.08,M,6.35,0,8,0,2,0,*51
$PSIWMATT,000730.900,360.0,T,0.6,0.2,180.0,*72
$PSIWMVEL,000730.900,360.0,T,0.0,K,-0.00,M,*78
$PSIWMVSD,000730.900,0.00,0.00,0.00,2,0.00,0.00,0.00,2,*02
$GPGGA,215410.000,4910.32534,N,12304.20778,W,1,17,0.6,013.08,M,-16.8,M,,*54
$GPRMC,215410.000,A,4910.32534,N,12304.20778,W,0.0,0.0,161018,,,A*71
$GNGSA,A,3,32,10,14,18,08,20,11,27,24,01,,,1.2,0.6,1.0*2C
$GNGSA,A,3,66,65,74,82,75,81,88,,,,,,1.2,0.6,1.0*29
$PSIWMPVT,451.720,251667.999,3,49.1720890,-123.0701296,13.083,0.013,0.004,0.020,5.292,3.606,3.598,0.354,0.000,0.000,6.435,0.062,17,*0F
$PSIWMPOS,000731.900,4910.32534,N,12304.20778,W,8.98,13.08,M,6.35,0,8,0,2,0,*50
$PSIWMATT,000731.900,360.0,T,0.6,0.2,180.0,*73
$PSIWMVEL,000731.900,360.0,T,0.0,K,-0.00,M,*79
$PSIWMVSD,000731.900,0.00,0.00,0.00,2,0.00,0.00,0.00,2,*03
$GPGGA,215411.000,4910.32534,N,12304.20778,W,1,18,0.6,013.08,M,-16.8,M,,*5A
$GPRMC,215411.000,A,4910.32534,N,12304.20778,W,0.0,0.0,161018,,,A*70
$GNGSA,A,3,32,10,14,18,08,20,11,27,24,01,22,,1.2,0.6,1.0*2C
$GNGSA,A,3,66,65,74,82,75,81,88,,,,,,1.2,0.6,1.0*29
$PSIWMPVT,452.720,251669.000,3,49.1720890,-123.0701296,13.083,0.013,0.003,0.021,5.339,3.606,3.641,0.354,0.000,0.000,6.402,0.020,18,*07
$PSIWMPOS,000732.900,4910.32534,N,12304.20778,W,9.06,13.08,M,6.41,0,8,0,2,0,*56
$PSIWMATT,000732.900,360.0,T,0.6,0.2,180.0,*70
$PSIWMVEL,000732.900,360.0,T,0.0,K,-0.00,M,*7A
$PSIWMVSD,000732.900,0.00,0.00,0.00,2,0.00,0.00,0.00,2,*00
$GPGGA,215412.000,4910.32534,N,12304.20778,W,1,17,0.6,013.08,M,-16.8,M,,*56
$GPRMC,215412.000,A,4910.32534,N,12304.20778,W,0.0,0.0,161018,,,A*73
$GNGSA,A,3,32,10,14,18,08,20,11,27,24,01,,,1.2,0.6,1.0*2C
$GNGSA,A,3,66,65,74,82,75,81,88,,,,,,1.2,0.6,1.0*29
$PSIWMPVT,453.720,251670.000,3,49.1720890,-123.0701296,13.083,0.004,0.001,0.022,5.339,3.674,3.824,0.354,0.000,0.000,6.614,0.016,17,*0E
$PSIWMPOS,000733.900,4910.32534,N,12304.20778,W,9.06,13.08,M,6.41,0,8,0,2,0,*57
$PSIWMATT,000733.900,360.0,T,0.7,0.2,180.0,*70
$PSIWMVEL,000733.900,360.0,T,0.0,K,-0.00,M,*7B
$PSIWMVSD,000733.900,0.00,0.00,0.00,2,0.00,0.00,0.00,2,*01
$GPGGA,215413.000,4910.32534,N,12304.20778,W,1,17,0.6,013.08,M,-16.8,M,,*57
$GPRMC,215413.000,A,4910.32534,N,12304.20778,W,0.0,0.0,161018,,,A*72
$GNGSA,A,3,32,10,14,18,08,20,11,27,24,01,,,1.2,0.6,1.0*2C
$GNGSA,A,3,66,65,74,82,75,81,88,,,,,,1.2,0.6,1.0*29
$PSIWMPVT,454.720,251670.999,3,49.1720890,-123.0701296,13.083,0.010,-0.006,0.011,5.339,3.674,3.676,0.354,0.000,0.000,6.257,0.074,17,*21
$PSIWMPOS,000734.900,4910.32534,N,12304.20778,W,9.06,13.08,M,6.41,0,8,0,2,0,*50
$PSIWMATT,000734.900,360.0,T,0.7,0.2,180.0,*77
$PSIWMVEL,000734.900,360.0,T,0.0,K,-0.00,M,*7C
$PSIWMVSD,000734.900,0.00,0.00,0.00,2,0.00,0.00,0.00,2,*06
$GPGGA,215414.000,4910.32534,N,12304.20778,W,1,18,0.6,013.08,M,-16.8,M,,*5F
$GPRMC,215414.000,A,4910.32534,N,12304.20778,W,0.0,0.0,161018,,,A*75
$GNGSA,A,3,32,10,14,18,08,20,11,27,24,01,,,1.2,0.6,1.0*2C
$GNGSA,A,3,66,65,74,82,75,81,88,67,,,,,1.2,0.6,1.0*28
$PSIWMPVT,455.720,251672.000,3,49.1720890,-123.0701296,13.083,0.005,0.007,0.011,5.339,3.674,3.199,0.354,0.000,0.000,5.301,0.066,18,*08
$PSIWMPOS,000735.900,4910.32534,N,12304.20778,W,9.06,13.08,M,6.41,0,8,0,2,0,*51
$PSIWMATT,000735.900,360.0,T,0.7,0.2,180.0,*76
$PSIWMVEL,000735.900,360.0,T,0.0,K,-0.00,M,*7D
$PSIWMVSD,000735.900,0.00,0.00,0.00,2,0.00,0.00,0.00,2,*07
$GPGGA,215415.000,4910.32534,N,12304.20778,W,1,17,0.6,013.08,M,-16.8,M,,*51
$GPRMC,215415.000,A,4910.32534,N,12304.20778,W,0.0,0.0,161018,,,A*74
$GNGSA,A,3,32,10,14,18,08,20,11,27,24,01,,,1.2,0.6,1.0*2C
$GNGSA,A,3,66,65,74,82,75,81,88,,,,,,1.2,0.6,1.0*29
$PSIWMPVT,456.720,251673.000,3,49.1720890,-123.0701296,13.083,0.003,0.005,0.020,5.339,3.674,3.562,0.354,0.000,0.000,6.180,0.113,17,*08
$PSIWMPOS,000736.900,4910.32534,N,12304.20778,W,9.06,13.08,M,6.41,0,8,0,2,0,*52
$PSIWMATT,000736.900,360.0,T,0.7,0.2,180.0,*75
$PSIWMVEL,000736.900,360.0,T,0.0,K,-0.00,M,*7E
$PSIWMVSD,000736.900,0.00,0.00,0.00,2,0.00,0.00,0.00,2,*04
$GPGGA,215416.000,4910.32534,N,12304.20778,W,1,18,0.6,013.08,M,-16.8,M,,*5D
$GPRMC,215416.000,A,4910.32534,N,12304.20778,W,0.0,0.0,161018,,,A*77
$GNGSA,A,3,32,10,14,18,08,20,11,27,24,01,,,1.2,0.6,1.0*2C
$GNGSA,A,3,66,65,74,82,75,81,88,67,,,,,1.2,0.6,1.0*28
$PSIWMPVT,457.720,251674.000,3,49.1720890,-123.0701296,13.083,0.003,0.011,0.022,5.385,3.674,3.277,0.354,0.000,0.000,5.607,0.145,18,*0A
$PSIWMPOS,000737.900,4910.32534,N,12304.20778,W,9.14,13.08,M,6.46,0,8,0,2,0,*57
$PSIWMATT,000737.900,360.0,T,0.7,0.2,180.0,*74
$PSIWMVEL,000737.900,360.0,T,0.0,K,-0.00,M,*7F
$PSIWMVSD,000737.900,0.00,0.00,0.00,2,0.00,0.00,0.00,2,*05
$GPGGA,215417.000,4910.32534,N,12304.20778,W,1,18,0.6,013.08,M,-16.8,M,,*5C
$GPRMC,215417.000,A,4910.32534,N,12304.20778,W,0.0,0.0,161018,,,A*76
$GNGSA,A,3,32,10,14,18,08,20,11,27,24,01,,,1.2,0.6,1.0*2C
$GNGSA,A,3,66,65,74,82,75,81,88,67,,,,,1.2,0.6,1.0*28
$PSIWMPVT,458.720,251674.999,3,49.1720890,-123.0701296,13.083,0.011,0.013,0.034,5.385,3.742,3.273,0.354,0.000,0.000,5.278,0.020,18,*04
$PSIWMPOS,000738.900,4910.32534,N,12304.20778,W,9.14,13.08,M,6.46,0,8,0,2,0,*58
$PSIWMATT,000738.900,360.0,T,0.6,0.2,180.0,*7A
$PSIWMVEL,000738.900,360.0,T,0.0,K,-0.00,M,*70
$PSIWMVSD,000738.900,0.00,0.00,0.00,2,0.00,0.00,0.00,2,*0A
$GPGGA,215418.000,4910.32534,N,12304.20778,W,1,18,0.6,013.08,M,-16.8,M,,*53
$GPRMC,215418.000,A,4910.32534,N,12304.20778,W,0.0,0.0,161018,,,A*79
$GNGSA,A,3,32,10,14,18,08,20,11,27,24,01,,,1.2,0.6,1.0*2C
$GNGSA,A,3,66,65,74,82,75,81,88,67,,,,,1.2,0.6,1.0*28
$PSIWMPVT,459.720,251676.000,3,49.1720890,-123.0701296,13.083,0.013,0.015,0.048,5.385,3.742,3.309,0.354,0.000,0.000,5.522,0.023,18,*06
$PSIWMPOS,000739.900,4910.32534,N,12304.20778,W,9.14,13.08,M,6.46,0,8,0,2,0,*59
$PSIWMATT,000739.900,360.0,T,0.6,0.2,180.0,*7B
$PSIWMVEL,000739.900,360.0,T,0.0,K,-0.00,M,*71
$PSIWMVSD,000739.900,0.00,0.00,0.00,2,0.00,0.00,0.00,2,*0B
$GPGGA,215419.000,4910.32534,N,12304.20778,W,1,18,0.6,013.08,M,-16.8,M,,*52
$GPRMC,215419.000,A,4910.32534,N,12304.20778,W,0.0,0.0,161018,,,A*78
$GNGSA,A,3,32,10,14,18,08,20,11,27,24,01,,,1.2,0.6,1.0*2C
$GNGSA,A,3,66,65,74,82,75,81,88,67,,,,,1.2,0.6,1.0*28
$PSIWMPVT,460.720,251677.000,3,49.1720890,-123.0701296,13.083,0.007,0.005,0.040,5.385,3.742,3.258,0.354,0.000,0.000,5.299,0.020,18,*00
$PSIWMPOS,000740.900,4910.32534,N,12304.20778,W,9.14,13.08,M,6.46,0,8,0,2,0,*57
$PSIWMATT,000740.900,360.0,T,0.6,0.2,180.0,*75
$PSIWMVEL,000740.900,360.0,T,0.0,K,-0.00,M,*7F
$PSIWMVSD,000740.900,0.00,0.00,0.00,2,0.00,0.00,0.00,2,*05
$GPGGA,215420.000,4910.32534,N,12304.20778,W,1,18,0.6,013.08,M,-16.8,M,,*58
$GPRMC,215420.000,A,4910.32534,N,12304.20778,W,0.0,0.0,161018,,,A*72
$GNGSA,A,3,32,10,14,18,08,20,11,27,24,01,,,1.2,0.6,1.0*2C
$GNGSA,A,3,66,65,74,82,75,81,88,67,,,,,1.2,0.6,1.0*28
$PSIWMPVT,461.720,251678.000,3,49.1720890,-123.0701296,13.083,0.005,0.014,0.046,5.385,3.742,3.555,0.354,0.000,0.000,5.715,0.020,18,*01
$PSIWMPOS,000741.900,4910.32534,N,12304.20778,W,9.14,13.08,M,6.46,0,8,0,2,0,*56
$PSIWMATT,000741.900,360.0,T,0.6,0.2,180.0,*74
$PSIWMVEL,000741.900,360.0,T,0.0,K,-0.00,M,*7E
$PSIWMVSD,000741.900,0.00,0.00,0.00,2,0.00,0.00,0.00,2,*04
$GPGGA,215421.000,4910.32534,N,12304.20778,W,1,17,0.6,013.08,M,-16.8,M,,*56
$GPRMC,215421.000,A,4910.32534,N,12304.20778,W,0.0,0.0,161018,,,A*73
$GNGSA,A,3,32,10,14,18,08,20,11,27,24,01,,,1.2,0.6,1.0*2C
$GNGSA,A,3,66,65,74,82,75,81,88,,,,,,1.2,0.6,1.0*29
$PSIWMPVT,462.720,251679.000,3,49.1720890,-123.0701296,13.083,-0.006,0.016,0.042,5.431,3.742,3.766,0.354,0.000,0.000,6.197,0.031,17,*21
