$PSIWMPOS,000103.700,4910.32575,N,12304.20672,W,8.05,10.99,M,5.69,0,2,0,2,0,*58
$GPGGA,214730.000,4910.32569,N,12304.20662,W,1,19,0.6,011.05,M,-16.8,M,,*57
$PSIWMVEL,000103.700,360.0,T,0.0,K,-0.00,M,*70
$PSIWMVSD,000103.700,0.00,0.00,0.00,2,0.00,0.00,0.00,2,*0A
$GPRMC,214730.000,A,4910.32569,N,12304.20662,W,0.0,0.0,161018,,,A*73
$GNGSA,A,3,32,10,14,18,08,20,11,27,24,01,22,21,1.0,0.6,0.9*25
$GNGSA,A,3,66,65,74,82,75,81,88,,,,,,1.0,0.6,0.9*23
$PSIWMPVT,64.170,251268.000,3,49.1720949,-123.0701104,11.049,0.008,-0.012,-0.052,4.743,3.391,3.887,0.354,0.000,0.000,7.979,0.180,19,*3A
$GPGGA,214731.000,4910.32568,N,12304.20660,W,1,19,0.6,011.21,M,-16.8,M,,*53
$GPRMC,214731.000,A,4910.32568,N,12304.20660,W,0.0,0.0,161018,,,A*71
$GNGSA,A,3,32,10,14,18,08,20,11,27,24,01,22,21,1.0,0.6,0.9*25
$GNGSA,A,3,66,65,74,82,75,81,88,,,,,,1.0,0.6,0.9*23
$PSIWMPVT,64.730,251268.999,3,49.1720947,-123.0701101,11.213,0.000,-0.013,-0.049,4.743,3.391,4.223,0.354,0.000,0.000,8.499,0.098,19,*33
$GPGGA,214732.000,4910.32568,N,12304.20648,W,1,20,0.6,011.42,M,-16.8,M,,*55
$GPRMC,214732.000,A,4910.32568,N,12304.20648,W,0.0,0.0,161018,,,A*78
$GNGSA,A,3,32,10,14,18,08,20,11,27,24,01,22,21,1.0,0.6,0.9*25
$GNGSA,A,3,66,65,74,82,75,81,88,67,,,,,1.0,0.6,0.9*22
$PSIWMPVT,65.730,251269.999,3,49.1720947,-123.0701080,11.420,0.003,0.000,-0.054,4.690,3.317,3.867,0.354,0.000,0.000,7.420,0.043,20,*10
$PSIWMPDR,0.000,0.0000000,0.0000000,0.000,-1010101.125000000,-1010101.125000000,0,0.000000000,0.000000000,0.000000000,0.00,0.000000000,0.000000000,0.000000000,0.000000000,-1010101.125000000,24,*15
$GPGGA,214733.000,4910.32565,N,12304.20655,W,1,20,0.6,011.65,M,-16.8,M,,*50
$GPRMC,214733.000,A,4910.32565,N,12304.20655,W,0.0,0.0,161018,,,A*78
$GNGSA,A,3,32,10,14,18,08,20,11,27,24,01,22,21,1.0,0.6,0.9*25
$GNGSA,A,3,66,65,74,82,75,81,88,67,,,,,1.0,0.6,0.9*22
$PSIWMPVT,66.730,251271.000,3,49.1720942,-123.0701092,11.653,0.013,-0.012,-0.080,4.690,3.317,3.664,0.354,0.000,0.000,6.903,0.059,20,*3E
$PSIWMPOS,000107.700,4910.32565,N,12304.20655,W,141.42,11.65,M,100.00,0,8,0,2,0,*54
$PSIWMATT,000107.700,360.0,T,0.7,0.1,180.0,*7C
$PSIWMVEL,000107.700,360.0,T,0.0,K,-0.00,M,*74
$PSIWMVSD,000107.700,0.00,0.00,0.00,2,0.00,0.00,0.00,2,*0E
$GPGGA,214734.000,4910.32560,N,12304.20663,W,1,20,0.6,012.00,M,-16.8,M,,*57
$GPRMC,214734.000,A,4910.32560,N,12304.20663,W,0.0,0.0,161018,,,A*7F
$GNGSA,A,3,32,10,14,18,08,20,11,27,24,01,22,21,1.0,0.6,0.9*25
$GNGSA,A,3,66,65,74,82,75,81,88,67,,,,,1.0,0.6,0.9*22
$PSIWMPVT,67.770,251272.000,3,49.1720933,-123.0701105,11.997,0.009,0.009,-0.057,4.690,3.317,3.625,0.354,0.000,0.000,7.013,0.086,20,*1E
$PSIWMPOS,000108.700,4910.32560,N,12304.20663,W,6.63,12.00,M,4.69,0,8,0,2,0,*50
$PSIWMATT,000108.700,360.0,T,0.7,0.2,180.0,*70
$PSIWMVEL,000108.700,360.0,T,0.0,K,0.06,M,*50
$PSIWMVSD,000108.700,0.00,0.00,0.00,2,0.00,0.00,0.00,2,*01
$GPGGA,214735.000,4910.32549,N,12304.20656,W,1,18,0.6,012.11,M,-16.8,M,,*50
$GPRMC,214735.000,A,4910.32549,N,12304.20656,W,0.0,0.0,161018,,,A*73
$GNGSA,A,3,32,10,14,18,08,20,11,27,24,01,22,21,1.0,0.6,0.9*25
$GNGSA,A,3,66,65,74,82,75,88,,,,,,,1.0,0.6,0.9*2A
$PSIWMPVT,68.770,251272.999,3,49.1720916,-123.0701093,12.107,0.009,-0.004,-0.044,4.743,3.317,4.262,0.354,0.000,0.000,8.560,0.027,18,*30
$PSIWMPOS,000109.700,4910.32549,N,12304.20656,W,6.71,12.11,M,4.74,0,8,0,2,0,*53
$PSIWMATT,000109.700,360.0,T,0.7,0.1,180.0,*72
$PSIWMVEL,000109.700,360.0,T,0.0,K,-0.00,M,*7A
$PSIWMVSD,000109.700,0.00,0.00,0.00,2,0.00,0.00,0.00,2,*00
$GPGGA,214736.000,4910.32542,N,12304.20644,W,1,18,0.6,012.50,M,-16.8,M,,*5E
$GPRMC,214736.000,A,4910.32542,N,12304.20644,W,0.0,0.0,161018,,,A*78
$GNGSA,A,3,32,10,14,18,08,20,11,27,24,01,22,21,1.0,0.6,0.9*25
$GNGSA,A,3,66,65,74,82,75,88,,,,,,,1.0,0.6,0.9*2A
$PSIWMPVT,69.780,251273.999,3,49.1720903,-123.0701073,12.501,0.003,-0.016,-0.034,4.743,3.391,4.543,0.354,0.000,0.000,8.444,0.043,18,*36
$PSIWMPOS,000110.700,4910.32542,N,12304.20644,W,8.05,12.50,M,5.69,0,8,0,2,0,*56
$PSIWMATT,000110.700,360.0,T,0.8,0.1,180.0,*75
$PSIWMVEL,000110.700,360.0,T,0.0,K,-0.00,M,*72
$PSIWMVSD,000110.700,0.00,0.00,0.00,2,0.00,0.00,0.00,2,*08
$GPGGA,214737.000,4910.32538,N,12304.20633,W,1,17,0.6,012.24,M,-16.8,M,,*5E
$GPRMC,214737.000,A,4910.32538,N,12304.20633,W,0.0,0.0,161018,,,A*74
$GNGSA,A,3,32,10,14,18,08,20,11,27,24,01,21,,1.0,0.6,0.9*25
$GNGSA,A,3,66,65,74,82,75,88,,,,,,,1.0,0.6,0.9*2A
$PSIWMPVT,70.780,251275.000,3,49.1720897,-123.0701055,12.237,0.006,-0.015,-0.051,4.743,3.391,4.746,0.354,0.000,0.000,8.885,0.086,17,*3E
$PSIWMPOS,000111.700,4910.32538,N,12304.20633,W,8.05,12.24,M,5.69,0,8,0,2,0,*59
$PSIWMATT,000111.700,360.0,T,0.7,0.1,180.0,*7B
$PSIWMVEL,000111.700,360.0,T,0.0,K,-0.00,M,*73
$PSIWMVSD,000111.700,0.00,0.00,0.00,2,0.00,0.00,0.00,2,*09
$GPGGA,214738.000,4910.32536,N,12304.20635,W,1,17,0.6,012.29,M,-16.8,M,,*54
$GPRMC,214738.000,A,4910.32536,N,12304.20635,W,0.0,0.0,161018,,,A*73
$GNGSA,A,3,32,10,14,18,08,20,11,27,24,01,21,,1.0,0.6,0.9*25
$GNGSA,A,3,66,65,74,82,75,88,,,,,,,1.0,0.6,0.9*2A
$PSIWMPVT,71.780,251276.000,3,49.1720894,-123.0701058,12.287,0.008,-0.012,-0.035,4.743,3.391,5.309,0.354,0.000,0.000,9.908,0.027,17,*32
$PSIWMPOS,000112.700,4910.32536,N,12304.20635,W,8.05,12.29,M,5.69,0,8,0,2,0,*5F
$PSIWMATT,000112.700,360.0,T,0.7,0.1,180.0,*78
$PSIWMVEL,000112.700,360.0,T,0.0,K,-0.00,M,*70
$PSIWMVSD,000112.700,0.00,0.00,0.00,2,0.00,0.00,0.00,2,*0A
$GPGGA,214739.000,4910.32535,N,12304.20637,W,1,17,0.6,012.39,M,-16.8,M,,*55
$GPRMC,214739.000,A,4910.32535,N,12304.20637,W,0.0,0.0,161018,,,A*73
$GNGSA,A,3,32,10,14,18,08,20,11,27,24,01,21,,1.0,0.6,0.9*25
$GNGSA,A,3,66,65,74,82,75,88,,,,,,,1.0,0.6,0.9*2A
$PSIWMPVT,72.780,251277.000,3,49.1720892,-123.0701061,12.389,0.009,0.013,-0.020,4.743,3.464,5.480,0.354,0.000,0.000,10.085,0.020,17,*22
$PSIWMPOS,000113.700,4910.32535,N,12304.20637,W,8.05,12.39,M,5.69,0,8,0,2,0,*5E
$PSIWMATT,000113.700,360.0,T,0.6,0.1,180.0,*78
$PSIWMVEL,000113.700,360.0,T,0.0,K,-0.00,M,*71
$PSIWMVSD,000113.700,0.00,0.00,0.00,2,0.00,0.00,0.00,2,*0B
$GPGGA,214740.000,4910.32538,N,12304.20628,W,1,17,0.6,012.59,M,-16.8,M,,*5E
$GPRMC,214740.000,A,4910.32538,N,12304.20628,W,0.0,0.0,161018,,,A*7E
$GNGSA,A,3,32,10,14,18,08,20,11,27,24,01,21,,1.0,0.6,0.9*25
$GNGSA,A,3,66,65,74,82,75,88,,,,,,,1.0,0.6,0.9*2A
$PSIWMPVT,73.780,251277.999,3,49.1720897,-123.0701047,12.589,0.006,-0.002,-0.028,4.796,3.464,5.461,0.354,0.000,0.000,10.306,0.012,17,*09
$PSIWMPOS,000114.700,4910.32538,N,12304.20628,W,8.14,12.59,M,5.75,0,8,0,2,0,*51
$PSIWMATT,000114.700,360.0,T,0.7,0.0,180.0,*7F
$PSIWMVEL,000114.700,360.0,T,0.0,K,-0.00,M,*76
$PSIWMVSD,000114.700,0.00,0.00,0.00,2,0.00,0.00,0.00,2,*0C
$GPGGA,214741.000,4910.32547,N,12304.20619,W,1,19,0.6,013.27,M,-16.8,M,,*53
$GPRMC,214741.000,A,4910.32547,N,12304.20619,W,0.0,0.0,161018,,,A*75
$GNGSA,A,3,32,10,14,18,08,20,11,27,24,01,22,21,1.0,0.6,0.9*25
$GNGSA,A,3,66,65,74,82,75,81,88,,,,,,1.0,0.6,0.9*23
$PSIWMPVT,74.780,251279.000,3,49.1720911,-123.0701032,13.269,0.012,0.006,-0.005,4.796,3.464,4.629,0.354,0.000,0.000,8.811,0.102,19,*1A
$PSIWMPOS,000115.700,4910.32547,N,12304.20619,W,8.14,13.27,M,5.75,0,8,0,2,0,*52
$PSIWMATT,000115.700,360.0,T,0.7,0.0,180.0,*7E
$PSIWMVEL,000115.700,360.0,T,0.0,K,-0.00,M,*77
$PSIWMVSD,000115.700,0.00,0.00,0.00,2,0.00,0.00,0.00,2,*0D
$GPGGA,214742.000,4910.32550,N,12304.20622,W,1,19,0.6,013.93,M,-16.8,M,,*51
$GPRMC,214742.000,A,4910.32550,N,12304.20622,W,0.0,0.0,161018,,,A*78
$GNGSA,A,3,32,10,14,18,08,20,11,27,24,01,22,21,1.0,0.6,0.9*25
$GNGSA,A,3,66,65,74,82,75,81,88,,,,,,1.0,0.6,0.9*23
$PSIWMPVT,75.780,251280.000,3,49.1720917,-123.0701036,13.927,0.002,-0.010,-0.020,4.743,3.391,4.406,0.354,0.000,0.000,8.634,0.031,19,*30
$PSIWMPOS,000116.700,4910.32550,N,12304.20622,W,8.05,13.93,M,5.69,0,8,0,2,0,*5D
$PSIWMATT,000116.700,360.0,T,0.7,0.0,180.0,*7D
$PSIWMVEL,000116.700,360.0,T,0.0,K,-0.00,M,*74
$PSIWMVSD,000116.700,0.00,0.00,0.00,2,0.00,0.00,0.00,2,*0E
$GPGGA,214743.000,4910.32545,N,12304.20611,W,1,19,0.6,013.98,M,-16.8,M,,*5F
$GPRMC,214743.000,A,4910.32545,N,12304.20611,W,0.0,0.0,161018,,,A*7D
$GNGSA,A,3,32,10,14,18,08,20,11,27,24,01,22,21,1.0,0.6,0.9*25
$GNGSA,A,3,66,65,74,82,75,81,88,,,,,,1.0,0.6,0.9*23
$PSIWMPVT,76.780,251281.000,3,49.1720909,-123.0701019,13.979,0.006,-0.009,-0.017,4.743,3.391,4.137,0.354,0.000,0.000,8.127,0.016,19,*34
$PSIWMPOS,000117.700,4910.32545,N,12304.20611,W,8.05,13.98,M,5.69,0,8,0,2,0,*53
$PSIWMATT,000117.700,360.0,T,0.8,-0.0,180.0,*5E
$PSIWMVEL,000117.700,360.0,T,0.0,K,-0.00,M,*75
$PSIWMVSD,000117.700,0.00,0.00,0.00,2,0.00,0.00,0.00,2,*0F
$GPGGA,214744.000,4910.32544,N,12304.20598,W,1,19,0.6,013.83,M,-16.8,M,,*51
$GPRMC,214744.000,A,4910.32544,N,12304.20598,W,0.0,0.0,161018,,,A*79
$GNGSA,A,3,32,10,14,18,08,20,11,27,24,01,22,21,1.0,0.6,0.9*25
$GNGSA,A,3,66,65,74,82,75,81,88,,,,,,1.0,0.6,0.9*23
$PSIWMPVT,77.780,251281.999,3,49.1720907,-123.0700997,13.828,0.016,-0.002,-0.012,4.743,3.391,4.793,0.354,0.000,0.000,9.291,0.051,19,*32
$PSIWMPOS,000118.700,4910.32544,N,12304.20598,W,8.05,13.83,M,5.69,0,8,0,2,0,*55
$PSIWMATT,000118.700,360.0,T,0.8,-0.0,180.0,*51
$PSIWMVEL,000118.700,360.0,T,0.0,K,-0.00,M,*7A
$PSIWMVSD,000118.700,0.00,0.00,0.00,2,0.00,0.00,0.00,2,*00
$GPGGA,214745.000,4910.32543,N,12304.20592,W,1,19,0.6,013.87,M,-16.8,M,,*59
$GPRMC,214745.000,A,4910.32543,N,12304.20592,W,0.0,0.0,161018,,,A*75
$GNGSA,A,3,32,10,14,18,08,20,11,27,24,01,22,21,1.0,0.6,0.9*25
$GNGSA,A,3,66,65,74,82,75,81,88,,,,,,1.0,0.6,0.9*23
$PSIWMPVT,78.780,251283.000,3,49.1720906,-123.0700987,13.865,0.012,0.003,0.000,4.743,3.391,4.801,0.354,0.000,0.000,9.333,0.086,19,*3E
$PSIWMPOS,000119.700,4910.32543,N,12304.20592,W,8.05,13.87,M,5.69,0,8,0,2,0,*5D
$PSIWMATT,000119.700,360.0,T,0.8,-0.0,180.0,*50
$PSIWMVEL,000119.700,360.0,T,0.0,K,-0.00,M,*7B
$PSIWMVSD,000119.700,0.00,0.00,0.00,2,0.00,0.00,0.00,2,*01
$GPGGA,214746.000,4910.32553,N,12304.20590,W,1,19,0.6,013.76,M,-16.8,M,,*57
$GPRMC,214746.000,A,4910.32553,N,12304.20590,W,0.0,0.0,161018,,,A*75
$GNGSA,A,3,32,10,14,18,08,20,11,27,24,01,22,21,1.0,0.6,0.9*25
$GNGSA,A,3,66,65,74,82,75,81,88,,,,,,1.0,0.6,0.9*23
$PSIWMPVT,79.780,251284.000,3,49.1720921,-123.0700983,13.757,0.008,0.007,-0.000,4.743,3.391,4.223,0.354,0.000,0.000,8.072,0.016,19,*11
$PSIWMPOS,000120.700,4910.32553,N,12304.20590,W,8.05,13.76,M,5.69,0,8,0,2,0,*5A
$PSIWMATT,000120.700,360.0,T,0.8,-0.0,180.0,*5A
$PSIWMVEL,000120.700,360.0,T,0.0,K,-0.00,M,*71
$PSIWMVSD,000120.700,0.00,0.00,0.00,2,0.00,0.00,0.00,2,*0B
$GPGGA,214747.000,4910.32560,N,12304.20576,W,1,18,0.6,013.39,M,-16.8,M,,*54
$GPRMC,214747.000,A,4910.32560,N,12304.20576,W,0.0,0.0,161018,,,A*7C
$GNGSA,A,3,32,10,14,18,08,20,11,27,24,01,22,21,1.0,0.6,0.9*25
$GNGSA,A,3,66,65,74,82,75,88,,,,,,,1.0,0.6,0.9*2A
$PSIWMPVT,80.780,251285.000,3,49.1720933,-123.0700961,13.393,0.003,-0.006,0.007,4.743,3.391,4.957,0.354,0.000,0.000,9.451,0.082,18,*18
$PSIWMPOS,000121.700,4910.32560,N,12304.20576,W,8.05,13.39,M,5.69,0,8,0,2,0,*58
$PSIWMATT,000121.700,360.0,T,0.8,-0.1,180.0,*5A
$PSIWMVEL,000121.700,360.0,T,0.0,K,-0.00,M,*70
$PSIWMVSD,000121.700,0.00,0.00,0.00,2,0.00,0.00,0.00,2,*0A
$GPGGA,214748.000,4910.32566,N,12304.20568,W,1,18,0.6,013.33,M,-16.8,M,,*58
$GPRMC,214748.000,A,4910.32566,N,12304.20568,W,0.0,0.0,161018,,,A*7A
$GNGSA,A,3,32,10,14,18,08,20,11,27,24,01,22,21,1.0,0.6,0.9*25
$GNGSA,A,3,66,65,74,82,75,88,,,,,,,1.0,0.6,0.9*2A
$PSIWMPVT,81.780,251286.000,3,49.1720943,-123.0700946,13.332,0.006,-0.002,0.021,4.743,3.391,5.227,0.354,0.000,0.000,9.972,0.059,18,*11
$PSIWMPOS,000122.700,4910.32566,N,12304.20568,W,8.05,13.33,M,5.69,0,8,0,2,0,*58
$PSIWMATT,000122.700,360.0,T,0.8,-0.1,180.0,*59
$PSIWMVEL,000122.700,360.0,T,0.0,K,-0.00,M,*73
$PSIWMVSD,000122.700,0.00,0.00,0.00,2,0.00,0.00,0.00,2,*09
$GPGGA,214749.000,4910.32572,N,12304.20558,W,1,18,0.6,012.97,M,-16.8,M,,*50
$GPRMC,214749.000,A,4910.32572,N,12304.20558,W,0.0,0.0,161018,,,A*7D
$GNGSA,A,3,32,10,14,18,08,20,11,27,24,01,22,21,1.0,0.6,0.9*25
$GNGSA,A,3,66,65,74,82,75,88,,,,,,,1.0,0.6,0.9*2A
$PSIWMPVT,82.780,251287.000,3,49.1720953,-123.0700930,12.965,0.012,-0.002,-0.007,4.743,3.391,5.035,0.354,0.000,0.000,9.579,0.074,18,*3F
$PSIWMPOS,000123.700,4910.32572,N,12304.20558,W,8.05,12.97,M,5.69,0,8,0,2,0,*50
$PSIWMATT,000123.700,360.0,T,0.8,-0.0,180.0,*59
$PSIWMVEL,000123.700,360.0,T,0.0,K,-0.00,M,*72
$PSIWMVSD,000123.700,0.00,0.00,0.00,2,0.00,0.00,0.00,2,*08
$GPGGA,214750.000,4910.32577,N,12304.20560,W,1,19,0.6,012.81,M,-16.8,M,,*50
$GPRMC,214750.000,A,4910.32577,N,12304.20560,W,0.0,0.0,161018,,,A*7B
$GNGSA,A,3,32,10,14,18,08,20,11,27,24,01,22,21,1.0,0.6,0.9*25
$GNGSA,A,3,66,65,74,82,75,81,88,,,,,,1.0,0.6,0.9*23
$PSIWMPVT,83.780,251288.000,3,49.1720961,-123.0700933,12.811,0.013,0.004,-0.007,4.743,3.391,4.430,0.354,0.000,0.000,8.515,0.023,19,*13
$PSIWMPOS,000124.700,4910.32577,N,12304.20560,W,8.05,12.81,M,5.69,0,8,0,2,0,*5E
$PSIWMATT,000124.700,360.0,T,0.8,-0.0,180.0,*5E
$PSIWMVEL,000124.700,360.0,T,0.0,K,-0.00,M,*75
$PSIWMVSD,000124.700,0.00,0.00,0.00,2,0.00,0.00,0.00,2,*0F
$GPGGA,214751.000,4910.32580,N,12304.20569,W,1,18,0.6,012.87,M,-16.8,M,,*57
$GPRMC,214751.000,A,4910.32580,N,12304.20569,W,0.0,0.0,161018,,,A*7B
$GNGSA,A,3,32,10,14,18,08,20,11,27,24,01,22,21,1.0,0.6,0.9*25
$GNGSA,A,3,66,65,74,82,75,88,,,,,,,1.0,0.6,0.9*2A
$PSIWMPVT,84.780,251289.000,3,49.1720966,-123.0700948,12.873,0.006,-0.002,0.012,4.743,3.391,4.590,0.354,0.000,0.000,8.695,0.027,18,*19
$PSIWMPOS,000125.700,4910.32580,N,12304.20569,W,8.05,12.87,M,5.69,0,8,0,2,0,*58
$PSIWMATT,000125.700,360.0,T,0.8,-0.0,180.0,*5F
$PSIWMVEL,000125.700,360.0,T,0.0,K,-0.00,M,*74
$PSIWMVSD,000125.700,0.00,0.00,0.00,2,0.00,0.00,0.00,2,*0E
$GPGGA,214752.000,4910.32581,N,12304.20573,W,1,18,0.6,012.96,M,-16.8,M,,*5E
$GPRMC,214752.000,A,4910.32581,N,12304.20573,W,0.0,0.0,161018,,,A*72
$GNGSA,A,3,32,10,14,18,08,20,11,27,24,01,22,21,1.0,0.6,0.9*25
$GNGSA,A,3,66,65,74,82,75,88,,,,,,,1.0,0.6,0.9*2A
$PSIWMPVT,85.780,251289.999,3,49.1720968,-123.0700955,12.956,-0.002,0.022,0.060,4.743,3.391,4.973,0.354,0.000,0.000,9.409,0.035,18,*12
$PSIWMPOS,000126.700,4910.32581,N,12304.20573,W,8.05,12.96,M,5.69,0,8,0,2,0,*51
$PSIWMATT,000126.700,360.0,T,0.8,-0.1,180.0,*5D
$PSIWMVEL,000126.700,360.0,T,0.0,K,-0.00,M,*77
$PSIWMVSD,000126.700,0.00,0.00,0.00,2,0.00,0.00,0.00,2,*0D
$GPGGA,214753.000,4910.32586,N,12304.20585,W,1,18,0.6,013.08,M,-16.8,M,,*57
$GPRMC,214753.000,A,4910.32586,N,12304.20585,W,0.0,0.0,161018,,,A*7D
$GNGSA,A,3,32,10,14,18,08,20,11,27,24,01,22,21,1.0,0.6,0.9*25
$GNGSA,A,3,66,65,74,82,75,88,,,,,,,1.0,0.6,0.9*2A
$PSIWMPVT,86.780,251290.999,3,49.1720976,-123.0700976,13.085,0.003,0.010,0.058,4.690,3.391,4.648,0.354,0.000,0.000,8.720,0.055,18,*30
$PSIWMPOS,000127.700,4910.32586,N,12304.20585,W,7.96,13.08,M,5.63,0,8,0,2,0,*57
$PSIWMATT,000127.700,360.0,T,0.8,-0.1,180.0,*5C
$PSIWMVEL,000127.700,360.0,T,0.0,K,-0.00,M,*76
$PSIWMVSD,000127.700,0.00,0.00,0.00,2,0.00,0.00,0.00,2,*0C
$GPGGA,214754.000,4910.32586,N,12304.20600,W,1,19,0.6,013.64,M,-16.8,M,,*55
$GPRMC,214754.000,A,4910.32586,N,12304.20600,W,0.0,0.0,161018,,,A*74
$GNGSA,A,3,32,10,14,18,08,20,11,27,24,01,22,21,1.0,0.6,0.9*25
$GNGSA,A,3,66,65,74,82,75,88,67,,,,,,1.0,0.6,0.9*2B
$PSIWMPVT,87.780,251291.999,3,49.1720976,-123.0700999,13.642,0.000,0.019,0.073,4.690,3.317,4.391,0.354,0.000,0.000,7.931,0.098,19,*31
$PSIWMPOS,000128.700,4910.32586,N,12304.20600,W,7.96,13.64,M,5.63,0,8,0,2,0,*5C
$PSIWMATT,000128.700,360.0,T,0.8,-0.0,180.0,*52
$PSIWMVEL,000128.700,360.0,T,0.0,K,-0.00,M,*79
$PSIWMVSD,000128.700,0.00,0.00,0.00,2,0.00,0.00,0.00,2,*03
$GPGGA,214755.000,4910.32581,N,12304.20595,W,1,18,0.6,014.06,M,-16.8,M,,*5E
$GPRMC,214755.000,A,4910.32581,N,12304.20595,W,0.0,0.0,161018,,,A*7D
$GNGSA,A,3,32,10,14,18,08,20,11,27,24,01,22,21,1.0,0.6,0.9*25
$GNGSA,A,3,66,65,74,82,75,88,,,,,,,1.0,0.6,0.9*2A
$PSIWMPVT,88.780,251292.999,3,49.1720968,-123.0700991,14.056,0.003,-0.003,0.065,4.690,3.391,4.676,0.354,0.000,0.000,8.793,0.055,18,*17
$PSIWMPOS,000129.700,4910.32581,N,12304.20595,W,7.96,14.06,M,5.63,0,8,0,2,0,*56
$PSIWMATT,000129.700,360.0,T,0.8,-0.0,180.0,*53
$PSIWMVEL,000129.700,360.0,T,0.0,K,-0.00,M,*78
$PSIWMVSD,000129.700,0.00,0.00,0.00,2,0.00,0.00,0.00,2,*02
$GPGGA,214756.000,4910.32576,N,12304.20615,W,1,18,0.6,014.20,M,-16.8,M,,*5A
$GPRMC,214756.000,A,4910.32576,N,12304.20615,W,0.0,0.0,161018,,,A*7D
$GNGSA,A,3,32,10,14,18,08,20,11,27,24,01,22,21,1.0,0.6,0.9*25
$GNGSA,A,3,66,65,74,82,75,88,,,,,,,1.0,0.6,0.9*2A
$PSIWMPVT,89.780,251294.000,3,49.1720960,-123.0701024,14.200,0.002,0.012,0.066,4.690,3.391,4.488,0.354,0.000,0.000,8.346,0.047,18,*35
$PSIWMPOS,000130.700,4910.32576,N,12304.20615,W,7.96,14.20,M,5.63,0,8,0,2,0,*59
$PSIWMATT,000130.700,360.0,T,0.8,0.0,180.0,*76
$PSIWMVEL,000130.700,360.0,T,0.0,K,-0.00,M,*70
$PSIWMVSD,000130.700,0.00,0.00,0.00,2,0.00,0.00,0.00,2,*0A
$GPGGA,214757.000,4910.32566,N,12304.20634,W,1,19,0.6,014.62,M,-16.8,M,,*5E
$GPRMC,214757.000,A,4910.32566,N,12304.20634,W,0.0,0.0,161018,,,A*7E
$GNGSA,A,3,32,10,14,18,08,20,11,27,24,01,22,21,1.0,0.6,0.9*25
$GNGSA,A,3,66,65,74,82,75,81,88,,,,,,1.0,0.6,0.9*23
$PSIWMPVT,90.780,251294.999,3,49.1720944,-123.0701056,14.617,-0.001,0.003,0.049,4.690,3.391,4.477,0.354,0.000,0.000,8.464,0.055,19,*13
$PSIWMPOS,000131.700,4910.32566,N,12304.20634,W,7.96,14.62,M,5.63,0,8,0,2,0,*5C
$PSIWMATT,000131.700,360.0,T,0.8,0.0,180.0,*77
$PSIWMVEL,000131.700,360.0,T,0.0,K,-0.00,M,*71
$PSIWMVSD,000131.700,0.00,0.00,0.00,2,0.00,0.00,0.00,2,*0B
$GPGGA,214758.000,4910.32556,N,12304.20647,W,1,19,0.6,015.17,M,-16.8,M,,*55
$GPRMC,214758.000,A,4910.32556,N,12304.20647,W,0.0,0.0,161018,,,A*76
$GNGSA,A,3,32,10,14,18,08,20,11,27,24,01,22,21,1.0,0.6,0.9*25
$GNGSA,A,3,66,65,74,82,75,81,88,,,,,,1.0,0.6,0.9*23
$PSIWMPVT,91.780,251295.999,3,49.1720926,-123.0701079,15.172,0.001,0.003,0.046,4.690,3.391,4.434,0.354,0.000,0.000,8.510,0.082,19,*32
$PSIWMPOS,000132.700,4910.32556,N,12304.20647,W,7.96,15.17,M,5.63,0,8,0,2,0,*5B
$PSIWMATT,000132.700,360.0,T,0.8,0.0,180.0,*74
$PSIWMVEL,000132.700,360.0,T,0.0,K,-0.00,M,*72
$PSIWMVSD,000132.700,0.00,0.00,0.00,2,0.00,0.00,0.00,2,*08
$GPGGA,214759.000,4910.32542,N,12304.20679,W,1,18,0.6,015.21,M,-16.8,M,,*58
$GPRMC,214759.000,A,4910.32542,N,12304.20679,W,0.0,0.0,161018,,,A*7F
$GNGSA,A,3,32,10,14,18,08,20,11,27,24,01,21,,1.0,0.6,0.9*25
$GNGSA,A,3,66,65,74,82,75,81,88,,,,,,1.0,0.6,0.9*23
$PSIWMPVT,92.780,251296.999,3,49.1720903,-123.0701131,15.212,-0.003,-0.004,0.055,4.690,3.391,4.387,0.354,0.000,0.000,8.240,0.074,18,*3F
$PSIWMPOS,000133.700,4910.32542,N,12304.20679,W,7.96,15.21,M,5.63,0,8,0,2,0,*57
$PSIWMATT,000133.700,360.0,T,0.8,0.0,180.0,*75
$PSIWMVEL,000133.700,360.0,T,0.0,K,-0.00,M,*73
$PSIWMVSD,000133.700,0.00,0.00,0.00,2,0.00,0.00,0.00,2,*09
$GPGGA,214800.000,4910.32534,N,12304.20684,W,1,19,0.6,015.21,M,-16.8,M,,*59
$GPRMC,214800.000,A,4910.32534,N,12304.20684,W,0.0,0.0,161018,,,A*7F
$GNGSA,A,3,32,10,14,18,08,20,11,27,24,01,22,21,1.0,0.6,0.9*25
$GNGSA,A,3,66,65,74,82,75,81,88,,,,,,1.0,0.6,0.9*23
$PSIWMPVT,93.780,251298.000,3,49.1720891,-123.0701140,15.207,-0.002,0.006,0.062,4.690,3.391,4.820,0.354,0.000,0.000,8.946,0.031,19,*10
$PSIWMPOS,000134.700,4910.32534,N,12304.20684,W,7.96,15.21,M,5.63,0,8,0,2,0,*53
$PSIWMATT,000134.700,360.0,T,0.8,0.1,180.0,*73
$PSIWMVEL,000134.700,360.0,T,0.0,K,-0.00,M,*74
$PSIWMVSD,000134.700,0.00,0.00,0.00,2,0.00,0.00,0.00,2,*0E
$GPGGA,214801.000,4910.32523,N,12304.20703,W,1,18,0.6,015.05,M,-16.8,M,,*57
$GPRMC,214801.000,A,4910.32523,N,12304.20703,W,0.0,0.0,161018,,,A*76
$GNGSA,A,3,32,10,14,18,08,20,11,27,24,01,21,,1.0,0.6,0.9*25
$GNGSA,A,3,66,65,74,82,75,81,88,,,,,,1.0,0.6,0.9*23
$PSIWMPVT,94.780,251298.999,3,49.1720872,-123.0701172,15.055,0.005,-0.002,0.052,4.690,3.464,4.738,0.354,0.000,0.000,8.658,0.035,18,*19
$PSIWMPOS,000135.700,4910.32523,N,12304.20703,W,7.96,15.05,M,5.63,0,8,0,2,0,*5C
$PSIWMATT,000135.700,360.0,T,0.8,0.0,180.0,*73
$PSIWMVEL,000135.700,360.0,T,0.0,K,-0.00,M,*75
$PSIWMVSD,000135.700,0.00,0.00,0.00,2,0.00,0.00,0.00,2,*0F
$GPGGA,214802.000,4910.32525,N,12304.20718,W,1,17,0.6,014.84,M,-16.8,M,,*5F
$GPRMC,214802.000,A,4910.32525,N,12304.20718,W,0.0,0.0,161018,,,A*79
$GNGSA,A,3,32,10,14,18,08,20,11,27,24,01,21,,1.0,0.6,0.9*25
$GNGSA,A,3,66,65,74,82,75,88,,,,,,,1.0,0.6,0.9*2A
$PSIWMPVT,95.780,251299.999,3,49.1720876,-123.0701196,14.841,-0.002,0.010,0.064,4.690,3.464,4.953,0.354,0.000,0.000,8.979,0.035,17,*1A
$PSIWMPOS,000136.700,4910.32525,N,12304.20718,W,7.96,14.84,M,5.63,0,8,0,2,0,*5B
$PSIWMATT,000136.700,360.0,T,0.8,0.0,180.0,*70
$PSIWMVEL,000136.700,360.0,T,0.0,K,-0.00,M,*76
$PSIWMVSD,000136.700,0.00,0.00,0.00,2,0.00,0.00,0.00,2,*0C
$GPGGA,214803.000,4910.32525,N,12304.20724,W,1,18,0.6,014.70,M,-16.8,M,,*55
$GPRMC,214803.000,A,4910.32525,N,12304.20724,W,0.0,0.0,161018,,,A*77
$GNGSA,A,3,32,10,14,18,08,20,11,27,24,01,21,,1.0,0.6,0.9*25
$GNGSA,A,3,66,65,74,82,75,88,67,,,,,,1.0,0.6,0.9*2B
$PSIWMPVT,96.780,251300.999,3,49.1720875,-123.0701207,14.700,0.004,0.003,0.055,4.690,3.464,4.434,0.354,0.000,0.000,7.933,0.098,18,*34
$PSIWMPOS,000137.700,4910.32525,N,12304.20724,W,7.96,14.70,M,5.63,0,8,0,2,0,*5E
$PSIWMATT,000137.700,360.0,T,0.8,0.1,180.0,*70
$PSIWMVEL,000137.700,360.0,T,0.0,K,-0.00,M,*77
$PSIWMVSD,000137.700,0.00,0.00,0.00,2,0.00,0.00,0.00,2,*0D
$GPGGA,214804.000,4910.32523,N,12304.20731,W,1,18,0.6,015.00,M,-16.8,M,,*56
$GPRMC,214804.000,A,4910.32523,N,12304.20731,W,0.0,0.0,161018,,,A*72
$GNGSA,A,3,32,10,14,18,08,20,11,27,24,01,21,,1.0,0.6,0.9*25
$GNGSA,A,3,66,65,74,82,75,81,88,,,,,,1.0,0.6,0.9*23
$PSIWMPVT,97.780,251302.000,3,49.1720871,-123.0701218,15.002,-0.005,-0.010,0.042,4.690,3.464,4.359,0.354,0.000,0.000,7.996,0.027,18,*32
$PSIWMPOS,000138.700,4910.32523,N,12304.20731,W,7.96,15.00,M,5.63,0,8,0,2,0,*55
$PSIWMATT,000138.700,360.0,T,0.8,0.0,180.0,*7E
$PSIWMVEL,000138.700,360.0,T,0.0,K,-0.00,M,*78
$PSIWMVSD,000138.700,0.00,0.00,0.00,2,0.00,0.00,0.00,2,*02
$GPGGA,214805.000,4910.32522,N,12304.20726,W,1,19,0.6,015.06,M,-16.8,M,,*57
$GPRMC,214805.000,A,4910.32522,N,12304.20726,W,0.0,0.0,161018,,,A*74
$GNGSA,A,3,32,10,14,18,08,20,11,27,24,01,21,,1.0,0.6,0.9*25
$GNGSA,A,3,66,65,74,82,75,81,88,67,,,,,1.0,0.6,0.9*22
$PSIWMPVT,98.780,251303.000,3,49.1720870,-123.0701210,15.059,-0.004,0.002,0.044,4.690,3.464,4.086,0.354,0.000,0.000,7.325,0.027,19,*10
$PSIWMPOS,000139.700,4910.32522,N,12304.20726,W,7.96,15.06,M,5.63,0,8,0,2,0,*55
$PSIWMATT,000139.700,360.0,T,0.8,0.0,180.0,*7F
$PSIWMVEL,000139.700,360.0,T,0.0,K,-0.00,M,*79
$PSIWMVSD,000139.700,0.00,0.00,0.00,2,0.00,0.00,0.00,2,*03
$GPGGA,214806.000,4910.32519,N,12304.20726,W,1,18,0.6,014.92,M,-16.8,M,,*51
$GPRMC,214806.000,A,4910.32519,N,12304.20726,W,0.0,0.0,161018,,,A*7F
$GNGSA,A,3,32,10,14,18,08,20,11,27,24,01,21,,1.0,0.6,0.9*25
$GNGSA,A,3,66,65,74,82,75,88,67,,,,,,1.0,0.6,0.9*2B
$PSIWMPVT,99.780,251303.999,3,49.1720865,-123.0701210,14.922,0.005,0.003,0.044,4.690,3.464,4.629,0.354,0.000,0.000,8.289,0.027,18,*3F
$PSIWMPOS,000140.700,4910.32519,N,12304.20726,W,7.96,14.92,M,5.63,0,8,0,2,0,*5F
$PSIWMATT,000140.700,360.0,T,0.8,0.0,180.0,*71
$PSIWMVEL,000140.700,360.0,T,0.0,K,-0.00,M,*77
$PSIWMVSD,000140.700,0.00,0.00,0.00,2,0.00,0.00,0.00,2,*0D
$GPGGA,214807.000,4910.32516,N,12304.20741,W,1,18,0.6,015.05,M,-16.8,M,,*51
$GPRMC,214807.000,A,4910.32516,N,12304.20741,W,0.0,0.0,161018,,,A*70
$GNGSA,A,3,32,10,14,18,08,20,11,27,24,01,21,,1.0,0.6,0.9*25
$GNGSA,A,3,66,65,74,82,75,81,88,,,,,,1.0,0.6,0.9*23
$PSIWMPVT,100.780,251304.999,3,49.1720861,-123.0701234,15.052,-0.007,-0.009,0.018,4.690,3.464,4.977,0.354,0.000,0.000,8.974,0.047,18,*0E
$PSIWMPOS,000141.700,4910.32516,N,12304.20741,W,7.96,15.05,M,5.63,0,8,0,2,0,*5F
$PSIWMATT,000141.700,360.0,T,0.8,0.0,180.0,*70
$PSIWMVEL,000141.700,360.0,T,0.0,K,-0.00,M,*76
$PSIWMVSD,000141.700,0.00,0.00,0.00,2,0.00,0.00,0.00,2,*0C
$GPGGA,214808.000,4910.32516,N,12304.20741,W,1,18,0.6,015.05,M,-16.8,M,,*5E
$GPRMC,214808.000,A,4910.32516,N,12304.20741,W,0.0,0.0,161018,,,A*7F
$GNGSA,A,3,32,10,14,18,08,20,11,27,24,01,21,,1.0,0.6,0.9*25
$GNGSA,A,3,66,65,74,82,75,81,88,,,,,,1.0,0.6,0.9*23
$PSIWMPVT,101.780,251306.000,3,49.1720861,-123.0701234,15.052,0.010,-0.005,0.016,4.690,3.464,5.090,0.354,0.000,0.000,9.252,0.066,18,*21
$PSIWMPOS,000142.700,4910.32516,N,12304.20741,W,7.96,15.05,M,5.63,0,8,0,2,0,*5C
$PSIWMATT,000142.700,360.0,T,0.8,0.1,180.0,*72
$PSIWMVEL,000142.700,360.0,T,0.0,K,-0.00,M,*75
$PSIWMVSD,000142.700,0.00,0.00,0.00,2,0.00,0.00,0.00,2,*0F
$GPGGA,214809.000,4910.32516,N,12304.20741,W,1,18,0.6,015.05,M,-16.8,M,,*5F
$GPRMC,214809.000,A,4910.32516,N,12304.20741,W,0.0,0.0,161018,,,A*7E
$GNGSA,A,3,32,10,14,18,08,20,11,27,24,01,21,,1.0,0.6,0.9*25
$GNGSA,A,3,66,65,74,82,75,81,88,,,,,,1.0,0.6,0.9*23
$PSIWMPVT,102.780,251307.000,3,49.1720861,-123.0701234,15.052,0.016,-0.012,0.000,4.743,3.536,4.211,0.354,0.000,0.000,7.645,0.027,18,*2E
$PSIWMPOS,000143.700,4910.32516,N,12304.20741,W,8.05,15.05,M,5.69,0,8,0,2,0,*52
$PSIWMATT,000143.700,360.0,T,0.8,0.1,180.0,*73
$PSIWMVEL,000143.700,360.0,T,0.0,K,-0.00,M,*74
$PSIWMVSD,000143.700,0.00,0.00,0.00,2,0.00,0.00,0.00,2,*0E
$GPGGA,214810.000,4910.32516,N,12304.20741,W,1,18,0.6,015.05,M,-16.8,M,,*57
$GPRMC,214810.000,A,4910.32516,N,12304.20741,W,0.0,0.0,161018,,,A*76
$GNGSA,A,3,32,10,14,18,08,20,11,27,24,01,21,,1.0,0.6,0.9*25
$GNGSA,A,3,66,65,74,82,75,88,67,,,,,,1.0,0.6,0.9*2B
$PSIWMPVT,103.780,251307.999,3,49.1720861,-123.0701234,15.052,0.007,-0.008,0.014,4.743,3.536,5.160,0.354,0.000,0.000,9.251,0.043,18,*21
$PSIWMPOS,000144.700,4910.32516,N,12304.20741,W,8.05,15.05,M,5.69,0,8,0,2,0,*55
$PSIWMATT,000144.700,360.0,T,0.8,0.1,180.0,*74
$PSIWMVEL,000144.700,360.0,T,0.0,K,-0.00,M,*73
$PSIWMVSD,000144.700,0.00,0.00,0.00,2,0.00,0.00,0.00,2,*09
$GPGGA,214811.000,4910.32516,N,12304.20741,W,1,19,0.6,015.05,M,-16.8,M,,*57
$GPRMC,214811.000,A,4910.32516,N,12304.20741,W,0.0,0.0,161018,,,A*77
$GNGSA,A,3,32,10,14,18,08,20,11,27,24,01,21,,1.0,0.6,0.9*25
$GNGSA,A,3,66,65,74,82,75,81,88,67,,,,,1.0,0.6,0.9*22
$PSIWMPVT,104.780,251308.999,3,49.1720861,-123.0701234,15.052,-0.007,0.005,0.028,4.743,3.536,4.352,0.354,0.000,0.000,7.715,0.043,19,*23
$PSIWMPOS,000145.700,4910.32516,N,12304.20741,W,8.05,15.05,M,5.69,0,8,0,2,0,*54
$PSIWMATT,000145.700,360.0,T,0.7,0.1,180.0,*7A
$PSIWMVEL,000145.700,360.0,T,0.0,K,-0.00,M,*72
$PSIWMVSD,000145.700,0.00,0.00,0.00,2,0.00,0.00,0.00,2,*08
$GPGGA,214812.000,4910.32516,N,12304.20741,W,1,19,0.6,015.05,M,-16.8,M,,*54
$GPRMC,214812.000,A,4910.32516,N,12304.20741,W,0.0,0.0,161018,,,A*74
$GNGSA,A,3,32,10,14,18,08,20,11,27,24,01,21,,1.0,0.6,0.9*25
$GNGSA,A,3,66,65,74,82,75,81,88,67,,,,,1.0,0.6,0.9*22
$PSIWMPVT,105.780,251310.000,3,49.1720861,-123.0701234,15.052,-0.002,0.005,0.024,4.743,3.536,4.570,0.354,0.000,0.000,8.083,0.012,19,*2E
$PSIWMPOS,000146.700,4910.32516,N,12304.20741,W,8.05,15.05,M,5.69,0,8,0,2,0,*57
$PSIWMATT,000146.700,360.0,T,0.8,0.1,180.0,*76
$PSIWMVEL,000146.700,360.0,T,0.0,K,-0.00,M,*71
$PSIWMVSD,000146.700,0.00,0.00,0.00,2,0.00,0.00,0.00,2,*0B
$GPGGA,214813.000,4910.32516,N,12304.20741,W,1,19,0.6,015.05,M,-16.8,M,,*55
$GPRMC,214813.000,A,4910.32516,N,12304.20741,W,0.0,0.0,161018,,,A*75
$GNGSA,A,3,32,10,14,18,08,20,11,27,24,01,21,,1.0,0.6,0.9*25
$GNGSA,A,3,66,65,74,82,75,81,88,67,,,,,1.0,0.6,0.9*22
$PSIWMPVT,106.780,251311.000,3,49.1720861,-123.0701234,15.052,-0.012,-0.017,0.018,4.743,3.536,4.504,0.354,0.000,0.000,7.988,0.023,19,*00
$PSIWMPOS,000147.700,4910.32516,N,12304.20741,W,8.05,15.05,M,5.69,0,8,0,2,0,*56
$PSIWMATT,000147.700,360.0,T,0.8,0.0,180.0,*76
$PSIWMVEL,000147.700,360.0,T,0.0,K,-0.00,M,*70
$PSIWMVSD,000147.700,0.00,0.00,0.00,2,0.00,0.00,0.00,2,*0A
$GPGGA,214814.000,4910.32516,N,12304.20741,W,1,19,0.6,015.05,M,-16.8,M,,*52
$GPRMC,214814.000,A,4910.32516,N,12304.20741,W,0.0,0.0,161018,,,A*72
$GNGSA,A,3,32,10,14,18,08,20,11,27,24,01,21,,1.0,0.6,0.9*25
$GNGSA,A,3,66,65,74,82,75,81,88,67,,,,,1.0,0.6,0.9*22
$PSIWMPVT,107.780,251312.000,3,49.1720861,-123.0701234,15.052,-0.019,0.010,0.046,4.796,3.606,3.809,0.354,0.000,0.000,6.745,0.020,19,*2A
$PSIWMPOS,000148.700,4910.32516,N,12304.20741,W,8.14,15.05,M,5.75,0,8,0,2,0,*54
$PSIWMATT,000148.700,360.0,T,0.8,0.1,180.0,*78
$PSIWMVEL,000148.700,360.0,T,0.0,K,-0.00,M,*7F
$PSIWMVSD,000148.700,0.00,0.00,0.00,2,0.00,0.00,0.00,2,*05
$GPGGA,214815.000,4910.32516,N,12304.20741,W,1,19,0.6,015.05,M,-16.8,M,,*53
$GPRMC,214815.000,A,4910.32516,N,12304.20741,W,0.0,0.0,161018,,,A*73
$GNGSA,A,3,32,10,14,18,08,20,11,27,24,01,21,,1.0,0.6,0.9*25
$GNGSA,A,3,66,65,74,82,75,81,88,67,,,,,1.0,0.6,0.9*22
$PSIWMPVT,108.780,251312.999,3,49.1720861,-123.0701234,15.052,-0.005,-0.003,0.023,4.796,3.606,4.266,0.354,0.000,0.000,7.590,0.027,19,*05
$PSIWMPOS,000149.700,4910.32516,N,12304.20741,W,8.14,15.05,M,5.75,0,8,0,2,0,*55
$PSIWMATT,000149.700,360.0,T,0.8,0.1,180.0,*79
$PSIWMVEL,000149.700,360.0,T,0.0,K,-0.00,M,*7E
$PSIWMVSD,000149.700,0.00,0.00,0.00,2,0.00,0.00,0.00,2,*04
$GPGGA,214816.000,4910.32516,N,12304.20741,W,1,19,0.6,015.05,M,-16.8,M,,*50
$GPRMC,214816.000,A,4910.32516,N,12304.20741,W,0.0,0.0,161018,,,A*70
$GNGSA,A,3,32,10,14,18,08,20,11,27,24,01,21,,1.0,0.6,0.9*25
$GNGSA,A,3,66,65,74,82,75,81,88,67,,,,,1.0,0.6,0.9*22
$PSIWMPVT,109.780,251314.000,3,49.1720861,-123.0701234,15.052,-0.003,0.006,0.030,4.796,3.606,3.848,0.354,0.000,0.000,6.927,0.012,19,*21
$PSIWMPOS,000150.700,4910.32516,N,12304.20741,W,8.14,15.05,M,5.75,0,8,0,2,0,*5D
$PSIWMATT,000150.700,360.0,T,0.8,0.1,180.0,*71
$PSIWMVEL,000150.700,360.0,T,0.0,K,-0.00,M,*76
$PSIWMVSD,000150.700,0.00,0.00,0.00,2,0.00,0.00,0.00,2,*0C
$GPGGA,214817.000,4910.32516,N,12304.20741,W,1,19,0.6,015.05,M,-16.8,M,,*51
$GPRMC,214817.000,A,4910.32516,N,12304.20741,W,0.0,0.0,161018,,,A*71
$GNGSA,A,3,32,10,14,18,08,20,11,27,24,01,21,,1.0,0.6,0.9*25
$GNGSA,A,3,66,65,74,82,75,81,88,67,,,,,1.0,0.6,0.9*22
$PSIWMPVT,110.780,251315.000,3,49.1720861,-123.0701234,15.052,0.001,-0.015,0.016,4.796,3.606,4.223,0.354,0.000,0.000,7.752,0.023,19,*23
$PSIWMPOS,000151.700,4910.32516,N,12304.20741,W,8.14,15.05,M,5.75,0,8,0,2,0,*5C
$PSIWMATT,000151.700,360.0,T,0.8,0.1,180.0,*70
$PSIWMVEL,000151.700,360.0,T,0.0,K,-0.00,M,*77
$PSIWMVSD,000151.700,0.00,0.00,0.00,2,0.00,0.00,0.00,2,*0D
$GPGGA,214818.000,4910.32516,N,12304.20741,W,1,19,0.6,015.05,M,-16.8,M,,*5E
$GPRMC,214818.000,A,4910.32516,N,12304.20741,W,0.0,0.0,161018,,,A*7E
$GNGSA,A,3,32,10,14,18,08,20,11,27,24,01,21,,1.0,0.6,0.9*25
$GNGSA,A,3,66,65,74,82,75,81,88,67,,,,,1.0,0.6,0.9*22
$PSIWMPVT,111.780,251316.000,3,49.1720861,-123.0701234,15.052,0.002,-0.004,-0.003,4.796,3.606,4.621,0.354,0.000,0.000,8.440,0.023,19,*02
$PSIWMPOS,000152.700,4910.32516,N,12304.20741,W,8.14,15.05,M,5.75,0,8,0,2,0,*5F
$PSIWMATT,000152.700,360.0,T,0.8,0.1,180.0,*73
$PSIWMVEL,000152.700,360.0,T,0.0,K,-0.00,M,*74
$PSIWMVSD,000152.700,0.00,0.00,0.00,2,0.00,0.00,0.00,2,*0E
$GPGGA,214819.000,4910.32516,N,12304.20741,W,1,19,0.6,015.05,M,-16.8,M,,*5F
$GPRMC,214819.000,A,4910.32516,N,12304.20741,W,0.0,0.0,161018,,,A*7F
$GNGSA,A,3,32,10,14,18,08,20,11,27,24,01,21,,1.0,0.6,0.9*25
$GNGSA,A,3,66,65,74,82,75,81,88,67,,,,,1.0,0.6,0.9*22
$PSIWMPVT,112.780,251317.000,3,49.1720861,-123.0701234,15.052,-0.002,-0.021,-0.013,4.848,3.674,4.648,0.354,0.000,0.000,8.504,0.016,19,*2A
$PSIWMPOS,000153.700,4910.32516,N,12304.20741,W,8.23,15.05,M,5.82,0,8,0,2,0,*52
$PSIWMATT,000153.700,360.0,T,0.8,0.1,180.0,*72
$PSIWMVEL,000153.700,360.0,T,0.0,K,-0.00,M,*75
$PSIWMVSD,000153.700,0.00,0.00,0.00,2,0.00,0.00,0.00,2,*0F
$GPGGA,214820.000,4910.32516,N,12304.20741,W,1,19,0.6,015.05,M,-16.8,M,,*55
$GPRMC,214820.000,A,4910.32516,N,12304.20741,W,0.0,0.0,161018,,,A*75
$GNGSA,A,3,32,10,14,18,08,20,11,27,24,01,21,,1.0,0.6,0.9*25
$GNGSA,A,3,66,65,74,82,75,81,88,67,,,,,1.0,0.6,0.9*22
$PSIWMPVT,113.780,251318.000,3,49.1720861,-123.0701234,15.052,-0.006,-0.006,0.005,4.848,3.674,4.473,0.354,0.000,0.000,8.122,0.020,19,*00
$PSIWMPOS,000154.700,4910.32516,N,12304.20741,W,8.23,15.05,M,5.82,0,8,0,2,0,*55
$PSIWMATT,000154.700,360.0,T,0.8,0.1,180.0,*75
$PSIWMVEL,000154.700,360.0,T,0.0,K,-0.00,M,*72
$PSIWMVSD,000154.700,0.00,0.00,0.00,2,0.00,0.00,0.00,2,*08
$GPGGA,214821.000,4910.32516,N,12304.20741,W,1,19,0.6,015.05,M,-16.8,M,,*54
$GPRMC,214821.000,A,4910.32516,N,12304.20741,W,0.0,0.0,161018,,,A*74
$GNGSA,A,3,32,10,14,18,08,20,11,27,24,01,21,,1.0,0.6,0.9*25
$GNGSA,A,3,66,65,74,82,75,81,88,67,,,,,1.0,0.6,0.9*22
$PSIWMPVT,114.780,251319.000,3,49.1720861,-123.0701234,15.052,-0.006,-0.016,-0.004,4.848,3.674,4.074,0.354,0.000,0.000,7.381,0.023,19,*2F
$PSIWMPOS,000155.700,4910.32516,N,12304.20741,W,8.23,15.05,M,5.82,0,8,0,2,0,*54
$PSIWMATT,000155.700,360.0,T,0.8,0.1,180.0,*74
$PSIWMVEL,000155.700,360.0,T,0.0,K,-0.00,M,*73
$PSIWMVSD,000155.700,0.00,0.00,0.00,2,0.00,0.00,0.00,2,*09
$GPGGA,214822.000,4910.32516,N,12304.20741,W,1,19,0.6,015.05,M,-16.8,M,,*57
$GPRMC,214822.000,A,4910.32516,N,12304.20741,W,0.0,0.0,161018,,,A*77
$GNGSA,A,3,32,10,14,18,08,20,11,27,24,01,21,,1.0,0.6,0.9*25
$GNGSA,A,3,66,65,74,82,75,81,88,67,,,,,1.0,0.6,0.9*22
$PSIWMPVT,115.780,251320.000,3,49.1720861,-123.0701234,15.052,-0.006,-0.011,0.007,4.848,3.674,3.906,0.354,0.000,0.000,7.241,0.012,19,*09
$PSIWMPOS,000156.700,4910.32516,N,12304.20741,W,8.23,15.05,M,5.82,0,8,0,2,0,*57
$PSIWMATT,000156.700,360.0,T,0.8,0.1,180.0,*77
$PSIWMVEL,000156.700,360.0,T,0.0,K,-0.00,M,*70
$PSIWMVSD,000156.700,0.00,0.00,0.00,2,0.00,0.00,0.00,2,*0A
$GPGGA,214823.000,4910.32516,N,12304.20741,W,1,19,0.6,015.05,M,-16.8,M,,*56
$GPRMC,214823.000,A,4910.32516,N,12304.20741,W,0.0,0.0,161018,,,A*76
$GNGSA,A,3,32,10,14,18,08,20,11,27,24,01,21,,1.0,0.6,0.9*25
$GNGSA,A,3,66,65,74,82,75,81,88,67,,,,,1.0,0.6,0.9*22
$PSIWMPVT,116.780,251321.000,3,49.1720861,-123.0701234,15.052,-0.004,-0.009,-0.006,4.848,3.674,4.207,0.354,0.000,0.000,7.676,0.031,19,*20
$PSIWMPOS,000157.700,4910.32516,N,12304.20741,W,8.23,15.05,M,5.82,0,8,0,2,0,*56
$PSIWMATT,000157.700,360.0,T,0.7,0.1,180.0,*79
$PSIWMVEL,000157.700,360.0,T,0.0,K,-0.00,M,*71
$PSIWMVSD,000157.700,0.00,0.00,0.00,2,0.00,0.00,0.00,2,*0B
$GPGGA,214824.000,4910.32516,N,12304.20741,W,1,19,0.6,015.05,M,-16.8,M,,*51
$GPRMC,214824.000,A,4910.32516,N,12304.20741,W,0.0,0.0,161018,,,A*71
$GNGSA,A,3,32,10,14,18,08,20,11,27,24,01,21,,1.0,0.6,0.9*25
$GNGSA,A,3,66,65,74,82,75,81,88,67,,,,,1.0,0.6,0.9*22
$PSIWMPVT,117.780,251322.000,3,49.1720861,-123.0701234,15.052,-0.002,-0.007,-0.001,4.899,3.742,4.277,0.354,0.000,0.000,7.929,0.047,19,*26
$PSIWMPOS,000158.700,4910.32516,N,12304.20741,W,8.31,15.05,M,5.88,0,8,0,2,0,*50
$PSIWMATT,000158.700,360.0,T,0.7,0.1,180.0,*76
$PSIWMVEL,000158.700,360.0,T,0.0,K,-0.00,M,*7E
$PSIWMVSD,000158.700,0.00,0.00,0.00,2,0.00,0.00,0.00,2,*04
$GPGGA,214825.000,4910.32516,N,12304.20741,W,1,19,0.6,015.05,M,-16.8,M,,*50
$GPRMC,214825.000,A,4910.32516,N,12304.20741,W,0.0,0.0,161018,,,A*70
$GNGSA,A,3,32,10,14,18,08,20,11,27,24,01,21,,1.0,0.6,0.9*25
$GNGSA,A,3,66,65,74,82,75,81,88,67,,,,,1.0,0.6,0.9*22
$PSIWMPVT,118.780,251322.999,3,49.1720861,-123.0701234,15.052,-0.005,-0.009,-0.021,4.899,3.742,4.000,0.354,0.000,0.000,7.371,0.020,19,*2F
$PSIWMPOS,000159.700,4910.32516,N,12304.20741,W,8.31,15.05,M,5.88,0,8,0,2,0,*51
$PSIWMATT,000159.700,360.0,T,0.7,0.1,180.0,*77
$PSIWMVEL,000159.700,360.0,T,0.0,K,-0.00,M,*7F
$PSIWMVSD,000159.700,0.00,0.00,0.00,2,0.00,0.00,0.00,2,*05
$GPGGA,214826.000,4910.32516,N,12304.20741,W,1,19,0.6,015.05,M,-16.8,M,,*53
$GPRMC,214826.000,A,4910.32516,N,12304.20741,W,0.0,0.0,161018,,,A*73
$GNGSA,A,3,32,10,14,18,08,20,11,27,24,01,21,,1.0,0.6,0.9*25
$GNGSA,A,3,66,65,74,82,75,81,88,67,,,,,1.0,0.6,0.9*22
$PSIWMPVT,119.780,251323.999,3,49.1720861,-123.0701234,15.052,-0.000,-0.011,-0.028,4.899,3.742,4.258,0.354,0.000,0.000,7.898,0.047,19,*28
$PSIWMPOS,000200.700,4910.32516,N,12304.20741,W,8.31,15.05,M,5.88,0,8,0,2,0,*5E
$PSIWMATT,000200.700,360.0,T,0.7,0.1,180.0,*78
$PSIWMVEL,000200.700,360.0,T,0.0,K,-0.00,M,*70
$PSIWMVSD,000200.700,0.00,0.00,0.00,2,0.00,0.00,0.00,2,*0A
$GPGGA,214827.000,4910.32516,N,12304.20741,W,1,19,0.6,015.05,M,-16.8,M,,*52
$GPRMC,214827.000,A,4910.32516,N,12304.20741,W,0.1,0.0,161018,,,A*73
$GNGSA,A,3,32,10,14,18,08,20,11,27,24,01,21,,1.0,0.6,0.9*25
$GNGSA,A,3,66,65,74,82,75,81,88,67,,,,,1.0,0.6,0.9*22
$PSIWMPVT,120.780,251324.999,3,49.1720861,-123.0701234,15.052,0.010,-0.027,-0.061,4.899,3.742,4.371,0.354,0.000,0.000,8.270,0.109,19,*03
$PSIWMPOS,000201.700,4910.32516,N,12304.20741,W,8.31,15.05,M,5.88,0,8,0,2,0,*5F
$PSIWMATT,000201.700,360.0,T,0.7,0.1,180.0,*79
$PSIWMVEL,000201.700,360.0,T,0.0,K,-0.00,M,*71
$PSIWMVSD,000201.700,0.00,0.00,0.00,2,0.00,0.00,0.00,2,*0B
$GPGGA,214828.000,4910.32516,N,12304.20741,W,1,18,0.6,015.05,M,-16.8,M,,*5C
$GPRMC,214828.000,A,4910.32516,N,12304.20741,W,0.0,0.0,161018,,,A*7D
$GNGSA,A,3,32,10,14,18,08,20,11,27,24,01,21,,1.0,0.6,0.9*25
$GNGSA,A,3,66,65,74,82,75,81,88,,,,,,1.0,0.6,0.9*23
$PSIWMPVT,121.780,251325.999,3,49.1720861,-123.0701234,15.052,0.011,-0.013,-0.065,4.899,3.742,4.371,0.354,0.000,0.000,8.276,0.215,18,*08
$PSIWMPOS,000202.700,4910.32516,N,12304.20741,W,8.31,15.05,M,5.88,0,8,0,2,0,*5C
$PSIWMATT,000202.700,360.0,T,0.7,0.1,180.0,*7A
$PSIWMVEL,000202.700,360.0,T,0.0,K,-0.00,M,*72
$PSIWMVSD,000202.700,0.00,0.00,0.00,2,0.00,0.00,0.00,2,*08
$GPGGA,214829.000,4910.32516,N,12304.20741,W,1,19,0.6,015.05,M,-16.8,M,,*5C
$GPRMC,214829.000,A,4910.32516,N,12304.20741,W,0.0,0.0,161018,,,A*7C
$GNGSA,A,3,32,10,14,18,08,20,11,27,24,01,21,,1.0,0.6,0.9*25
$GNGSA,A,3,66,65,74,82,75,81,88,67,,,,,1.0,0.6,0.9*22
$PSIWMPVT,122.780,251326.999,3,49.1720861,-123.0701234,15.052,0.006,0.008,-0.066,4.950,3.808,4.086,0.354,0.000,0.000,7.727,0.059,19,*21
$PSIWMPOS,000203.700,4910.32516,N,12304.20741,W,8.40,15.05,M,5.94,0,8,0,2,0,*56
$PSIWMATT,000203.700,360.0,T,0.7,0.1,180.0,*7B
$PSIWMVEL,000203.700,360.0,T,0.0,K,-0.00,M,*73
$PSIWMVSD,000203.700,0.00,0.00,0.00,2,0.00,0.00,0.00,2,*09
$GPGGA,214830.000,4910.32516,N,12304.20741,W,1,19,0.6,015.05,M,-16.8,M,,*54
$GPRMC,214830.000,A,4910.32516,N,12304.20741,W,0.0,0.0,161018,,,A*74
$GNGSA,A,3,32,10,14,18,08,20,11,27,24,01,21,,1.0,0.6,0.9*25
$GNGSA,A,3,66,65,74,82,75,81,88,67,,,,,1.0,0.6,0.9*22
$PSIWMPVT,123.780,251327.999,3,49.1720861,-123.0701234,15.052,-0.008,-0.006,-0.064,4.950,3.808,4.559,0.354,0.000,0.000,8.524,0.055,19,*26
$PSIWMPOS,000204.700,4910.32516,N,12304.20741,W,8.40,15.05,M,5.94,0,8,0,2,0,*51
$PSIWMATT,000204.700,360.0,T,0.7,0.1,180.0,*7C
$PSIWMVEL,000204.700,360.0,T,0.0,K,-0.00,M,*74
$PSIWMVSD,000204.700,0.00,0.00,0.00,2,0.00,0.00,0.00,2,*0E
$GPGGA,214831.000,4910.32516,N,12304.20741,W,1,19,0.6,015.05,M,-16.8,M,,*55
$GPRMC,214831.000,A,4910.32516,N,12304.20741,W,0.0,0.0,161018,,,A*75
$GNGSA,A,3,32,10,14,18,08,20,11,27,24,01,21,,1.0,0.6,0.9*25
$GNGSA,A,3,66,65,74,82,75,81,88,67,,,,,1.0,0.6,0.9*22
$PSIWMPVT,124.780,251329.000,3,49.1720861,-123.0701234,15.052,0.009,-0.017,-0.069,4.950,3.808,4.004,0.354,0.000,0.000,7.474,0.035,19,*07
$PSIWMPOS,000205.700,4910.32516,N,12304.20741,W,8.40,15.05,M,5.94,0,8,0,2,0,*50
$PSIWMATT,000205.700,360.0,T,0.7,0.1,180.0,*7D
$PSIWMVEL,000205.700,360.0,T,0.0,K,-0.00,M,*75
$PSIWMVSD,000205.700,0.00,0.00,0.00,2,0.00,0.00,0.00,2,*0F
$GPGGA,214832.000,4910.32516,N,12304.20741,W,1,19,0.6,015.05,M,-16.8,M,,*56
$GPRMC,214832.000,A,4910.32516,N,12304.20741,W,0.0,0.0,161018,,,A*76
$GNGSA,A,3,32,10,14,18,08,20,11,27,24,01,21,,1.0,0.6,0.9*25
$GNGSA,A,3,66,65,74,82,75,81,88,67,,,,,1.0,0.6,0.9*22
$PSIWMPVT,125.780,251329.999,3,49.1720861,-123.0701234,15.052,0.002,-0.008,-0.065,4.950,3.808,3.320,0.354,0.000,0.354,6.046,0.031,19,*06
$PSIWMPOS,000206.700,4910.32516,N,12304.20741,W,8.40,15.05,M,5.94,0,8,0,2,0,*53
$PSIWMATT,000206.700,360.0,T,0.7,0.1,180.0,*7E
$PSIWMVEL,000206.700,360.0,T,0.0,K,-0.00,M,*76
$PSIWMVSD,000206.700,0.00,0.00,0.00,2,0.00,0.00,0.00,2,*0C
$GPGGA,214833.000,4910.32516,N,12304.20741,W,1,19,0.6,015.05,M,-16.8,M,,*57
$GPRMC,214833.000,A,4910.32516,N,12304.20741,W,0.0,0.0,161018,,,A*77
$GNGSA,A,3,32,10,14,18,08,20,11,27,24,01,21,,1.0,0.6,0.9*25
$GNGSA,A,3,66,65,74,82,75,81,88,67,,,,,1.0,0.6,0.9*22
$PSIWMPVT,126.780,251330.999,3,49.1720861,-123.0701234,15.052,0.016,-0.002,-0.066,4.950,3.808,3.402,0.500,0.000,0.354,6.120,0.023,19,*03
$PSIWMPOS,000207.700,4910.32516,N,12304.20741,W,8.40,15.05,M,5.94,0,8,0,2,0,*52
$PSIWMATT,000207.700,360.0,T,0.7,0.1,180.0,*7F
$PSIWMVEL,000207.700,360.0,T,0.0,K,-0.00,M,*77
$PSIWMVSD,000207.700,0.00,0.00,0.00,2,0.00,0.00,0.00,2,*0D
$GPGGA,214834.000,4910.32516,N,12304.20741,W,1,19,0.6,015.05,M,-16.8,M,,*50
$GPRMC,214834.000,A,4910.32516,N,12304.20741,W,0.0,0.0,161018,,,A*70
$GNGSA,A,3,32,10,14,18,08,20,11,27,24,01,21,,1.0,0.6,0.9*25
$GNGSA,A,3,66,65,74,82,75,81,88,67,,,,,1.0,0.6,0.9*22
$PSIWMPVT,127.780,251331.999,3,49.1720861,-123.0701234,15.052,0.014,-0.003,-0.055,5.000,3.873,3.422,0.500,0.000,0.000,6.076,0.023,19,*03
$PSIWMPOS,000208.700,4910.32516,N,12304.20741,W,8.49,15.05,M,6.00,0,8,0,2,0,*5A
$PSIWMATT,000208.700,360.0,T,0.7,0.1,180.0,*70
$PSIWMVEL,000208.700,360.0,T,0.0,K,-0.00,M,*78
$PSIWMVSD,000208.700,0.00,0.00,0.00,2,0.00,0.00,0.00,2,*02
$GPGGA,214835.000,4910.32516,N,12304.20741,W,1,19,0.6,015.05,M,-16.8,M,,*51
$GPRMC,214835.000,A,4910.32516,N,12304.20741,W,0.0,0.0,161018,,,A*71
$GNGSA,A,3,32,10,14,18,08,20,11,27,24,01,21,,1.0,0.6,0.9*25
$GNGSA,A,3,66,65,74,82,75,81,88,67,,,,,1.0,0.6,0.9*22
$PSIWMPVT,128.780,251333.000,3,49.1720861,-123.0701234,15.052,0.014,-0.009,-0.055,5.000,3.873,3.582,0.354,0.000,0.000,6.538,0.031,19,*0D
$PSIWMPOS,000209.700,4910.32516,N,12304.20741,W,8.49,15.05,M,6.00,0,8,0,2,0,*5B
$PSIWMATT,000209.700,360.0,T,0.7,0.1,180.0,*71
$PSIWMVEL,000209.700,360.0,T,0.0,K,-0.00,M,*79
$PSIWMVSD,000209.700,0.00,0.00,0.00,2,0.00,0.00,0.00,2,*03
$GPGGA,214836.000,4910.32516,N,12304.20741,W,1,19,0.6,015.05,M,-16.8,M,,*52
$GPRMC,214836.000,A,4910.32516,N,12304.20741,W,0.0,0.0,161018,,,A*72
$GNGSA,A,3,32,10,14,18,08,20,11,27,24,01,21,,1.0,0.6,0.9*25
$GNGSA,A,3,66,65,74,82,75,81,88,67,,,,,1.0,0.6,0.9*22
$PSIWMPVT,129.780,251333.999,3,49.1720861,-123.0701234,15.052,0.006,-0.015,-0.053,5.000,3.873,3.895,0.500,0.000,0.354,7.362,0.043,19,*0E
$PSIWMPOS,000210.700,4910.32516,N,12304.20741,W,8.49,15.05,M,6.00,0,8,0,2,0,*53
$PSIWMATT,000210.700,360.0,T,0.7,0.1,180.0,*79
$PSIWMVEL,000210.700,360.0,T,0.0,K,-0.00,M,*71
$PSIWMVSD,000210.700,0.00,0.00,0.00,2,0.00,0.00,0.00,2,*0B
$GPGGA,214837.000,4910.32516,N,12304.20741,W,1,20,0.6,015.05,M,-16.8,M,,*59
$GPRMC,214837.000,A,4910.32516,N,12304.20741,W,0.0,0.0,161018,,,A*73
$GNGSA,A,3,32,10,14,18,08,20,11,27,24,01,22,21,1.0,0.6,0.9*25
$GNGSA,A,3,66,65,74,82,75,81,88,67,,,,,1.0,0.6,0.9*22
$PSIWMPVT,130.780,251334.999,3,49.1720861,-123.0701234,15.052,-0.003,-0.023,-0.052,5.000,3.873,3.809,0.500,0.000,0.354,7.025,0.020,20,*27
$PSIWMPOS,000211.700,4910.32516,N,12304.20741,W,8.49,15.05,M,6.00,0,8,0,2,0,*52
$PSIWMATT,000211.700,360.0,T,0.7,0.1,180.0,*78
$PSIWMVEL,000211.700,360.0,T,0.0,K,-0.00,M,*70
$PSIWMVSD,000211.700,0.00,0.00,0.00,2,0.00,0.00,0.00,2,*0A
$GPGGA,214838.000,4910.32516,N,12304.20741,W,1,20,0.6,015.05,M,-16.8,M,,*56
$GPRMC,214838.000,A,4910.32516,N,12304.20741,W,0.0,0.0,161018,,,A*7C
$GNGSA,A,3,32,10,14,18,08,20,11,27,24,01,22,21,1.0,0.6,0.9*25
$GNGSA,A,3,66,65,74,82,75,81,88,67,,,,,1.0,0.6,0.9*22
$PSIWMPVT,131.780,251335.999,3,49.1720861,-123.0701234,15.052,0.007,-0.007,-0.053,5.000,3.873,3.977,0.500,0.000,0.000,7.216,0.031,20,*01
$PSIWMPOS,000212.700,4910.32516,N,12304.20741,W,8.49,15.05,M,6.00,0,8,0,2,0,*51
$PSIWMATT,000212.700,360.0,T,0.7,0.1,180.0,*7B
$PSIWMVEL,000212.700,360.0,T,0.0,K,-0.00,M,*73
$PSIWMVSD,000212.700,0.00,0.00,0.00,2,0.00,0.00,0.00,2,*09
$GPGGA,214839.000,4910.32516,N,12304.20741,W,1,19,0.6,015.05,M,-16.8,M,,*5D
$GPRMC,214839.000,A,4910.32516,N,12304.20741,W,0.0,0.0,161018,,,A*7D
$GNGSA,A,3,32,10,14,18,08,20,11,27,24,01,21,,1.0,0.6,0.9*25
$GNGSA,A,3,66,65,74,82,75,81,88,67,,,,,1.0,0.6,0.9*22
$PSIWMPVT,132.780,251337.000,3,49.1720861,-123.0701234,15.052,0.011,-0.006,-0.054,5.050,3.937,4.215,0.500,0.000,0.354,7.817,0.027,19,*00
$PSIWMPOS,000213.700,4910.32516,N,12304.20741,W,8.57,15.05,M,6.06,0,8,0,2,0,*59
$PSIWMATT,000213.700,360.0,T,0.7,0.1,180.0,*7A
$PSIWMVEL,000213.700,360.0,T,0.0,K,-0.00,M,*72
$PSIWMVSD,000213.700,0.00,0.00,0.00,2,0.00,0.00,0.00,2,*08
$GPGGA,214840.000,4910.32516,N,12304.20741,W,1,19,0.6,015.05,M,-16.8,M,,*53
$GPRMC,214840.000,A,4910.32516,N,12304.20741,W,0.0,0.0,161018,,,A*73
$GNGSA,A,3,32,10,14,18,08,20,11,27,24,01,21,,1.0,0.6,0.9*25
$GNGSA,A,3,66,65,74,82,75,81,88,67,,,,,1.0,0.6,0.9*22
$PSIWMPVT,133.780,251338.000,3,49.1720861,-123.0701234,15.052,0.007,-0.011,-0.052,5.050,3.937,3.793,0.500,0.000,0.354,6.881,0.031,19,*0C
$PSIWMPOS,000214.700,4910.32516,N,12304.20741,W,8.57,15.05,M,6.06,0,8,0,2,0,*5E
$PSIWMATT,000214.700,360.0,T,0.7,0.1,180.0,*7D
$PSIWMVEL,000214.700,360.0,T,0.0,K,-0.00,M,*75
$PSIWMVSD,000214.700,0.00,0.00,0.00,2,0.00,0.00,0.00,2,*0F
$GPGGA,214841.000,4910.32516,N,12304.20741,W,1,19,0.6,015.05,M,-16.8,M,,*52
$GPRMC,214841.000,A,4910.32516,N,12304.20741,W,0.0,0.0,161018,,,A*72
$GNGSA,A,3,32,10,14,18,08,20,11,27,24,01,21,,1.0,0.6,0.9*25
$GNGSA,A,3,66,65,74,82,75,81,88,67,,,,,1.0,0.6,0.9*22
$PSIWMPVT,134.780,251338.999,3,49.1720861,-123.0701234,15.052,0.003,-0.009,-0.050,5.050,3.937,4.395,0.500,0.000,0.000,8.066,0.055,19,*07
$PSIWMPOS,000215.700,4910.32516,N,12304.20741,W,8.57,15.05,M,6.06,0,8,0,2,0,*5F
$PSIWMATT,000215.700,360.0,T,0.7,0.1,180.0,*7C
$PSIWMVEL,000215.700,360.0,T,0.0,K,-0.00,M,*74
$PSIWMVSD,000215.700,0.00,0.00,0.00,2,0.00,0.00,0.00,2,*0E
$GPGGA,214842.000,4910.32516,N,12304.20741,W,1,19,0.6,015.05,M,-16.8,M,,*51
$GPRMC,214842.000,A,4910.32516,N,12304.20741,W,0.0,0.0,161018,,,A*71
$GNGSA,A,3,32,10,14,18,08,20,11,27,24,01,21,,1.0,0.6,0.9*25
$GNGSA,A,3,66,65,74,82,75,81,88,67,,,,,1.0,0.6,0.9*22
$PSIWMPVT,135.780,251339.999,3,49.1720861,-123.0701234,15.052,0.000,0.005,-0.029,5.050,3.937,4.520,0.354,0.000,0.000,8.342,0.020,19,*23
$PSIWMPOS,000216.700,4910.32516,N,12304.20741,W,8.57,15.05,M,6.06,0,8,0,2,0,*5C
$PSIWMATT,000216.700,360.0,T,0.6,0.1,180.0,*7E
$PSIWMVEL,000216.700,360.0,T,0.0,K,-0.00,M,*77
$PSIWMVSD,000216.700,0.00,0.00,0.00,2,0.00,0.00,0.00,2,*0D
$GPGGA,214843.000,4910.32516,N,12304.20741,W,1,19,0.6,015.05,M,-16.8,M,,*50
$GPRMC,214843.000,A,4910.32516,N,12304.20741,W,0.0,0.0,161018,,,A*70
$GNGSA,A,3,32,10,14,18,08,20,11,27,24,01,21,,1.0,0.6,0.9*25
$GNGSA,A,3,66,65,74,82,75,81,88,67,,,,,1.0,0.6,0.9*22
$PSIWMPVT,136.780,251341.000,3,49.1720861,-123.0701234,15.052,0.005,-0.009,-0.035,5.050,3.937,4.297,0.354,0.000,0.000,7.766,0.023,19,*0A
$PSIWMPOS,000217.700,4910.32516,N,12304.20741,W,8.57,15.05,M,6.06,0,8,0,2,0,*5D
$PSIWMATT,000217.700,360.0,T,0.6,0.1,180.0,*7F
$PSIWMVEL,000217.700,360.0,T,0.0,K,-0.00,M,*76
$PSIWMVSD,000217.700,0.00,0.00,0.00,2,0.00,0.00,0.00,2,*0C
$GPGGA,214844.000,4910.32516,N,12304.20741,W,1,19,0.6,015.05,M,-16.8,M,,*57
$GPRMC,214844.000,A,4910.32516,N,12304.20741,W,0.0,0.0,161018,,,A*77
$GNGSA,A,3,32,10,14,18,08,20,11,27,24,01,21,,1.0,0.6,0.9*25
$GNGSA,A,3,66,65,74,82,75,81,88,67,,,,,1.0,0.6,0.9*22
$PSIWMPVT,137.780,251342.000,3,49.1720861,-123.0701234,15.052,0.004,0.006,-0.009,5.099,4.000,3.949,0.354,0.000,0.000,7.117,0.062,19,*21
$PSIWMPOS,000218.700,4910.32516,N,12304.20741,W,8.65,15.05,M,6.12,0,8,0,2,0,*56
$PSIWMATT,000218.700,360.0,T,0.6,0.2,180.0,*73
$PSIWMVEL,000218.700,360.0,T,0.0,K,-0.00,M,*79
$PSIWMVSD,000218.700,0.00,0.00,0.00,2,0.00,0.00,0.00,2,*03
$GPGGA,214845.000,4910.32516,N,12304.20741,W,1,19,0.6,015.05,M,-16.8,M,,*56
$GPRMC,214845.000,A,4910.32516,N,12304.20741,W,0.0,0.0,161018,,,A*76
$GNGSA,A,3,32,10,14,18,08,20,11,27,24,01,21,,1.0,0.6,0.9*25
$GNGSA,A,3,66,65,74,82,75,81,88,67,,,,,1.0,0.6,0.9*22
$PSIWMPVT,138.780,251342.999,3,49.1720861,-123.0701234,15.052,0.002,0.005,-0.012,5.099,4.000,4.414,0.354,0.000,0.000,8.177,0.020,19,*25
$PSIWMPOS,000219.700,4910.32516,N,12304.20741,W,8.65,15.05,M,6.12,0,8,0,2,0,*57
$PSIWMATT,000219.700,360.0,T,0.6,0.2,180.0,*72
$PSIWMVEL,000219.700,360.0,T,0.0,K,-0.00,M,*78
$PSIWMVSD,000219.700,0.00,0.00,0.00,2,0.00,0.00,0.00,2,*02
$GPGGA,214846.000,4910.32516,N,12304.20741,W,1,19,0.6,015.05,M,-16.8,M,,*55
$GPRMC,214846.000,A,4910.32516,N,12304.20741,W,0.0,0.0,161018,,,A*75
$GNGSA,A,3,32,10,14,18,08,20,11,27,24,01,21,,1.0,0.6,0.9*25
$GNGSA,A,3,66,65,74,82,75,81,88,67,,,,,1.0,0.6,0.9*22
$PSIWMPVT,139.780,251344.000,3,49.1720861,-123.0701234,15.052,-0.000,-0.017,-0.014,5.099,4.000,4.582,0.354,0.000,0.000,8.683,0.043,19,*2B
$PSIWMPOS,000220.700,4910.32516,N,12304.20741,W,8.65,15.05,M,6.12,0,8,0,2,0,*5D
$PSIWMATT,000220.700,360.0,T,0.6,0.2,180.0,*78
$PSIWMVEL,000220.700,360.0,T,0.0,K,-0.00,M,*72
$PSIWMVSD,000220.700,0.00,0.00,0.00,2,0.00,0.00,0.00,2,*08
$GPGGA,214847.000,4910.32512,N,12304.20756,W,1,19,0.6,014.39,M,-16.8,M,,*58
$GPRMC,214847.000,A,4910.32512,N,12304.20756,W,0.0,0.0,161018,,,A*76
$GNGSA,A,3,32,10,14,18,08,20,11,27,24,01,21,,1.0,0.6,0.9*25
$GNGSA,A,3,66,65,74,82,75,81,88,67,,,,,1.0,0.6,0.9*22
$PSIWMPVT,140.780,251345.000,3,49.1720854,-123.0701260,14.386,0.007,-0.006,-0.006,4.743,3.464,5.082,0.354,0.000,0.000,10.137,0.055,19,*33
$PSIWMPOS,000221.700,4910.32512,N,12304.20756,W,8.05,14.39,M,5.69,0,8,0,2,0,*59
$PSIWMATT,000221.700,360.0,T,0.6,0.2,180.0,*79
$PSIWMVEL,000221.700,360.0,T,0.0,K,-0.00,M,*73
$PSIWMVSD,000221.700,0.00,0.00,0.00,2,0.00,0.00,0.00,2,*09
$GPGGA,214848.000,4910.32512,N,12304.20756,W,1,19,0.6,014.39,M,-16.8,M,,*57
$GPRMC,214848.000,A,4910.32512,N,12304.20756,W,0.0,0.0,161018,,,A*79
$GNGSA,A,3,32,10,14,18,08,20,11,27,24,01,21,,1.0,0.6,0.9*25
$GNGSA,A,3,66,65,74,82,75,81,88,67,,,,,1.0,0.6,0.9*22
$PSIWMPVT,141.780,251346.000,3,49.1720854,-123.0701260,14.386,0.016,-0.018,-0.042,4.743,3.464,4.359,0.354,0.000,0.000,8.383,0.035,19,*08
$PSIWMPOS,000222.700,4910.32512,N,12304.20756,W,8.05,14.39,M,5.69,0,8,0,2,0,*5A
$PSIWMATT,000222.700,360.0,T,0.6,0.2,180.0,*7A
$PSIWMVEL,000222.700,360.0,T,0.0,K,-0.00,M,*70
$PSIWMVSD,000222.700,0.00,0.00,0.00,2,0.00,0.00,0.00,2,*0A
$GPGGA,214849.000,4910.32512,N,12304.20756,W,1,19,0.6,014.39,M,-16.8,M,,*56
$GPRMC,214849.000,A,4910.32512,N,12304.20756,W,0.0,0.0,161018,,,A*78
$GNGSA,A,3,32,10,14,18,08,20,11,27,24,01,21,,1.0,0.6,0.9*25
$GNGSA,A,3,66,65,74,82,75,81,88,67,,,,,1.0,0.6,0.9*22
$PSIWMPVT,142.780,251347.000,3,49.1720854,-123.0701260,14.386,0.008,-0.009,-0.041,4.743,3.536,4.418,0.354,0.000,0.354,8.645,0.074,19,*0A
$PSIWMPOS,000223.700,4910.32512,N,12304.20756,W,8.05,14.39,M,5.69,0,8,0,2,0,*5B
$PSIWMATT,000223.700,360.0,T,0.6,0.2,180.0,*7B
$PSIWMVEL,000223.700,360.0,T,0.0,K,-0.00,M,*71
$PSIWMVSD,000223.700,0.00,0.00,0.00,2,0.00,0.00,0.00,2,*0B
$GPGGA,214850.000,4910.32512,N,12304.20756,W,1,19,0.6,014.39,M,-16.8,M,,*5E
$GPRMC,214850.000,A,4910.32512,N,12304.20756,W,0.0,0.0,161018,,,A*70
$GNGSA,A,3,32,10,14,18,08,20,11,27,24,01,21,,1.0,0.6,0.9*25
$GNGSA,A,3,66,65,74,82,75,81,88,67,,,,,1.0,0.6,0.9*22
$PSIWMPVT,143.780,251348.000,3,49.1720854,-123.0701260,14.386,0.012,-0.010,-0.039,4.796,3.536,3.762,0.500,0.000,0.354,6.996,0.039,19,*08
$PSIWMPOS,000224.700,4910.32512,N,12304.20756,W,8.14,14.39,M,5.75,0,8,0,2,0,*51
$PSIWMATT,000224.700,360.0,T,0.6,0.2,180.0,*7C
$PSIWMVEL,000224.700,360.0,T,0.0,K,-0.00,M,*76
$PSIWMVSD,000224.700,0.00,0.00,0.00,2,0.00,0.00,0.00,2,*0C
$GPGGA,214851.000,4910.32512,N,12304.20756,W,1,19,0.6,014.39,M,-16.8,M,,*5F
$GPRMC,214851.000,A,4910.32512,N,12304.20756,W,0.1,0.0,161018,,,A*70
$GNGSA,A,3,32,10,14,18,08,20,11,27,24,01,21,,1.0,0.6,0.9*25
$GNGSA,A,3,66,65,74,82,75,81,88,67,,,,,1.0,0.6,0.9*22
$PSIWMPVT,144.780,251349.000,3,49.1720854,-123.0701260,14.386,0.028,-0.010,-0.038,4.796,3.536,3.523,0.500,0.000,0.354,6.692,0.031,19,*02
$PSIWMPOS,000225.700,4910.32512,N,12304.20756,W,8.14,14.39,M,5.75,0,8,0,2,0,*50
$PSIWMATT,000225.700,360.0,T,0.6,0.2,180.0,*7D
$PSIWMVEL,000225.700,360.0,T,0.0,K,-0.00,M,*77
$PSIWMVSD,000225.700,0.00,0.00,0.00,2,0.00,0.00,0.00,2,*0D
$GPGGA,214852.000,4910.32512,N,12304.20756,W,1,19,0.6,014.39,M,-16.8,M,,*5C
$GPRMC,214852.000,A,4910.32512,N,12304.20756,W,0.0,0.0,161018,,,A*72
$GNGSA,A,3,32,10,14,18,08,20,11,27,24,01,21,,1.0,0.6,0.9*25
$GNGSA,A,3,66,65,74,82,75,81,88,67,,,,,1.0,0.6,0.9*22
$PSIWMPVT,145.780,251350.000,3,49.1720854,-123.0701260,14.386,0.011,-0.005,-0.037,4.796,3.536,3.844,0.500,0.000,0.354,6.990,0.016,19,*0E
$PSIWMPOS,000226.700,4910.32512,N,12304.20756,W,8.14,14.39,M,5.75,0,8,0,2,0,*53
$PSIWMATT,000226.700,360.0,T,0.6,0.1,180.0,*7D
$PSIWMVEL,000226.700,360.0,T,0.0,K,-0.00,M,*74
$PSIWMVSD,000226.700,0.00,0.00,0.00,2,0.00,0.00,0.00,2,*0E
$GPGGA,214853.000,4910.32512,N,12304.20756,W,1,19,0.6,014.39,M,-16.8,M,,*5D
$GPRMC,214853.000,A,4910.32512,N,12304.20756,W,0.0,0.0,161018,,,A*73
$GNGSA,A,3,32,10,14,18,08,20,11,27,24,01,21,,1.0,0.6,0.9*25
$GNGSA,A,3,66,65,74,82,75,81,88,67,,,,,1.0,0.6,0.9*22
$PSIWMPVT,146.780,251351.000,3,49.1720854,-123.0701260,14.386,0.006,0.006,0.041,4.796,3.536,4.113,0.500,0.000,0.000,7.799,0.098,19,*06
$PSIWMPOS,000227.700,4910.32512,N,12304.20756,W,8.14,14.39,M,5.75,0,8,0,2,0,*52
$PSIWMATT,000227.700,360.0,T,0.6,0.1,180.0,*7C
$PSIWMVEL,000227.700,360.0,T,0.0,K,-0.00,M,*75
$PSIWMVSD,000227.700,0.00,0.00,0.00,2,0.00,0.00,0.00,2,*0F
$GPGGA,214854.000,4910.32512,N,12304.20756,W,1,20,0.6,014.39,M,-16.8,M,,*50
$GPRMC,214854.000,A,4910.32512,N,12304.20756,W,0.0,0.0,161018,,,A*74
$GNGSA,A,3,32,10,14,18,08,20,11,27,24,01,22,21,1.0,0.6,0.9*25
$GNGSA,A,3,66,65,74,82,75,81,88,67,,,,,1.0,0.6,0.9*22
$PSIWMPVT,147.780,251352.000,3,49.1720854,-123.0701260,14.386,-0.002,0.013,0.050,4.796,3.606,4.465,0.354,0.000,0.000,8.808,0.086,20,*27
$PSIWMPOS,000228.700,4910.32512,N,12304.20756,W,8.14,14.39,M,5.75,0,8,0,2,0,*5D
$PSIWMATT,000228.700,360.0,T,0.7,0.1,180.0,*72
$PSIWMVEL,000228.700,360.0,T,0.0,K,-0.00,M,*7A
$PSIWMVSD,000228.700,0.00,0.00,0.00,2,0.00,0.00,0.00,2,*00
$GPGGA,214855.000,4910.32512,N,12304.20756,W,1,20,0.6,014.39,M,-16.8,M,,*51
$GPRMC,214855.000,A,4910.32512,N,12304.20756,W,0.0,0.0,161018,,,A*75
$GNGSA,A,3,32,10,14,18,08,20,11,27,24,01,22,21,1.0,0.6,0.9*25
$GNGSA,A,3,66,65,74,82,75,81,88,67,,,,,1.0,0.6,0.9*22
$PSIWMPVT,148.780,251353.000,3,49.1720854,-123.0701260,14.386,0.006,0.010,0.059,4.848,3.606,4.152,0.354,0.000,0.000,8.294,0.051,20,*02
$PSIWMPOS,000229.700,4910.32512,N,12304.20756,W,8.23,14.39,M,5.82,0,8,0,2,0,*50
$PSIWMATT,000229.700,360.0,T,0.7,0.1,180.0,*73
$PSIWMVEL,000229.700,360.0,T,0.0,K,-0.00,M,*7B
$PSIWMVSD,000229.700,0.00,0.00,0.00,2,0.00,0.00,0.00,2,*01
$GPGGA,214856.000,4910.32512,N,12304.20756,W,1,20,0.6,014.39,M,-16.8,M,,*52
$GPRMC,214856.000,A,4910.32512,N,12304.20756,W,0.0,0.0,161018,,,A*76
$GNGSA,A,3,32,10,14,18,08,20,11,27,24,01,22,21,1.0,0.6,0.9*25
$GNGSA,A,3,66,65,74,82,75,81,88,67,,,,,1.0,0.6,0.9*22
$PSIWMPVT,149.780,251354.000,3,49.1720854,-123.0701260,14.386,0.004,0.002,0.054,4.848,3.606,3.852,0.354,0.000,0.000,7.588,0.059,20,*0B
$PSIWMPOS,000230.700,4910.32512,N,12304.20756,W,8.23,14.39,M,5.82,0,8,0,2,0,*58
$PSIWMATT,000230.700,360.0,T,0.7,0.1,180.0,*7B
$PSIWMVEL,000230.700,360.0,T,0.0,K,-0.00,M,*73
$PSIWMVSD,000230.700,0.00,0.00,0.00,2,0.00,0.00,0.00,2,*09
$GPGGA,214857.000,4910.32512,N,12304.20756,W,1,20,0.6,014.39,M,-16.8,M,,*53
$GPRMC,214857.000,A,4910.32512,N,12304.20756,W,0.0,0.0,161018,,,A*77
$GNGSA,A,3,32,10,14,18,08,20,11,27,24,01,22,21,1.0,0.6,0.9*25
$GNGSA,A,3,66,65,74,82,75,81,88,67,,,,,1.0,0.6,0.9*22
$PSIWMPVT,150.780,251355.000,3,49.1720854,-123.0701260,14.386,0.000,0.010,0.072,4.848,3.606,3.316,0.354,0.000,0.000,7.622,0.129,20,*0F
$PSIWMPOS,000231.700,4910.32512,N,12304.20756,W,8.23,14.39,M,5.82,0,8,0,2,0,*59
$PSIWMATT,000231.700,360.0,T,0.7,0.1,180.0,*7A
$PSIWMVEL,000231.700,360.0,T,0.0,K,-0.00,M,*72
$PSIWMVSD,000231.700,0.00,0.00,0.00,2,0.00,0.00,0.00,2,*08
$GPGGA,214858.000,4910.32512,N,12304.20756,W,1,20,0.6,014.39,M,-16.8,M,,*5C
$GPRMC,214858.000,A,4910.32512,N,12304.20756,W,0.0,0.0,161018,,,A*78
$GNGSA,A,3,32,10,14,18,08,20,11,27,24,01,22,21,1.0,0.6,0.9*25
$GNGSA,A,3,66,65,74,82,75,81,88,67,,,,,1.0,0.6,0.9*22
$PSIWMPVT,151.780,251355.999,3,49.1720854,-123.0701260,14.386,0.005,0.020,0.068,4.848,3.606,2.875,0.354,0.000,0.354,7.834,0.070,20,*03
$PSIWMPOS,000232.700,4910.32512,N,12304.20756,W,8.23,14.39,M,5.82,0,8,0,2,0,*5A
$PSIWMATT,000232.700,360.0,T,0.7,0.1,180.0,*79
$PSIWMVEL,000232.700,360.0,T,0.0,K,-0.00,M,*71
$PSIWMVSD,000232.700,0.00,0.00,0.00,2,0.00,0.00,0.00,2,*0B
$GPGGA,214859.000,4910.32512,N,12304.20756,W,1,20,0.6,014.39,M,-16.8,M,,*5D
$GPRMC,214859.000,A,4910.32512,N,12304.20756,W,0.0,0.0,161018,,,A*79
$GNGSA,A,3,32,10,14,18,08,20,11,27,24,01,22,21,1.0,0.6,0.9*25
$GNGSA,A,3,66,65,74,82,75,81,88,67,,,,,1.0,0.6,0.9*22
$PSIWMPVT,152.780,251356.999,3,49.1720854,-123.0701260,14.386,-0.005,-0.003,0.064,4.848,3.674,3.785,0.500,0.000,0.354,9.827,0.066,20,*06
$PSIWMPOS,000233.700,4910.32512,N,12304.20756,W,8.23,14.39,M,5.82,0,8,0,2,0,*5B
$PSIWMATT,000233.700,360.0,T,0.7,0.1,180.0,*78
$PSIWMVEL,000233.700,360.0,T,0.0,K,-0.00,M,*70
$PSIWMVSD,000233.700,0.00,0.00,0.00,2,0.00,0.00,0.00,2,*0A
$GPGGA,214900.000,4910.32512,N,12304.20756,W,1,20,0.6,014.39,M,-16.8,M,,*50
$GPRMC,214900.000,A,4910.32512,N,12304.20756,W,0.0,0.0,161018,,,A*74
$GNGSA,A,3,32,10,14,18,08,20,11,27,24,01,22,21,1.0,0.6,0.9*25
$GNGSA,A,3,66,65,74,82,75,81,88,67,,,,,1.0,0.6,0.9*22
$PSIWMPVT,153.780,251357.999,3,49.1720854,-123.0701260,14.386,-0.004,0.011,0.066,4.899,3.674,3.902,0.500,0.000,0.354,9.292,0.051,20,*26
$PSIWMPOS,000234.700,4910.32512,N,12304.20756,W,8.31,14.39,M,5.88,0,8,0,2,0,*55
$PSIWMATT,000234.700,360.0,T,0.7,0.1,180.0,*7F
$PSIWMVEL,000234.700,360.0,T,0.0,K,-0.00,M,*77
$PSIWMVSD,000234.700,0.00,0.00,0.00,2,0.00,0.00,0.00,2,*0D
$GPGGA,214901.000,4910.32512,N,12304.20756,W,1,20,0.6,014.39,M,-16.8,M,,*51
$GPRMC,214901.000,A,4910.32512,N,12304.20756,W,0.0,0.0,161018,,,A*75
$GNGSA,A,3,32,10,14,18,08,20,11,27,24,01,22,21,1.0,0.6,0.9*25
$GNGSA,A,3,66,65,74,82,75,81,88,67,,,,,1.0,0.6,0.9*22
$PSIWMPVT,154.780,251358.999,3,49.1720854,-123.0701260,14.386,0.003,0.018,0.060,4.899,3.674,3.578,0.500,0.000,0.354,9.753,0.109,20,*0E
$PSIWMPOS,000235.700,4910.32512,N,12304.20756,W,8.31,14.39,M,5.88,0,8,0,2,0,*54
$PSIWMATT,000235.700,360.0,T,0.7,0.1,180.0,*7E
$PSIWMVEL,000235.700,360.0,T,0.0,K,-0.00,M,*76
$PSIWMVSD,000235.700,0.00,0.00,0.00,2,0.00,0.00,0.00,2,*0C
$GPGGA,214902.000,4910.32512,N,12304.20756,W,1,19,0.6,014.39,M,-16.8,M,,*58
$GPRMC,214902.000,A,4910.32512,N,12304.20756,W,0.0,0.0,161018,,,A*76
$GNGSA,A,3,32,10,14,18,08,20,11,27,24,01,22,21,1.0,0.6,0.9*25
$GNGSA,A,3,66,65,74,82,75,81,88,,,,,,1.0,0.6,0.9*23
$PSIWMPVT,155.780,251359.999,3,49.1720854,-123.0701260,14.386,0.006,0.009,0.058,4.899,3.674,3.645,0.612,0.000,0.354,10.632,0.043,19,*36
$PSIWMPOS,000236.700,4910.32512,N,12304.20756,W,8.31,14.39,M,5.88,0,8,0,2,0,*57
$PSIWMATT,000236.700,360.0,T,0.7,0.1,180.0,*7D
$PSIWMVEL,000236.700,360.0,T,0.0,K,-0.00,M,*75
$PSIWMVSD,000236.700,0.00,0.00,0.00,2,0.00,0.00,0.00,2,*0F
$GPGGA,214903.000,4910.32512,N,12304.20756,W,1,19,0.6,014.39,M,-16.8,M,,*59
$GPRMC,214903.000,A,4910.32512,N,12304.20756,W,0.0,0.0,161018,,,A*77
$GNGSA,A,3,32,10,14,18,08,20,11,27,24,01,22,21,1.0,0.6,0.9*25
$GNGSA,A,3,66,65,74,82,75,81,88,,,,,,1.0,0.6,0.9*23
$PSIWMPVT,156.780,251360.999,3,49.1720854,-123.0701260,14.386,-0.008,0.003,0.062,4.899,3.674,3.016,0.612,0.000,0.354,9.914,0.070,19,*2C
$PSIWMPOS,000237.700,4910.32512,N,12304.20756,W,8.31,14.39,M,5.88,0,8,0,2,0,*56
$PSIWMATT,000237.700,360.0,T,0.8,0.1,180.0,*73
$PSIWMVEL,000237.700,360.0,T,0.0,K,-0.00,M,*74
$PSIWMVSD,000237.700,0.00,0.00,0.00,2,0.00,0.00,0.00,2,*0E
$GPGGA,214904.000,4910.32512,N,12304.20756,W,1,20,0.6,014.39,M,-16.8,M,,*54
$GPRMC,214904.000,A,4910.32512,N,12304.20756,W,0.0,0.0,161018,,,A*70
$GNGSA,A,3,32,10,14,18,08,20,11,27,24,01,22,21,1.0,0.6,0.9*25
$GNGSA,A,3,66,65,74,82,75,81,88,67,,,,,1.0,0.6,0.9*22
$PSIWMPVT,157.780,251361.999,3,49.1720854,-123.0701260,14.386,0.001,0.007,0.056,4.899,3.742,3.754,0.612,0.000,0.354,10.473,0.137,20,*32
$PSIWMPOS,000238.700,4910.32512,N,12304.20756,W,8.31,14.39,M,5.88,0,8,0,2,0,*59
$PSIWMATT,000238.700,360.0,T,0.7,0.1,180.0,*73
$PSIWMVEL,000238.700,360.0,T,0.0,K,-0.00,M,*7B
$PSIWMVSD,000238.700,0.00,0.00,0.00,2,0.00,0.00,0.00,2,*01
$GPGGA,214905.000,4910.32512,N,12304.20756,W,1,20,0.6,014.39,M,-16.8,M,,*55
$GPRMC,214905.000,A,4910.32512,N,12304.20756,W,0.0,0.0,161018,,,A*71
$GNGSA,A,3,32,10,14,18,08,20,11,27,24,01,22,21,1.0,0.6,0.9*25
$GNGSA,A,3,66,65,74,82,75,81,88,67,,,,,1.0,0.6,0.9*22
$PSIWMPVT,158.780,251362.999,3,49.1720854,-123.0701260,14.386,-0.002,0.012,0.054,4.950,3.742,2.926,0.612,0.000,0.354,9.084,0.148,20,*24
$PSIWMPOS,000239.700,4910.32512,N,12304.20756,W,8.40,14.39,M,5.94,0,8,0,2,0,*53
$PSIWMATT,000239.700,360.0,T,0.7,0.1,180.0,*72
$PSIWMVEL,000239.700,360.0,T,0.0,K,-0.00,M,*7A
$PSIWMVSD,000239.700,0.00,0.00,0.00,2,0.00,0.00,0.00,2,*00
