$GNGSA,A,3,11,24,27,08,18,15,21,10,20,14,32,,1.1,0.6,0.9*21
$GNGSA,A,3,65,88,82,74,81,72,87,73,66,,,,1.1,0.6,0.9*2E
$GPGGA,210340.000,4910.19172,N,12303.95947,W,1,20,0.6,-01.14,M,-16.8,M,,*40
$GPRMC,210340.000,A,4910.19172,N,12303.95947,W,0.0,0.0,161018,,,A*72
$GNGSA,A,3,11,24,27,08,18,15,21,10,20,14,32,,1.1,0.6,0.9*21
$GNGSA,A,3,65,88,82,74,81,72,87,73,66,,,,1.1,0.6,0.9*2E
$PSIWMPVT,907.210,248638.000,3,49.1698620,-123.0659912,-1.144,-0.021,0.011,-0.005,5.148,3.536,2.184,0.354,0.000,0.000,3.708,0.020,20,*10
$GPGGA,210341.000,4910.19172,N,12303.95947,W,1,20,0.6,-01.14,M,-16.8,M,,*41
$GPRMC,210341.000,A,4910.19172,N,12303.95947,W,0.0,0.0,161018,,,A*73
$GNGSA,A,3,11,24,27,08,18,15,21,10,20,14,32,,1.1,0.6,0.9*21
$GNGSA,A,3,65,88,82,74,81,72,87,73,66,,,,1.1,0.6,0.9*2E
$PSIWMPVT,908.210,248639.000,3,49.1698620,-123.0659912,-1.144,-0.013,0.003,0.003,5.148,3.536,2.148,0.354,0.000,0.000,3.648,0.012,20,*33
$PSIWMPDR,906.150,49.1698613,-123.0659880,-0.691,15.882328987,-1010101.125000000,0,-2.403887987,0.614788055,-0.397483975,35.98,0.075314350,0.119044177,0.057266019,0.041594580,-1.815526009,152,*38
$GPGGA,210342.000,4910.19172,N,12303.95947,W,1,20,0.6,-01.14,M,-16.8,M,,*42
$GPRMC,210342.000,A,4910.19172,N,12303.95947,W,0.0,0.0,161018,,,A*70
$GNGSA,A,3,11,24,27,08,18,15,21,10,20,14,32,,1.1,0.6,0.9*21
$GNGSA,A,3,65,88,82,74,81,72,87,73,66,,,,1.1,0.6,0.9*2E
$PSIWMPVT,909.210,248640.000,3,49.1698620,-123.0659912,-1.144,-0.019,0.011,0.005,5.148,3.536,2.043,0.354,0.000,0.000,3.470,0.016,20,*34
$GPGGA,210343.000,4910.19172,N,12303.95947,W,1,20,0.6,-01.14,M,-16.8,M,,*43
$GPRMC,210343.000,A,4910.19172,N,12303.95947,W,0.0,0.0,161018,,,A*71
$GNGSA,A,3,11,24,27,08,18,15,21,10,20,14,32,,1.1,0.6,0.9*21
$GNGSA,A,3,65,88,82,74,81,72,87,73,66,,,,1.1,0.6,0.9*2E
$PSIWMPVT,910.200,248641.000,3,49.1698620,-123.0659912,-1.144,-0.005,0.003,-0.006,5.148,3.536,2.367,0.354,0.000,0.000,4.015,0.016,20,*19
$PSIWMPOS,001510.650,4910.19172,N,12303.95947,W,141.42,-1.14,M,100.00,0,8,0,2,0,*47
$PSIWMATT,001510.650,15.9,T,5.8,1.4,180.0,*4D
$PSIWMVEL,001510.650,15.9,T,0.0,K,-0.00,M,*4B
$PSIWMVSD,001510.650,0.00,0.00,0.00,2,0.00,0.00,0.00,2,*09
$GPGGA,210344.000,4910.19172,N,12303.95947,W,1,20,0.6,-01.14,M,-16.8,M,,*44
$GPRMC,210344.000,A,4910.19172,N,12303.95947,W,0.0,0.0,161018,,,A*76
$GNGSA,A,3,11,24,27,08,18,15,21,10,20,14,32,,1.1,0.6,0.9*21
$GNGSA,A,3,65,88,82,74,81,72,87,73,66,,,,1.1,0.6,0.9*2E
$PSIWMPVT,911.260,248641.999,3,49.1698620,-123.0659912,-1.144,-0.005,0.005,-0.010,5.196,3.536,1.957,0.354,0.000,0.000,3.323,0.020,20,*1B
$PSIWMPOS,001511.650,4910.19172,N,12303.95947,W,8.82,-1.14,M,6.24,0,8,0,2,0,*47
$PSIWMATT,001511.650,15.9,T,5.7,1.4,180.0,*43
$PSIWMVEL,001511.650,15.9,T,0.0,K,0.01,M,*66
$PSIWMVSD,001511.650,0.00,0.00,0.00,2,0.00,0.00,0.00,2,*08
$GPGGA,210345.000,4910.19172,N,12303.95947,W,1,20,0.6,-01.14,M,-16.8,M,,*45
$GPRMC,210345.000,A,4910.19172,N,12303.95947,W,0.0,0.0,161018,,,A*77
$GNGSA,A,3,11,24,27,08,18,15,21,10,20,14,32,,1.1,0.6,0.9*21
$GNGSA,A,3,65,88,82,74,81,72,87,73,66,,,,1.1,0.6,0.9*2E
$PSIWMPVT,912.240,248642.999,3,49.1698620,-123.0659912,-1.144,-0.003,0.011,-0.014,5.196,3.606,1.910,0.354,0.000,0.000,3.244,0.016,20,*18
$PSIWMPOS,001512.650,4910.19172,N,12303.95947,W,8.82,-1.17,M,6.24,2,5,0,2,0,*48
$PSIWMATT,001512.650,15.9,T,5.8,1.4,100.0,*47
$PSIWMVEL,001512.650,15.9,T,0.0,K,0.02,M,*66
$PSIWMVSD,001512.650,-2.34,0.65,-0.14,2,-0.00,-0.04,-10.00,2,*10
$GPGGA,210346.000,4910.19172,N,12303.95947,W,1,20,0.6,-01.14,M,-16.8,M,,*46
$GPRMC,210346.000,A,4910.19172,N,12303.95947,W,0.0,0.0,161018,,,A*74
$GNGSA,A,3,11,24,27,08,18,15,21,10,20,14,32,,1.1,0.6,0.9*21
$GNGSA,A,3,65,88,82,74,81,72,87,73,66,,,,1.1,0.6,0.9*2E
$PSIWMPVT,913.340,248643.999,3,49.1698620,-123.0659912,-1.144,0.001,0.004,-0.029,5.196,3.606,1.680,0.354,0.000,0.000,2.850,0.027,20,*36
$PSIWMPOS,001513.650,4910.19172,N,12303.95947,W,8.82,-1.14,M,6.24,2,5,0,2,0,*4A
$PSIWMATT,001513.650,15.9,T,5.7,1.4,100.0,*49
$PSIWMVEL,001513.650,15.9,T,0.0,K,0.09,M,*6C
$PSIWMVSD,001513.650,-2.42,0.65,-0.10,2,0.01,-0.00,-9.97,2,*0A
$GPGGA,210347.000,4910.19172,N,12303.95947,W,1,20,0.6,-01.14,M,-16.8,M,,*47
$GPRMC,210347.000,A,4910.19172,N,12303.95947,W,0.0,0.0,161018,,,A*75
$GNGSA,A,3,11,24,27,08,18,15,21,10,20,14,32,,1.1,0.6,0.9*21
$GNGSA,A,3,65,88,82,74,81,72,87,73,66,,,,1.1,0.6,0.9*2E
$PSIWMPVT,914.340,248644.999,3,49.1698620,-123.0659912,-1.144,-0.009,0.008,-0.032,5.196,3.606,1.980,0.354,0.000,0.000,3.360,0.023,20,*17
$PSIWMPOS,001514.650,4910.19172,N,12303.95947,W,6.12,-1.19,M,4.33,2,5,0,2,0,*43
$PSIWMATT,001514.650,15.9,T,5.8,1.4,100.0,*41
$PSIWMVEL,001514.650,15.9,T,0.0,K,0.12,M,*61
$PSIWMVSD,001514.650,-2.35,0.48,-0.10,2,0.02,-0.00,-9.93,2,*05
$GPGGA,210348.000,4910.19172,N,12303.95947,W,1,20,0.6,-01.14,M,-16.8,M,,*48
$GPRMC,210348.000,A,4910.19172,N,12303.95947,W,0.0,0.0,161018,,,A*7A
$GNGSA,A,3,11,24,27,08,18,15,21,10,20,14,32,,1.1,0.6,0.9*21
$GNGSA,A,3,65,88,82,74,81,72,87,73,66,,,,1.1,0.6,0.9*2E
$PSIWMPVT,915.390,248645.999,3,49.1698620,-123.0659912,-1.144,-0.015,0.014,-0.025,5.196,3.606,2.078,0.354,0.000,0.000,3.533,0.035,20,*16
$PSIWMPOS,001515.650,4910.19172,N,12303.95947,W,6.12,-1.17,M,4.33,2,5,0,2,0,*4C
$PSIWMATT,001515.650,15.9,T,5.9,1.4,100.0,*41
$PSIWMVEL,001515.650,15.9,T,0.0,K,0.10,M,*62
$PSIWMVSD,001515.650,-2.46,0.60,-0.15,2,-0.02,0.01,-9.99,2,*04
$GPGGA,210349.000,4910.19172,N,12303.95947,W,1,20,0.6,-01.14,M,-16.8,M,,*49
$GPRMC,210349.000,A,4910.19172,N,12303.95947,W,0.1,0.0,161018,,,A*7A
$GNGSA,A,3,11,24,27,08,18,15,21,10,20,14,32,,1.1,0.6,0.9*21
$GNGSA,A,3,65,88,82,74,81,72,87,73,66,,,,1.1,0.6,0.9*2E
$PSIWMPVT,916.390,248646.999,3,49.1698620,-123.0659912,-1.144,-0.022,0.020,-0.018,5.244,3.606,2.426,0.354,0.000,0.000,4.129,0.074,20,*15
$PSIWMPOS,001516.650,4910.19172,N,12303.95947,W,6.12,-1.22,M,4.33,2,5,0,2,0,*49
$PSIWMATT,001516.650,15.9,T,5.8,1.4,99.9,*7B
$PSIWMVEL,001516.650,15.9,T,0.0,K,0.08,M,*68
$PSIWMVSD,001516.650,-2.43,0.60,-0.13,2,-0.01,-0.01,-9.98,2,*2B
$GPGGA,210350.000,4910.19172,N,12303.95947,W,1,20,0.6,-01.14,M,-16.8,M,,*41
$GPRMC,210350.000,A,4910.19172,N,12303.95947,W,0.0,0.0,161018,,,A*73
$GNGSA,A,3,11,24,27,08,18,15,21,10,20,14,32,,1.1,0.6,0.9*21
$GNGSA,A,3,65,88,82,74,81,72,87,73,66,,,,1.1,0.6,0.9*2E
$PSIWMPVT,917.370,248647.999,3,49.1698620,-123.0659912,-1.144,-0.010,0.009,-0.019,5.244,3.674,2.055,0.354,0.000,0.000,3.536,0.086,20,*15
$PSIWMPOS,001517.650,4910.19172,N,12303.95947,W,6.24,-1.59,M,4.41,2,5,0,2,0,*44
$PSIWMATT,001517.650,15.9,T,5.7,1.4,99.9,*75
$PSIWMVEL,001517.650,15.9,T,0.0,K,0.07,M,*66
$PSIWMVSD,001517.650,-2.41,0.64,-0.15,2,-0.02,0.02,-10.00,2,*3E
$GPGGA,210351.000,4910.19172,N,12303.95947,W,1,20,0.6,-01.14,M,-16.8,M,,*40
$GPRMC,210351.000,A,4910.19172,N,12303.95947,W,0.0,0.0,161018,,,A*72
$GNGSA,A,3,11,24,27,08,18,15,21,10,20,14,32,,1.1,0.6,0.9*21
$GNGSA,A,3,65,88,82,74,81,72,87,73,66,,,,1.1,0.6,0.9*2E
$PSIWMPVT,918.340,248648.999,3,49.1698620,-123.0659912,-1.144,0.000,0.005,-0.024,5.244,3.674,1.984,0.354,0.000,0.000,3.381,0.070,20,*3D
$PSIWMPOS,001518.650,4910.19172,N,12303.95947,W,6.24,-1.30,M,4.41,2,5,0,2,0,*44
$PSIWMATT,001518.650,15.9,T,5.8,1.4,99.9,*75
$PSIWMVEL,001518.650,15.9,T,0.0,K,0.06,M,*68
$PSIWMVSD,001518.650,-2.44,0.52,-0.22,2,0.03,0.03,-10.02,2,*1A
$GPGGA,210352.000,4910.19172,N,12303.95947,W,1,20,0.6,-01.14,M,-16.8,M,,*43
$GPRMC,210352.000,A,4910.19172,N,12303.95947,W,0.0,0.0,161018,,,A*71
$GNGSA,A,3,11,24,27,08,18,15,21,10,20,14,32,,1.1,0.6,0.9*21
$GNGSA,A,3,65,88,82,74,81,72,87,73,66,,,,1.1,0.6,0.9*2E
$PSIWMPVT,919.340,248649.999,3,49.1698620,-123.0659912,-1.144,-0.009,0.005,-0.010,5.244,3.674,1.980,0.354,0.000,0.000,3.384,0.020,20,*1A
$PSIWMPOS,001519.650,4910.19172,N,12303.95947,W,6.24,-1.35,M,4.41,2,5,0,2,0,*40
$PSIWMATT,001519.650,15.9,T,5.8,1.4,99.8,*75
$PSIWMVEL,001519.650,15.9,T,0.0,K,0.06,M,*69
$PSIWMVSD,001519.650,-2.33,0.60,-0.20,2,0.01,0.00,-9.97,2,*2D
$GPGGA,210353.000,4910.19172,N,12303.95947,W,1,20,0.6,-01.14,M,-16.8,M,,*42
$GPRMC,210353.000,A,4910.19172,N,12303.95947,W,0.0,0.0,161018,,,A*70
$GNGSA,A,3,11,24,27,08,18,15,21,10,20,14,32,,1.1,0.6,0.9*21
$GNGSA,A,3,65,88,82,74,81,72,87,73,66,,,,1.1,0.6,0.9*2E
$PSIWMPVT,920.340,248651.000,3,49.1698620,-123.0659912,-1.144,-0.011,0.019,-0.010,5.244,3.674,1.539,0.354,0.000,0.000,2.614,0.020,20,*17
$PSIWMPOS,001520.650,4910.19172,N,12303.95947,W,6.24,-1.11,M,4.41,2,5,0,2,0,*4C
$PSIWMATT,001520.650,15.9,T,5.8,1.4,99.8,*7F
$PSIWMVEL,001520.650,15.9,T,0.0,K,0.06,M,*63
$PSIWMVSD,001520.650,-2.49,0.72,-0.10,2,-0.00,-0.01,-10.00,2,*1C
$GPGGA,210354.000,4910.19172,N,12303.95947,W,1,20,0.6,-01.14,M,-16.8,M,,*45
$GPRMC,210354.000,A,4910.19172,N,12303.95947,W,0.0,0.0,161018,,,A*77
$GNGSA,A,3,11,24,27,08,18,15,21,10,20,14,32,,1.1,0.6,0.9*21
$GNGSA,A,3,65,88,82,74,81,72,87,73,66,,,,1.1,0.6,0.9*2E
$PSIWMPVT,921.340,248652.000,3,49.1698620,-123.0659912,-1.144,-0.006,-0.008,-0.014,5.292,3.674,1.980,0.354,0.000,0.000,3.396,0.031,20,*31
$PSIWMPOS,001521.650,4910.19172,N,12303.95947,W,1.82,-1.04,M,1.21,2,5,0,2,0,*41
$PSIWMATT,001521.650,15.9,T,5.8,1.4,99.7,*71
$PSIWMVEL,001521.650,15.9,T,0.0,K,0.05,M,*61
$PSIWMVSD,001521.650,-2.39,0.69,-0.11,2,0.03,-0.06,-10.00,2,*38
$GPGGA,210355.000,4910.19172,N,12303.95947,W,1,19,0.6,-01.14,M,-16.8,M,,*4E
$GPRMC,210355.000,A,4910.19172,N,12303.95947,W,0.0,0.0,161018,,,A*76
$GNGSA,A,3,11,24,27,08,18,15,21,10,20,14,32,,1.1,0.6,0.9*21
$GNGSA,A,3,65,88,82,81,72,87,73,66,,,,,1.1,0.6,0.9*2D
$PSIWMPVT,922.340,248652.999,3,49.1698620,-123.0659912,-1.144,0.003,-0.006,-0.032,5.292,3.742,2.098,0.354,0.000,0.000,3.469,0.016,19,*16
$PSIWMPOS,001522.650,4910.19172,N,12303.95948,W,1.82,-1.12,M,1.20,2,5,0,2,0,*4B
$PSIWMATT,001522.650,15.9,T,5.8,1.4,99.7,*72
$PSIWMVEL,001522.650,15.9,T,0.0,K,0.05,M,*62
$PSIWMVSD,001522.650,-2.42,0.73,-0.11,2,-0.02,-0.00,-9.99,2,*2E
$GPGGA,210356.000,4910.19172,N,12303.95947,W,1,20,0.6,-01.14,M,-16.8,M,,*47
$GPRMC,210356.000,A,4910.19172,N,12303.95947,W,0.0,0.0,161018,,,A*75
$GNGSA,A,3,11,24,27,08,18,15,21,10,20,14,32,,1.1,0.6,0.9*21
$GNGSA,A,3,65,88,82,74,81,72,87,73,66,,,,1.1,0.6,0.9*2E
$PSIWMPVT,923.340,248653.999,3,49.1698620,-123.0659912,-1.144,-0.023,0.008,-0.016,5.292,3.742,4.102,0.354,0.000,0.000,7.471,0.020,20,*1A
$PSIWMPOS,001523.650,4910.19172,N,12303.95948,W,1.82,-1.13,M,1.20,2,5,0,2,0,*4B
$PSIWMATT,001523.650,15.9,T,5.8,1.4,99.7,*73
$PSIWMVEL,001523.650,15.9,T,0.0,K,0.05,M,*63
$PSIWMVSD,001523.650,-2.38,0.64,-0.17,2,-0.02,0.03,-9.97,2,*02
$GPGGA,210357.000,4910.19172,N,12303.95947,W,1,20,0.6,-01.14,M,-16.8,M,,*46
$GPRMC,210357.000,A,4910.19172,N,12303.95947,W,0.0,0.0,161018,,,A*74
$GNGSA,A,3,11,24,27,08,18,15,21,10,20,14,32,,1.1,0.6,0.9*21
$GNGSA,A,3,65,88,82,74,81,72,87,73,66,,,,1.1,0.6,0.9*2E
$PSIWMPVT,924.340,248655.000,3,49.1698620,-123.0659912,-1.144,-0.007,-0.002,-0.022,5.292,3.742,3.602,0.354,0.000,0.000,7.004,0.012,20,*33
$PSIWMPOS,001524.650,4910.19172,N,12303.95948,W,1.82,-1.28,M,1.20,2,5,0,2,0,*44
$PSIWMATT,001524.650,15.9,T,5.8,1.4,99.7,*74
$PSIWMVEL,001524.650,15.9,T,0.0,K,0.04,M,*65
$PSIWMVSD,001524.650,-2.45,0.68,-0.10,2,0.00,0.01,-9.96,2,*28
$GPGGA,210358.000,4910.19172,N,12303.95947,W,1,20,0.6,-01.14,M,-16.8,M,,*49
$GPRMC,210358.000,A,4910.19172,N,12303.95947,W,0.0,0.0,161018,,,A*7B
$GNGSA,A,3,11,24,27,08,18,15,21,10,20,14,32,,1.1,0.6,0.9*21
$GNGSA,A,3,65,88,82,74,81,72,87,73,66,,,,1.1,0.6,0.9*2E
$PSIWMPVT,925.340,248656.000,3,49.1698620,-123.0659912,-1.144,-0.001,-0.001,-0.027,5.292,3.742,2.848,0.354,0.000,0.000,4.962,0.023,20,*38
$PSIWMPOS,001525.650,4910.19172,N,12303.95948,W,1.82,-1.12,M,1.20,2,5,0,2,0,*4C
$PSIWMATT,001525.650,15.9,T,5.8,1.4,99.7,*75
$PSIWMVEL,001525.650,15.9,T,0.0,K,0.04,M,*64
$PSIWMVSD,001525.650,-2.35,0.65,-0.11,2,0.00,0.02,-9.99,2,*2E
$GPGGA,210359.000,4910.19172,N,12303.95947,W,1,20,0.6,-01.14,M,-16.8,M,,*48
$GPRMC,210359.000,A,4910.19172,N,12303.95947,W,0.0,0.0,161018,,,A*7A
$GNGSA,A,3,11,24,27,08,18,15,21,10,20,14,32,,1.1,0.6,0.9*21
$GNGSA,A,3,65,88,82,74,81,72,87,73,66,,,,1.1,0.6,0.9*2E
$PSIWMPVT,926.340,248656.999,3,49.1698620,-123.0659912,-1.144,-0.013,-0.005,-0.023,5.339,3.742,2.332,0.354,0.000,0.000,3.975,0.020,20,*35
$PSIWMPOS,001526.650,4910.19172,N,12303.95947,W,1.82,-1.27,M,1.21,2,5,0,2,0,*47
$PSIWMATT,001526.650,15.9,T,5.8,1.4,99.6,*77
$PSIWMVEL,001526.650,15.9,T,0.0,K,0.04,M,*67
$PSIWMVSD,001526.650,-2.39,0.67,-0.16,2,0.02,0.00,-10.02,2,*1E
$GPGGA,210400.000,4910.19172,N,12303.95947,W,1,20,0.6,-01.14,M,-16.8,M,,*43
$GPRMC,210400.000,A,4910.19172,N,12303.95947,W,0.0,0.0,161018,,,A*71
$GNGSA,A,3,11,24,27,08,18,15,21,10,20,14,32,,1.1,0.6,0.9*21
$GNGSA,A,3,65,88,82,74,81,72,87,73,66,,,,1.1,0.6,0.9*2E
$PSIWMPVT,927.380,248657.999,3,49.1698620,-123.0659912,-1.144,-0.010,-0.001,-0.028,5.339,3.808,2.871,0.354,0.000,0.000,4.937,0.016,20,*3C
$PSIWMPOS,001527.650,4910.19172,N,12303.95947,W,1.80,-1.03,M,1.20,2,5,0,2,0,*43
$PSIWMATT,001527.650,15.9,T,5.8,1.4,99.6,*76
$PSIWMVEL,001527.650,15.9,T,0.0,K,0.04,M,*66
$PSIWMVSD,001527.650,-2.39,0.71,-0.11,2,-0.01,-0.01,-10.00,2,*1F
$GPGGA,210401.000,4910.19172,N,12303.95947,W,1,20,0.6,-01.14,M,-16.8,M,,*42
$GPRMC,210401.000,A,4910.19172,N,12303.95947,W,0.0,0.0,161018,,,A*70
$GNGSA,A,3,11,24,27,08,18,15,21,10,20,14,32,,1.1,0.6,0.9*21
$GNGSA,A,3,65,88,82,74,81,72,87,73,66,,,,1.1,0.6,0.9*2E
$PSIWMPVT,928.340,248659.000,3,49.1698620,-123.0659912,-1.144,-0.013,0.005,-0.021,5.339,3.808,2.668,0.354,0.000,0.000,4.613,0.020,20,*11
$PSIWMPOS,001528.650,4910.19172,N,12303.95948,W,1.82,-1.12,M,1.21,2,5,0,2,0,*40
$PSIWMATT,001528.650,15.9,T,5.8,1.4,99.6,*79
$PSIWMVEL,001528.650,15.9,T,0.0,K,0.04,M,*69
$PSIWMVSD,001528.650,-2.37,0.69,-0.13,2,-0.00,0.04,-10.01,2,*3D
$GPGGA,210402.000,4910.19172,N,12303.95947,W,1,20,0.6,-01.14,M,-16.8,M,,*41
$GPRMC,210402.000,A,4910.19172,N,12303.95947,W,0.0,0.0,161018,,,A*73
$GNGSA,A,3,11,24,27,08,18,15,21,10,20,14,32,,1.1,0.6,0.9*21
$GNGSA,A,3,65,88,82,74,81,72,87,73,66,,,,1.1,0.6,0.9*2E
$PSIWMPVT,929.340,248660.000,3,49.1698620,-123.0659912,-1.144,-0.013,0.015,-0.018,5.339,3.808,2.555,0.354,0.000,0.000,4.366,0.039,20,*13
$PSIWMPOS,001529.650,4910.19172,N,12303.95947,W,1.82,-0.81,M,1.21,2,5,0,2,0,*45
$PSIWMATT,001529.650,15.9,T,5.8,1.4,99.6,*78
$PSIWMVEL,001529.650,15.9,T,0.0,K,0.03,M,*6F
$PSIWMVSD,001529.650,-2.42,0.67,-0.15,2,-0.00,-0.00,-10.01,2,*1F
$GPGGA,210403.000,4910.19172,N,12303.95947,W,1,20,0.6,-01.14,M,-16.8,M,,*40
$GPRMC,210403.000,A,4910.19172,N,12303.95947,W,0.0,0.0,161018,,,A*72
$GNGSA,A,3,11,24,27,08,18,15,21,10,20,14,32,,1.1,0.6,0.9*21
$GNGSA,A,3,65,88,82,74,81,72,87,73,66,,,,1.1,0.6,0.9*2E
$PSIWMPVT,930.340,248661.000,3,49.1698620,-123.0659912,-1.144,-0.014,-0.003,-0.024,5.339,3.808,2.055,0.354,0.000,0.000,3.526,0.027,20,*37
$PSIWMPOS,001530.650,4910.19172,N,12303.95947,W,1.82,-1.06,M,1.21,2,5,0,2,0,*43
$PSIWMATT,001530.650,15.8,T,5.8,1.4,99.5,*72
$PSIWMVEL,001530.650,15.8,T,0.0,K,0.03,M,*66
$PSIWMVSD,001530.650,-2.40,0.74,-0.13,2,0.01,0.01,-9.96,2,*27
$GPGGA,210404.000,4910.19172,N,12303.95947,W,1,20,0.6,-01.14,M,-16.8,M,,*47
$GPRMC,210404.000,A,4910.19172,N,12303.95947,W,0.0,0.0,161018,,,A*75
$GNGSA,A,3,11,24,27,08,18,15,21,10,20,14,32,,1.1,0.6,0.9*21
$GNGSA,A,3,65,88,82,74,81,72,87,73,66,,,,1.1,0.6,0.9*2E
$PSIWMPVT,931.340,248661.999,3,49.1698620,-123.0659912,-1.144,-0.010,0.005,-0.019,5.385,3.808,1.941,0.354,0.000,0.000,3.305,0.047,20,*17
$PSIWMPOS,001531.650,4910.19172,N,12303.95948,W,1.83,-0.91,M,1.21,2,5,0,2,0,*43
$PSIWMATT,001531.650,15.8,T,5.7,1.4,99.5,*7C
$PSIWMVEL,001531.650,15.8,T,0.0,K,0.03,M,*67
$PSIWMVSD,001531.650,-2.40,0.70,-0.12,2,-0.02,0.02,-10.01,2,*38
$GPGGA,210405.000,4910.19172,N,12303.95947,W,1,20,0.6,-01.14,M,-16.8,M,,*46
$GPRMC,210405.000,A,4910.19172,N,12303.95947,W,0.1,0.0,161018,,,A*75
$GNGSA,A,3,11,24,27,08,18,15,21,10,20,14,32,,1.1,0.6,0.9*21
$GNGSA,A,3,65,88,82,74,81,72,87,73,66,,,,1.1,0.6,0.9*2E
$PSIWMPVT,932.380,248663.000,3,49.1698620,-123.0659912,-1.144,-0.026,0.013,-0.006,5.385,3.873,2.422,0.354,0.000,0.000,4.127,0.020,20,*1C
$PSIWMPOS,001532.650,4910.19172,N,12303.95948,W,1.80,-0.69,M,1.20,2,5,0,2,0,*45
$PSIWMATT,001532.650,15.8,T,5.7,1.5,99.5,*7E
$PSIWMVEL,001532.650,15.8,T,0.0,K,0.03,M,*64
$PSIWMVSD,001532.650,-2.42,0.69,-0.10,2,-0.01,0.00,-9.97,2,*05
$GPGGA,210406.000,4910.19172,N,12303.95947,W,1,20,0.6,-01.14,M,-16.8,M,,*45
$GPRMC,210406.000,A,4910.19172,N,12303.95947,W,0.0,0.0,161018,,,A*77
$GNGSA,A,3,11,24,27,08,18,15,21,10,20,14,32,,1.1,0.6,0.9*21
$GNGSA,A,3,65,88,82,74,81,72,87,73,66,,,,1.1,0.6,0.9*2E
$PSIWMPVT,933.340,248664.000,3,49.1698620,-123.0659912,-1.144,-0.014,-0.004,0.001,5.385,3.873,2.555,0.354,0.000,0.000,4.363,0.035,20,*11
$PSIWMPOS,001533.650,4910.19172,N,12303.95947,W,1.82,-1.02,M,1.21,2,5,0,2,0,*44
$PSIWMATT,001533.650,15.8,T,5.7,1.5,99.5,*7F
$PSIWMVEL,001533.650,15.8,T,0.0,K,0.03,M,*65
$PSIWMVSD,001533.650,-2.49,0.58,-0.11,2,-0.02,-0.00,-10.02,2,*16
$GPGGA,210407.000,4910.19172,N,12303.95947,W,1,20,0.6,-01.14,M,-16.8,M,,*44
$GPRMC,210407.000,A,4910.19172,N,12303.95947,W,0.0,0.0,161018,,,A*76
$GNGSA,A,3,11,24,27,08,18,15,21,10,20,14,32,,1.1,0.6,0.9*21
$GNGSA,A,3,65,88,82,74,81,72,87,73,66,,,,1.1,0.6,0.9*2E
$PSIWMPVT,934.340,248665.000,3,49.1698620,-123.0659912,-1.144,-0.016,-0.005,0.005,5.385,3.873,2.617,0.354,0.000,0.000,4.446,0.039,20,*19
$PSIWMPOS,001534.650,4910.19172,N,12303.95947,W,1.82,-0.55,M,1.21,2,5,0,2,0,*40
$PSIWMATT,001534.650,15.8,T,5.7,1.5,99.5,*78
$PSIWMVEL,001534.650,15.8,T,0.0,K,0.02,M,*63
$PSIWMVSD,001534.650,-2.41,0.72,-0.16,2,-0.00,0.02,-9.97,2,*0F
$GPGGA,210408.000,4910.19172,N,12303.95947,W,1,20,0.6,-01.14,M,-16.8,M,,*4B
$GPRMC,210408.000,A,4910.19172,N,12303.95947,W,0.0,0.0,161018,,,A*79
$GNGSA,A,3,11,24,27,08,18,15,21,10,20,14,32,,1.1,0.6,0.9*21
$GNGSA,A,3,65,88,82,74,81,72,87,73,66,,,,1.1,0.6,0.9*2E
$PSIWMPVT,935.340,248665.999,3,49.1698620,-123.0659912,-1.144,-0.002,-0.005,0.000,5.385,3.873,3.184,0.354,0.000,0.000,5.420,0.043,20,*11
$PSIWMPOS,001535.650,4910.19172,N,12303.95947,W,1.82,-1.21,M,1.21,2,5,0,2,0,*43
$PSIWMATT,001535.650,15.8,T,5.7,1.5,99.4,*78
$PSIWMVEL,001535.650,15.8,T,0.0,K,0.03,M,*63
$PSIWMVSD,001535.650,-2.53,0.74,-0.10,2,-0.00,-0.01,-9.98,2,*2C
$GPGGA,210409.000,4910.19172,N,12303.95947,W,1,20,0.6,-01.14,M,-16.8,M,,*4A
$GPRMC,210409.000,A,4910.19172,N,12303.95947,W,0.0,0.0,161018,,,A*78
$GNGSA,A,3,11,24,27,08,18,15,21,10,20,14,32,,1.1,0.6,0.9*21
$GNGSA,A,3,65,88,82,74,81,72,87,73,66,,,,1.1,0.6,0.9*2E
$PSIWMPVT,936.370,248667.000,3,49.1698620,-123.0659912,-1.144,-0.000,-0.007,-0.003,5.431,3.873,3.973,0.354,0.000,0.000,6.797,0.059,20,*3B
$PSIWMPOS,001536.650,4910.19172,N,12303.95947,W,1.80,-0.97,M,1.20,2,5,0,2,0,*4F
$PSIWMATT,001536.650,15.8,T,5.9,1.4,99.4,*74
$PSIWMVEL,001536.650,15.8,T,0.0,K,0.03,M,*60
$PSIWMVSD,001536.650,-2.40,0.74,-0.09,2,0.01,0.01,-10.01,2,*1C
$GPGGA,210410.000,4910.19172,N,12303.95947,W,1,20,0.6,-01.14,M,-16.8,M,,*42
$GPRMC,210410.000,A,4910.19172,N,12303.95947,W,0.0,0.0,161018,,,A*70
$GNGSA,A,3,11,24,27,08,18,15,21,10,20,14,32,,1.1,0.6,0.9*21
$GNGSA,A,3,65,88,82,74,81,72,87,73,66,,,,1.1,0.6,0.9*2E
$PSIWMPVT,937.380,248668.000,3,49.1698620,-123.0659912,-1.144,-0.007,-0.001,-0.004,5.431,3.937,4.227,0.354,0.000,0.000,7.249,0.043,20,*3C
$PSIWMPOS,001537.650,4910.19172,N,12303.95947,W,1.80,-0.98,M,1.20,2,5,0,2,0,*41
$PSIWMATT,001537.650,15.8,T,5.8,1.4,99.2,*72
$PSIWMVEL,001537.650,15.8,T,0.0,K,0.04,M,*66
$PSIWMVSD,001537.650,-2.36,0.27,-0.16,2,0.03,-0.02,-9.89,2,*00
$GPGGA,210411.000,4910.19172,N,12303.95947,W,1,20,0.6,-01.14,M,-16.8,M,,*43
$GPRMC,210411.000,A,4910.19172,N,12303.95947,W,0.0,0.0,161018,,,A*71
$GNGSA,A,3,11,24,27,08,18,15,21,10,20,14,32,,1.1,0.6,0.9*21
$GNGSA,A,3,65,88,82,74,81,72,87,73,66,,,,1.1,0.6,0.9*2E
$PSIWMPVT,938.340,248669.000,3,49.1698620,-123.0659912,-1.144,-0.002,-0.007,-0.017,5.431,3.937,4.402,0.354,0.000,0.000,7.567,0.031,20,*30
$PSIWMPOS,001538.650,4910.19172,N,12303.95947,W,1.83,-0.90,M,1.21,2,5,0,2,0,*44
$PSIWMATT,001538.650,15.8,T,5.8,1.4,99.2,*7D
$PSIWMVEL,001538.650,15.8,T,0.0,K,0.03,M,*6E
$PSIWMVSD,001538.650,-2.37,0.68,-0.16,2,0.02,0.00,-10.02,2,*10
$GPGGA,210412.000,4910.19172,N,12303.95947,W,1,20,0.6,-01.14,M,-16.8,M,,*40
$GPRMC,210412.000,A,4910.19172,N,12303.95947,W,0.0,0.0,161018,,,A*72
$GNGSA,A,3,11,24,27,08,18,15,21,10,20,14,32,,1.1,0.6,0.9*21
$GNGSA,A,3,65,88,82,74,81,72,87,73,66,,,,1.1,0.6,0.9*2E
$PSIWMPVT,939.340,248670.000,3,49.1698620,-123.0659912,-1.144,-0.002,-0.007,-0.025,5.431,3.937,4.293,0.354,0.000,0.000,7.491,0.020,20,*3E
$PSIWMPOS,001539.650,4910.19172,N,12303.95947,W,1.83,-0.99,M,1.21,2,5,0,2,0,*4C
$PSIWMATT,001539.650,15.7,T,5.8,1.4,99.2,*73
$PSIWMVEL,001539.650,15.7,T,0.0,K,0.03,M,*60
$PSIWMVSD,001539.650,-2.32,0.70,-0.11,2,-0.03,0.02,-9.94,2,*03
$GPGGA,210413.000,4910.19172,N,12303.95947,W,1,20,0.6,-01.14,M,-16.8,M,,*41
$GPRMC,210413.000,A,4910.19172,N,12303.95947,W,0.0,0.0,161018,,,A*73
$GNGSA,A,3,11,24,27,08,18,15,21,10,20,14,32,,1.1,0.6,0.9*21
$GNGSA,A,3,65,88,82,74,81,72,87,73,66,,,,1.1,0.6,0.9*2E
$PSIWMPVT,940.340,248671.000,3,49.1698620,-123.0659912,-1.144,0.002,-0.011,-0.033,5.431,3.937,3.578,0.354,0.000,0.000,6.164,0.035,20,*13
$PSIWMPOS,001540.650,4910.19172,N,12303.95947,W,2.34,-1.32,M,1.40,2,5,0,2,0,*4A
$PSIWMATT,001540.650,15.7,T,5.8,1.4,99.2,*7D
$PSIWMVEL,001540.650,15.7,T,0.0,K,0.03,M,*6E
$PSIWMVSD,001540.650,-2.39,0.62,-0.18,2,0.00,-0.01,-9.99,2,*01
$GPGGA,210414.000,4910.19177,N,12303.95944,W,1,20,0.6,-01.25,M,-16.8,M,,*42
$GPRMC,210414.000,A,4910.19177,N,12303.95944,W,0.0,0.0,161018,,,A*72
$GNGSA,A,3,11,24,27,08,18,15,21,10,20,14,32,,1.1,0.6,0.9*21
$GNGSA,A,3,65,88,82,74,81,72,87,73,66,,,,1.1,0.6,0.9*2E
$PSIWMPVT,941.380,248672.000,3,49.1698628,-123.0659906,-1.248,0.002,-0.006,-0.033,5.148,3.464,3.719,0.354,0.000,0.000,6.347,0.051,20,*1D
$PSIWMPOS,001541.650,4910.19174,N,12303.95946,W,2.96,-0.58,M,1.56,2,5,0,2,0,*4E
$PSIWMATT,001541.650,15.8,T,5.8,1.4,99.1,*70
$PSIWMVEL,001541.650,15.8,T,0.1,K,0.03,M,*61
$PSIWMVSD,001541.650,-2.34,0.67,-0.10,2,0.01,-0.02,-10.00,2,*3A
$GPGGA,210415.000,4910.19177,N,12303.95944,W,1,19,0.6,-01.25,M,-16.8,M,,*49
$GPRMC,210415.000,A,4910.19177,N,12303.95944,W,0.0,0.0,161018,,,A*73
$GNGSA,A,3,11,24,27,08,18,15,21,10,20,14,32,,1.1,0.6,0.9*21
$GNGSA,A,3,65,88,82,81,72,87,73,66,,,,,1.1,0.6,0.9*2D
$PSIWMPVT,942.370,248673.000,3,49.1698628,-123.0659906,-1.248,0.006,-0.005,-0.025,5.148,3.464,4.246,0.354,0.000,0.000,7.218,0.066,19,*1C
$PSIWMPOS,001542.650,4910.19177,N,12303.95944,W,2.72,-0.75,M,1.56,2,5,0,2,0,*49
$PSIWMATT,001542.650,15.9,T,5.8,1.4,98.9,*7B
$PSIWMVEL,001542.650,15.9,T,0.2,K,0.02,M,*61
$PSIWMVSD,001542.650,-2.39,0.61,-0.15,2,0.03,0.01,-9.99,2,*23
$GPGGA,210416.000,4910.19177,N,12303.95944,W,1,20,0.6,-01.25,M,-16.8,M,,*40
$GPRMC,210416.000,A,4910.19177,N,12303.95944,W,0.0,0.0,161018,,,A*70
$GNGSA,A,3,11,24,27,08,18,15,21,10,20,14,32,,1.1,0.6,0.9*21
$GNGSA,A,3,65,88,82,74,81,72,87,73,66,,,,1.1,0.6,0.9*2E
$PSIWMPVT,943.340,248674.000,3,49.1698628,-123.0659906,-1.248,-0.004,0.001,-0.015,5.148,3.464,3.820,0.354,0.000,0.000,6.480,0.043,20,*1A
$PSIWMPOS,001543.650,4910.19178,N,12303.95944,W,2.69,-0.83,M,1.56,2,5,0,2,0,*44
$PSIWMATT,001543.650,16.0,T,5.8,1.4,98.2,*7B
$PSIWMVEL,001543.650,16.0,T,0.2,K,0.02,M,*6A
$PSIWMVSD,001543.650,-2.39,0.74,-0.14,2,-0.09,0.13,-10.01,2,*3A
$GPGGA,210417.000,4910.19177,N,12303.95944,W,1,20,0.6,-01.25,M,-16.8,M,,*41
$GPRMC,210417.000,A,4910.19177,N,12303.95944,W,0.0,0.0,161018,,,A*71
$GNGSA,A,3,11,24,27,08,18,15,21,10,20,14,32,,1.1,0.6,0.9*21
$GNGSA,A,3,65,88,82,74,81,72,87,73,66,,,,1.1,0.6,0.9*2E
$PSIWMPVT,944.340,248674.999,3,49.1698628,-123.0659906,-1.248,-0.001,-0.010,-0.019,5.148,3.464,3.949,0.354,0.000,0.000,6.706,0.023,20,*35
$PSIWMPOS,001544.650,4910.19179,N,12303.95943,W,2.70,-0.50,M,1.56,2,5,0,2,0,*43
$PSIWMATT,001544.650,16.0,T,5.8,1.4,97.3,*72
$PSIWMVEL,001544.650,16.0,T,0.1,K,0.02,M,*6E
$PSIWMVSD,001544.650,-2.52,0.74,-0.14,2,0.01,-0.02,-10.02,2,*3B
$GPGGA,210418.000,4910.19177,N,12303.95944,W,1,19,0.6,-01.25,M,-16.8,M,,*44
$GPRMC,210418.000,A,4910.19177,N,12303.95944,W,0.0,0.0,161018,,,A*7E
$GNGSA,A,3,11,24,27,08,18,15,21,10,20,14,32,,1.1,0.6,0.9*21
$GNGSA,A,3,65,88,82,81,72,87,73,66,,,,,1.1,0.6,0.9*2D
$PSIWMPVT,945.340,248675.999,3,49.1698628,-123.0659906,-1.248,0.004,-0.006,-0.017,5.196,3.536,4.129,0.354,0.000,0.000,7.033,0.027,19,*16
$PSIWMPOS,001545.650,4910.19178,N,12303.95943,W,2.71,-0.91,M,1.56,2,5,0,2,0,*4F
$PSIWMATT,001545.650,16.0,T,5.8,1.4,96.3,*72
$PSIWMVEL,001545.650,16.0,T,0.1,K,0.02,M,*6F
$PSIWMVSD,001545.650,-2.66,0.08,0.02,2,-0.04,-0.05,-10.02,2,*33
$GPGGA,210419.000,4910.19177,N,12303.95944,W,1,20,0.6,-01.25,M,-16.8,M,,*4F
$GPRMC,210419.000,A,4910.19177,N,12303.95944,W,0.0,0.0,161018,,,A*7F
$GNGSA,A,3,11,24,27,08,18,15,21,10,20,14,32,,1.1,0.6,0.9*21
$GNGSA,A,3,65,88,82,74,81,72,87,73,66,,,,1.1,0.6,0.9*2E
$PSIWMPVT,946.340,248676.999,3,49.1698628,-123.0659906,-1.248,0.002,-0.009,-0.020,5.196,3.536,3.926,0.354,0.000,0.000,6.679,0.020,20,*1F
$PSIWMPOS,001546.650,4910.19178,N,12303.95944,W,2.71,-0.50,M,1.56,2,5,0,2,0,*46
$PSIWMATT,001546.650,15.9,T,5.8,1.4,95.7,*7C
$PSIWMVEL,001546.650,15.9,T,0.0,K,0.02,M,*67
$PSIWMVSD,001546.650,-2.46,0.57,-0.05,2,-0.03,-0.02,-10.00,2,*10
$GPGGA,210420.000,4910.19177,N,12303.95944,W,1,20,0.6,-01.25,M,-16.8,M,,*45
$GPRMC,210420.000,A,4910.19177,N,12303.95944,W,0.0,0.0,161018,,,A*75
$GNGSA,A,3,11,24,27,08,18,15,21,10,20,14,32,,1.1,0.6,0.9*21
$GNGSA,A,3,65,88,82,74,81,72,87,73,66,,,,1.1,0.6,0.9*2E
$PSIWMPVT,947.380,248678.000,3,49.1698628,-123.0659906,-1.248,-0.005,-0.001,-0.012,5.196,3.536,3.961,0.354,0.000,0.000,6.742,0.066,20,*3E
$PSIWMPOS,001547.650,4910.19177,N,12303.95944,W,2.68,-0.50,M,1.56,2,5,0,2,0,*40
$PSIWMATT,001547.650,15.9,T,5.9,1.4,95.5,*7E
$PSIWMVEL,001547.650,15.9,T,0.0,K,0.03,M,*67
$PSIWMVSD,001547.650,-2.32,0.69,-0.08,2,0.03,0.02,-10.00,2,*12
$GPGGA,210421.000,4910.19177,N,12303.95944,W,1,20,0.6,-01.25,M,-16.8,M,,*44
$GPRMC,210421.000,A,4910.19177,N,12303.95944,W,0.0,0.0,161018,,,A*74
$GNGSA,A,3,11,24,27,08,18,15,21,10,20,14,32,,1.1,0.6,0.9*21
$GNGSA,A,3,65,88,82,74,81,72,87,73,66,,,,1.1,0.6,0.9*2E
$PSIWMPVT,948.340,248678.999,3,49.1698628,-123.0659906,-1.248,0.015,-0.010,-0.022,5.196,3.536,3.734,0.354,0.000,0.000,6.338,0.023,20,*1D
$PSIWMPOS,001548.650,4910.19177,N,12303.95944,W,2.70,-0.67,M,1.56,2,5,0,2,0,*42
$PSIWMATT,001548.650,15.9,T,5.8,1.4,95.4,*71
$PSIWMVEL,001548.650,15.9,T,0.0,K,0.02,M,*69
$PSIWMVSD,001548.650,-2.33,0.60,-0.14,2,0.03,0.01,-9.99,2,*23
$GPGGA,210422.000,4910.19177,N,12303.95944,W,1,20,0.6,-01.25,M,-16.8,M,,*47
$GPRMC,210422.000,A,4910.19177,N,12303.95944,W,0.0,0.0,161018,,,A*77
$GNGSA,A,3,11,24,27,08,18,15,21,10,20,14,32,,1.1,0.6,0.9*21
$GNGSA,A,3,65,88,82,74,81,72,87,73,66,,,,1.1,0.6,0.9*2E
$PSIWMPVT,949.340,248679.999,3,49.1698628,-123.0659906,-1.248,-0.002,-0.014,-0.022,5.196,3.536,3.594,0.354,0.000,0.000,6.101,0.012,20,*30
$PSIWMPOS,001549.650,4910.19177,N,12303.95944,W,2.70,-0.75,M,1.56,2,5,0,2,0,*40
$PSIWMATT,001549.650,15.9,T,5.8,1.4,95.4,*70
$PSIWMVEL,001549.650,15.9,T,0.0,K,0.01,M,*6B
$PSIWMVSD,001549.650,-2.44,0.69,-0.08,2,-0.01,-0.02,-9.98,2,*26
$GPGGA,210423.000,4910.19177,N,12303.95944,W,1,20,0.6,-01.25,M,-16.8,M,,*46
$GPRMC,210423.000,A,4910.19177,N,12303.95944,W,0.0,0.0,161018,,,A*76
$GNGSA,A,3,11,24,27,08,18,15,21,10,20,14,32,,1.1,0.6,0.9*21
$GNGSA,A,3,65,88,82,74,81,72,87,73,66,,,,1.1,0.6,0.9*2E
$PSIWMPVT,950.340,248680.999,3,49.1698628,-123.0659906,-1.248,0.015,-0.020,-0.036,5.244,3.606,3.211,0.354,0.000,0.000,5.455,0.023,20,*14
$PSIWMPOS,001550.650,4910.19177,N,12303.95944,W,2.71,-0.84,M,1.57,2,5,0,2,0,*46
$PSIWMATT,001550.650,15.9,T,5.8,1.4,95.3,*7F
$PSIWMVEL,001550.650,15.9,T,0.0,K,0.02,M,*60
$PSIWMVSD,001550.650,-2.43,0.72,-0.11,2,-0.01,0.02,-10.04,2,*3B
$GPGGA,210424.000,4910.19177,N,12303.95944,W,1,20,0.6,-01.25,M,-16.8,M,,*41
$GPRMC,210424.000,A,4910.19177,N,12303.95944,W,0.0,0.0,161018,,,A*71
$GNGSA,A,3,11,24,27,08,18,15,21,10,20,14,32,,1.1,0.6,0.9*21
$GNGSA,A,3,65,88,82,74,81,72,87,73,66,,,,1.1,0.6,0.9*2E
$PSIWMPVT,951.370,248682.000,3,49.1698628,-123.0659906,-1.248,-0.001,0.003,-0.032,5.244,3.606,2.547,0.354,0.000,0.000,4.322,0.023,20,*1E
$PSIWMPOS,001551.650,4910.19177,N,12303.95944,W,2.69,-0.67,M,1.56,2,5,0,2,0,*42
$PSIWMATT,001551.650,15.9,T,5.8,1.4,95.3,*7E
$PSIWMVEL,001551.650,15.9,T,0.0,K,0.03,M,*60
$PSIWMVSD,001551.650,-2.34,0.64,-0.11,2,0.05,0.03,-9.99,2,*29
$GPGGA,210425.000,4910.19177,N,12303.95944,W,1,20,0.6,-01.25,M,-16.8,M,,*40
$GPRMC,210425.000,A,4910.19177,N,12303.95944,W,0.0,0.0,161018,,,A*70
$GNGSA,A,3,11,24,27,08,18,15,21,10,20,14,32,,1.1,0.6,0.9*21
$GNGSA,A,3,65,88,82,74,81,72,87,73,66,,,,1.1,0.6,0.9*2E
$PSIWMPVT,952.380,248682.999,3,49.1698628,-123.0659906,-1.248,-0.006,-0.001,-0.024,5.244,3.606,2.824,0.354,0.000,0.000,4.799,0.039,20,*33
$PSIWMPOS,001552.650,4910.19177,N,12303.95944,W,2.68,-0.67,M,1.56,2,5,0,2,0,*40
$PSIWMATT,001552.650,16.0,T,5.8,1.4,95.3,*77
$PSIWMVEL,001552.650,16.0,T,0.1,K,0.03,M,*68
$PSIWMVSD,001552.650,-2.31,0.76,-0.10,2,0.00,-0.04,-9.98,2,*03
$GPGGA,210426.000,4910.19177,N,12303.95944,W,1,20,0.6,-01.25,M,-16.8,M,,*43
$GPRMC,210426.000,A,4910.19177,N,12303.95944,W,0.0,0.0,161018,,,A*73
$GNGSA,A,3,11,24,27,08,18,15,21,10,20,14,32,,1.1,0.6,0.9*21
$GNGSA,A,3,65,88,82,74,81,72,87,73,66,,,,1.1,0.6,0.9*2E
$PSIWMPVT,953.340,248683.999,3,49.1698628,-123.0659906,-1.248,0.011,-0.016,-0.031,5.244,3.606,2.707,0.354,0.000,0.000,4.596,0.035,20,*19
$PSIWMPOS,001553.650,4910.19177,N,12303.95943,W,2.70,-0.92,M,1.56,2,5,0,2,0,*45
$PSIWMATT,001553.650,16.0,T,5.8,1.4,95.2,*77
$PSIWMVEL,001553.650,16.0,T,0.1,K,0.02,M,*68
$PSIWMVSD,001553.650,-2.37,0.68,-0.07,2,-0.01,0.02,-10.00,2,*33
$GPGGA,210427.000,4910.19177,N,12303.95944,W,1,20,0.6,-01.25,M,-16.8,M,,*42
$GPRMC,210427.000,A,4910.19177,N,12303.95944,W,0.0,0.0,161018,,,A*72
$GNGSA,A,3,11,24,27,08,18,15,21,10,20,14,32,,1.1,0.6,0.9*21
$GNGSA,A,3,65,88,82,74,81,72,87,73,66,,,,1.1,0.6,0.9*2E
$PSIWMPVT,954.340,248684.999,3,49.1698628,-123.0659906,-1.248,0.000,-0.005,-0.023,5.244,3.606,2.621,0.354,0.000,0.000,4.463,0.090,20,*19
$PSIWMPOS,001554.650,4910.19177,N,12303.95944,W,2.71,-0.76,M,1.57,2,5,0,2,0,*4F
$PSIWMATT,001554.650,16.0,T,5.8,1.4,95.2,*70
$PSIWMVEL,001554.650,16.0,T,0.0,K,0.02,M,*6E
$PSIWMVSD,001554.650,-2.49,0.73,-0.07,2,0.01,0.04,-9.94,2,*29
$GPGGA,210428.000,4910.19177,N,12303.95944,W,1,20,0.6,-01.25,M,-16.8,M,,*4D
$GPRMC,210428.000,A,4910.19177,N,12303.95944,W,0.0,0.0,161018,,,A*7D
$GNGSA,A,3,11,24,27,08,18,15,21,10,20,14,32,,1.1,0.6,0.9*21
$GNGSA,A,3,65,88,82,74,81,72,87,73,66,,,,1.1,0.6,0.9*2E
$PSIWMPVT,955.370,248686.000,3,49.1698628,-123.0659906,-1.248,-0.004,-0.005,-0.023,5.292,3.674,2.297,0.354,0.000,0.000,3.914,0.020,20,*3F
$PSIWMPOS,001555.650,4910.19177,N,12303.95944,W,2.69,-0.92,M,1.56,2,5,0,2,0,*4C
$PSIWMATT,001555.650,16.0,T,5.8,1.4,95.1,*72
$PSIWMVEL,001555.650,16.0,T,0.0,K,0.02,M,*6F
$PSIWMVSD,001555.650,-2.40,0.69,-0.13,2,-0.04,-0.01,-9.99,2,*22
$GPGGA,210429.000,4910.19177,N,12303.95944,W,1,20,0.6,-01.25,M,-16.8,M,,*4C
$GPRMC,210429.000,A,4910.19177,N,12303.95944,W,0.0,0.0,161018,,,A*7C
$GNGSA,A,3,11,24,27,08,18,15,21,10,20,14,32,,1.1,0.6,0.9*21
$GNGSA,A,3,65,88,82,74,81,72,87,73,66,,,,1.1,0.6,0.9*2E
$PSIWMPVT,956.340,248687.000,3,49.1698628,-123.0659906,-1.248,0.003,0.006,-0.023,5.292,3.674,2.051,0.354,0.000,0.000,3.655,0.020,20,*38
$PSIWMPOS,001556.650,4910.19177,N,12303.95944,W,2.71,-0.68,M,1.57,2,5,0,2,0,*42
$PSIWMATT,001556.650,16.0,T,5.8,1.4,95.1,*71
$PSIWMVEL,001556.650,16.0,T,0.0,K,0.02,M,*6C
$PSIWMVSD,001556.650,-2.39,0.64,-0.15,2,0.01,0.05,-9.98,2,*24
$GPGGA,210430.000,4910.19177,N,12303.95944,W,1,20,0.6,-01.25,M,-16.8,M,,*44
$GPRMC,210430.000,A,4910.19177,N,12303.95944,W,0.0,0.0,161018,,,A*74
$GNGSA,A,3,11,24,27,08,18,15,21,10,20,14,32,,1.1,0.6,0.9*21
$GNGSA,A,3,65,88,82,74,81,72,87,73,66,,,,1.1,0.6,0.9*2E
$PSIWMPVT,957.380,248687.999,3,49.1698628,-123.0659906,-1.248,-0.001,-0.015,-0.024,5.292,3.674,2.340,0.354,0.000,0.000,4.243,0.102,20,*3D
$PSIWMPOS,001557.650,4910.19177,N,12303.95944,W,2.69,-0.76,M,1.56,2,5,0,2,0,*44
$PSIWMATT,001557.650,16.0,T,5.8,1.4,95.0,*71
$PSIWMVEL,001557.650,16.0,T,0.0,K,0.02,M,*6D
$PSIWMVSD,001557.650,-2.44,0.68,-0.09,2,-0.00,-0.07,-9.99,2,*2C
$GPGGA,210431.000,4910.19177,N,12303.95944,W,1,20,0.6,-01.25,M,-16.8,M,,*45
$GPRMC,210431.000,A,4910.19177,N,12303.95944,W,0.0,0.0,161018,,,A*75
$GNGSA,A,3,11,24,27,08,18,15,21,10,20,14,32,,1.1,0.6,0.9*21
$GNGSA,A,3,65,88,82,74,81,72,87,73,66,,,,1.1,0.6,0.9*2E
$PSIWMPVT,958.340,248688.999,3,49.1698628,-123.0659906,-1.248,0.005,-0.008,-0.038,5.292,3.674,1.762,0.354,0.000,0.000,2.994,0.027,20,*1F
$PSIWMPOS,001558.650,4910.19177,N,12303.95944,W,2.71,-0.76,M,1.57,2,5,0,2,0,*43
$PSIWMATT,001558.650,15.9,T,5.8,1.4,94.9,*7C
$PSIWMVEL,001558.650,15.9,T,0.0,K,0.02,M,*68
$PSIWMVSD,001558.650,-2.43,0.70,-0.20,2,0.04,0.04,-10.00,2,*19
$GPGGA,210432.000,4910.19177,N,12303.95944,W,1,20,0.6,-01.25,M,-16.8,M,,*46
$GPRMC,210432.000,A,4910.19177,N,12303.95944,W,0.0,0.0,161018,,,A*76
$GNGSA,A,3,11,24,27,08,18,15,21,10,20,14,32,,1.1,0.6,0.9*21
$GNGSA,A,3,65,88,82,74,81,72,87,73,66,,,,1.1,0.6,0.9*2E
$PSIWMPVT,959.370,248690.000,3,49.1698628,-123.0659906,-1.248,0.002,0.002,-0.028,5.292,3.674,2.027,0.354,0.000,0.000,3.537,0.035,20,*3E
$PSIWMPOS,001559.650,4910.19177,N,12303.95944,W,2.69,-0.76,M,1.57,2,5,0,2,0,*4B
$PSIWMATT,001559.650,15.9,T,5.8,1.4,94.8,*7C
$PSIWMVEL,001559.650,15.9,T,0.1,K,0.02,M,*68
$PSIWMVSD,001559.650,-2.39,0.66,-0.15,2,-0.04,-0.07,-9.99,2,*2F
$GPGGA,210433.000,4910.19177,N,12303.95944,W,1,20,0.6,-01.25,M,-16.8,M,,*47
$GPRMC,210433.000,A,4910.19177,N,12303.95944,W,0.0,0.0,161018,,,A*77
$GNGSA,A,3,11,24,27,08,18,15,21,10,20,14,32,,1.1,0.6,0.9*21
$GNGSA,A,3,65,88,82,74,81,72,87,73,66,,,,1.1,0.6,0.9*2E
$PSIWMPVT,960.340,248691.000,3,49.1698628,-123.0659906,-1.248,0.001,0.009,-0.035,5.339,3.742,2.973,0.354,0.000,0.000,5.455,0.098,20,*3A
$PSIWMPOS,001600.650,4910.19178,N,12303.95944,W,2.72,-0.76,M,1.57,2,5,0,2,0,*41
$PSIWMATT,001600.650,15.9,T,5.8,1.4,94.7,*7C
$PSIWMVEL,001600.650,15.9,T,0.0,K,0.02,M,*66
$PSIWMVSD,001600.650,-2.36,0.65,-0.14,2,0.04,0.06,-10.02,2,*16
$GPGGA,210434.000,4910.19177,N,12303.95944,W,1,20,0.6,-01.25,M,-16.8,M,,*40
$GPRMC,210434.000,A,4910.19177,N,12303.95944,W,0.0,0.0,161018,,,A*70
$GNGSA,A,3,11,24,27,08,18,15,21,10,20,14,32,,1.1,0.6,0.9*21
$GNGSA,A,3,65,88,82,74,81,72,87,73,66,,,,1.1,0.6,0.9*2E
$PSIWMPVT,961.370,248691.999,3,49.1698628,-123.0659906,-1.248,0.014,-0.002,-0.033,5.339,3.742,3.035,0.354,0.000,0.000,5.451,0.031,20,*18
$PSIWMPOS,001601.650,4910.19178,N,12303.95944,W,2.70,-1.01,M,1.57,2,5,0,2,0,*43
$PSIWMATT,001601.650,15.9,T,5.8,1.4,94.5,*7F
$PSIWMVEL,001601.650,15.9,T,0.1,K,0.02,M,*66
$PSIWMVSD,001601.650,-2.45,0.60,-0.08,2,-0.01,-0.04,-9.94,2,*2B
$GPGGA,210435.000,4910.19177,N,12303.95944,W,1,20,0.6,-01.25,M,-16.8,M,,*41
$GPRMC,210435.000,A,4910.19177,N,12303.95944,W,0.0,0.0,161018,,,A*71
$GNGSA,A,3,11,24,27,08,18,15,21,10,20,14,32,,1.1,0.6,0.9*21
$GNGSA,A,3,65,88,82,74,81,72,87,73,66,,,,1.1,0.6,0.9*2E
$PSIWMPVT,962.380,248692.999,3,49.1698628,-123.0659906,-1.248,0.005,0.004,-0.035,5.339,3.742,3.484,0.354,0.000,0.000,5.913,0.059,20,*31
$PSIWMPOS,001602.650,4910.19178,N,12303.95944,W,2.70,-0.19,M,1.57,2,5,0,2,0,*48
$PSIWMATT,001602.650,15.9,T,5.8,1.4,94.3,*7A
$PSIWMVEL,001602.650,15.9,T,0.0,K,0.02,M,*64
$PSIWMVSD,001602.650,-2.32,0.72,-0.12,2,0.03,0.05,-9.96,2,*21
$GPGGA,210436.000,4910.19177,N,12303.95944,W,1,20,0.6,-01.25,M,-16.8,M,,*42
$GPRMC,210436.000,A,4910.19177,N,12303.95944,W,0.0,0.0,161018,,,A*72
$GNGSA,A,3,11,24,27,08,18,15,21,10,20,14,32,,1.1,0.6,0.9*21
$GNGSA,A,3,65,88,82,74,81,72,87,73,66,,,,1.1,0.6,0.9*2E
$PSIWMPVT,963.370,248694.000,3,49.1698628,-123.0659906,-1.248,-0.002,-0.005,-0.030,5.339,3.742,3.328,0.354,0.000,0.000,5.646,0.023,20,*30
$PSIWMPOS,001603.650,4910.19178,N,12303.95944,W,2.70,-0.76,M,1.57,2,5,0,2,0,*40
$PSIWMATT,001603.650,15.9,T,5.8,1.4,94.2,*7A
$PSIWMVEL,001603.650,15.9,T,0.0,K,0.02,M,*65
$PSIWMVSD,001603.650,-2.39,0.70,-0.10,2,-0.04,-0.06,-10.00,2,*18
$GPGGA,210437.000,4910.19177,N,12303.95944,W,1,20,0.6,-01.25,M,-16.8,M,,*43
$GPRMC,210437.000,A,4910.19177,N,12303.95944,W,0.0,0.0,161018,,,A*73
$GNGSA,A,3,11,24,27,08,18,15,21,10,20,14,32,,1.1,0.6,0.9*21
$GNGSA,A,3,65,88,82,74,81,72,87,73,66,,,,1.1,0.6,0.9*2E
$PSIWMPVT,964.340,248695.000,3,49.1698628,-123.0659906,-1.248,-0.006,0.004,-0.024,5.339,3.742,3.219,0.354,0.000,0.000,5.467,0.059,20,*17
$PSIWMPOS,001604.650,4910.19177,N,12303.95944,W,2.72,-0.52,M,1.57,2,5,0,2,0,*4C
$PSIWMATT,001604.650,15.9,T,5.8,1.4,94.1,*7E
$PSIWMVEL,001604.650,15.9,T,0.0,K,0.02,M,*62
$PSIWMVSD,001604.650,-2.38,0.64,-0.10,2,0.03,0.05,-10.02,2,*1D
$GPGGA,210438.000,4910.19177,N,12303.95944,W,1,20,0.6,-01.25,M,-16.8,M,,*4C
$GPRMC,210438.000,A,4910.19177,N,12303.95944,W,0.0,0.0,161018,,,A*7C
$GNGSA,A,3,11,24,27,08,18,15,21,10,20,14,32,,1.1,0.6,0.9*21
$GNGSA,A,3,65,88,82,74,81,72,87,73,66,,,,1.1,0.6,0.9*2E
$PSIWMPVT,965.340,248696.000,3,49.1698628,-123.0659906,-1.248,-0.002,-0.008,-0.026,5.385,3.808,3.148,0.354,0.000,0.000,5.683,0.164,20,*34
$PSIWMPOS,001605.650,4910.19177,N,12303.95944,W,2.73,-0.85,M,1.57,2,5,0,2,0,*46
$PSIWMATT,001605.650,15.9,T,5.8,1.4,94.0,*7E
$PSIWMVEL,001605.650,15.9,T,0.0,K,0.02,M,*63
$PSIWMVSD,001605.650,-2.38,0.62,-0.08,2,0.01,-0.03,-9.97,2,*0E
$GPGGA,210439.000,4910.19177,N,12303.95944,W,1,20,0.6,-01.25,M,-16.8,M,,*4D
$GPRMC,210439.000,A,4910.19177,N,12303.95944,W,0.0,0.0,161018,,,A*7D
$GNGSA,A,3,11,24,27,08,18,15,21,10,20,14,32,,1.1,0.6,0.9*21
$GNGSA,A,3,65,88,82,74,81,72,87,73,66,,,,1.1,0.6,0.9*2E
$PSIWMPVT,966.340,248696.999,3,49.1698628,-123.0659906,-1.248,-0.011,0.004,-0.016,5.385,3.808,2.812,0.354,0.000,0.000,5.284,0.117,20,*1E
$PSIWMPOS,001606.650,4910.19177,N,12303.95944,W,2.73,-0.52,M,1.57,2,5,0,2,0,*4F
$PSIWMATT,001606.650,15.9,T,5.8,1.4,94.0,*7D
$PSIWMVEL,001606.650,15.9,T,0.0,K,0.02,M,*60
$PSIWMVSD,001606.650,-2.37,0.73,-0.15,2,0.08,0.03,-9.98,2,*25
$GPGGA,210440.000,4910.19177,N,12303.95944,W,1,20,0.6,-01.25,M,-16.8,M,,*43
$GPRMC,210440.000,A,4910.19177,N,12303.95944,W,0.2,92.1,161018,,,A*4B
$GNGSA,A,3,11,24,27,08,18,15,21,10,20,14,32,,1.1,0.6,0.9*21
$GNGSA,A,3,65,88,82,74,81,72,87,73,66,,,,1.1,0.6,0.9*2E
$PSIWMPVT,967.380,248698.000,3,49.1698628,-123.0659906,-1.248,0.101,-0.004,-0.016,5.385,3.808,2.883,0.354,0.000,0.000,5.632,0.141,20,*16
$PSIWMPOS,001607.650,4910.19182,N,12303.95942,W,2.74,-0.69,M,1.57,2,5,0,2,0,*4D
$PSIWMATT,001607.650,15.8,T,5.9,1.6,92.7,*7F
$PSIWMVEL,001607.650,15.8,T,1.0,K,0.02,M,*61
$PSIWMVSD,001607.650,-1.87,0.47,-0.25,2,0.09,0.02,-10.05,2,*14
$GPGGA,210441.000,4910.19177,N,12303.95944,W,1,20,0.6,-01.25,M,-16.8,M,,*42
$GPRMC,210441.000,A,4910.19177,N,12303.95944,W,0.6,90.8,161018,,,A*45
$GNGSA,A,3,11,24,27,08,18,15,21,10,20,14,32,,1.1,0.6,0.9*21
$GNGSA,A,3,65,88,82,74,81,72,87,73,66,,,,1.1,0.6,0.9*2E
$PSIWMPVT,968.340,248699.000,3,49.1698628,-123.0659906,-1.248,0.302,-0.004,-0.012,5.385,3.808,2.449,0.354,0.000,0.000,4.180,0.047,20,*13
$PSIWMPOS,001608.650,4910.19186,N,12303.95940,W,2.83,-0.52,M,1.57,2,5,0,2,0,*44
$PSIWMATT,001608.650,15.9,T,6.2,1.8,83.2,*72
$PSIWMVEL,001608.650,15.9,T,0.9,K,0.02,M,*67
$PSIWMVSD,001608.650,-2.81,1.18,-0.22,2,0.24,-0.04,-9.96,2,*04
$GPGGA,210442.000,4910.19177,N,12303.95944,W,1,20,0.6,-01.25,M,-16.8,M,,*41
$GPRMC,210442.000,A,4910.19177,N,12303.95944,W,1.0,87.7,161018,,,A*48
$GNGSA,A,3,11,24,27,08,18,15,21,10,20,14,32,,1.1,0.6,0.9*21
$GNGSA,A,3,65,88,82,74,81,72,87,73,66,,,,1.1,0.6,0.9*2E
$PSIWMPVT,969.370,248700.000,3,49.1698628,-123.0659906,-1.248,0.512,0.021,-0.009,5.385,3.808,3.031,0.354,0.000,0.000,5.146,0.062,20,*31
$PSIWMPOS,001609.650,4910.19197,N,12303.95936,W,2.98,-1.02,M,1.57,2,5,0,2,0,*4A
$PSIWMATT,001609.650,13.3,T,6.7,1.9,63.0,*77
$PSIWMVEL,001609.650,13.3,T,3.6,K,0.05,M,*61
$PSIWMVSD,001609.650,-2.85,1.43,-7.82,2,1.00,-0.45,-9.82,2,*05
$GPGGA,210443.000,4910.19177,N,12303.95944,W,1,19,0.6,-01.25,M,-16.8,M,,*4A
$GPRMC,210443.000,A,4910.19177,N,12303.95944,W,3.4,81.7,161018,,,A*49
$GNGSA,A,3,11,27,08,18,15,21,10,20,14,32,,,1.1,0.6,0.9*27
$GNGSA,A,3,65,88,82,74,81,72,87,73,66,,,,1.1,0.6,0.9*2E
$PSIWMPVT,970.370,248700.999,3,49.1698628,-123.0659906,-1.248,1.735,0.252,-0.009,5.431,3.873,3.637,0.354,0.000,0.000,6.169,0.234,19,*31
$PSIWMPOS,001610.650,4910.19228,N,12303.95934,W,3.09,-0.69,M,1.57,2,5,0,2,0,*42
$PSIWMATT,001610.650,1.3,T,8.0,1.6,30.7,*4B
$PSIWMVEL,001610.650,1.3,T,6.2,K,0.12,M,*5D
$PSIWMVSD,001610.650,0.50,-2.64,-17.56,2,-0.40,-0.24,-10.30,2,*27
$GPGGA,210444.000,4910.19216,N,12303.95687,W,1,20,0.6,-00.67,M,-16.8,M,,*44
$GPRMC,210444.000,A,4910.19216,N,12303.95687,W,5.0,65.9,161018,,,A*4C
$GNGSA,A,3,11,24,27,08,18,15,21,10,20,14,32,,1.1,0.6,0.9*21
$GNGSA,A,3,65,88,82,74,81,72,87,73,66,,,,1.1,0.6,0.9*2E
$PSIWMPVT,971.380,248702.000,3,49.1698694,-123.0659479,-0.674,2.350,1.052,0.001,4.950,3.082,2.203,0.000,0.000,0.000,3.735,0.191,20,*1F
$PSIWMPOS,001611.650,4910.19259,N,12303.95729,W,2.84,-0.03,M,1.55,2,5,0,2,0,*4D
$PSIWMATT,001611.650,22.7,T,7.9,1.4,17.2,*7B
$PSIWMVEL,001611.650,22.7,T,5.7,K,0.08,M,*64
$PSIWMVSD,001611.650,-2.71,1.64,-30.89,2,0.50,-1.28,-10.51,2,*05
$GPGGA,210445.000,4910.19327,N,12303.95447,W,1,18,0.6,000.08,M,-16.8,M,,*57
$GPRMC,210445.000,A,4910.19327,N,12303.95447,W,5.6,39.5,161018,,,A*43
$GNGSA,A,3,11,24,27,08,18,21,10,20,14,32,,,1.1,0.6,0.9*25
$GNGSA,A,3,65,88,82,74,81,72,87,66,,,,,1.1,0.6,0.9*2A
$PSIWMPVT,972.390,248703.000,3,49.1698878,-123.0659078,0.076,1.834,2.221,0.002,4.637,2.828,2.895,0.000,0.000,0.000,4.911,0.602,18,*3B
$PSIWMPOS,001612.650,4910.19393,N,12303.95522,W,2.77,-0.19,M,1.53,2,5,0,2,0,*41
$PSIWMATT,001612.650,2.5,T,7.9,0.8,10.9,*49
$PSIWMVEL,001612.650,2.5,T,14.1,K,0.23,M,*68
$PSIWMVSD,001612.650,-4.28,-0.93,-52.38,2,0.48,-3.76,-10.00,2,*22
$GPGGA,210446.000,4910.19485,N,12303.95381,W,1,16,0.6,000.52,M,-16.8,M,,*57
$GPRMC,210446.000,A,4910.19485,N,12303.95381,W,8.2,351.5,161018,,,A*76
$GNGSA,A,3,24,27,08,15,10,20,14,32,,,,,1.1,0.6,0.9*2B
$GNGSA,A,3,65,88,74,81,72,87,73,66,,,,,1.1,0.6,0.9*24
$PSIWMPVT,973.390,248704.000,3,49.1699141,-123.0658968,0.519,-0.625,4.192,-0.014,4.472,2.915,2.957,0.000,0.000,0.000,5.019,0.891,16,*36
$PSIWMPOS,001613.650,4910.19569,N,12303.95498,W,2.73,0.71,M,1.52,2,5,0,2,0,*65
$PSIWMATT,001613.650,345.8,T,6.5,1.6,6.9,*70
$PSIWMVEL,001613.650,345.8,T,17.4,K,0.17,M,*65
$PSIWMVSD,001613.650,-2.33,1.23,-42.69,2,1.61,-3.92,-9.98,2,*34
$GPGGA,210447.000,4910.19716,N,12303.95600,W,1,18,0.6,000.83,M,-16.8,M,,*51
$GPRMC,210447.000,A,4910.19716,N,12303.95600,W,11.1,308.4,161018,,,A*44
$GNGSA,A,3,11,27,08,18,15,21,10,20,14,32,,,1.1,0.6,0.9*27
$GNGSA,A,3,65,88,74,81,72,87,73,66,,,,,1.1,0.6,0.9*24
$PSIWMPVT,974.390,248705.000,3,49.1699526,-123.0659334,0.834,-4.490,3.562,-0.110,4.359,2.915,3.555,0.000,0.000,0.000,6.028,1.273,18,*3D
$PSIWMPOS,001614.650,4910.19804,N,12303.95775,W,3.18,0.63,M,1.64,2,5,0,2,0,*6E
$PSIWMATT,001614.650,315.7,T,6.6,1.8,5.2,*78
$PSIWMVEL,001614.650,315.7,T,24.6,K,0.12,M,*6F
$PSIWMVSD,001614.650,-2.13,0.35,-16.36,2,1.48,-2.20,-9.94,2,*33
$GPGGA,210448.000,4910.19893,N,12303.96099,W,1,18,0.6,000.58,M,-16.8,M,,*5F
$GPRMC,210448.000,A,4910.19893,N,12303.96099,W,14.9,288.1,161018,,,A*4D
$GNGSA,A,3,11,27,08,18,15,21,10,20,14,32,,,1.1,0.6,0.9*27
$GNGSA,A,3,65,88,74,81,72,87,73,66,,,,,1.1,0.6,0.9*24
$PSIWMPVT,975.390,248706.000,3,49.1699821,-123.0660166,0.585,-7.273,2.381,-0.130,4.243,2.915,2.746,0.000,0.000,0.000,4.656,0.848,18,*38
$PSIWMPOS,001615.650,4910.19988,N,12303.96286,W,3.62,1.62,M,1.77,2,5,0,2,0,*6F
$PSIWMATT,001615.650,302.9,T,6.6,1.9,4.2,*71
$PSIWMVEL,001615.650,302.9,T,28.1,K,0.09,M,*67
$PSIWMVSD,001615.650,-1.70,0.54,-3.17,2,0.66,-0.10,-9.85,2,*08
$GPGGA,210449.000,4910.20003,N,12303.96773,W,1,20,0.6,000.36,M,-16.8,M,,*55
$GPRMC,210449.000,A,4910.20003,N,12303.96773,W,17.1,282.4,161018,,,A*40
$GNGSA,A,3,11,24,27,08,18,15,21,10,20,14,32,,1.1,0.6,0.9*21
$GNGSA,A,3,65,88,82,74,81,72,87,73,66,,,,1.1,0.6,0.9*2E
$PSIWMPVT,976.380,248707.000,3,49.1700006,-123.0661289,0.358,-8.610,1.891,-0.109,4.416,3.162,1.883,0.000,0.000,0.000,3.199,0.285,20,*36
$PSIWMPOS,001616.650,4910.20125,N,12303.96915,W,3.91,0.96,M,1.86,2,5,0,2,0,*60
$PSIWMATT,001616.650,296.2,T,6.2,2.2,3.5,*79
$PSIWMVEL,001616.650,296.2,T,28.9,K,0.17,M,*64
$PSIWMVSD,001616.650,-2.10,1.81,-1.97,2,0.65,-0.24,-9.86,2,*0A
$GPGGA,210450.000,4910.20103,N,12303.97533,W,1,20,0.6,000.58,M,-16.8,M,,*53
$GPRMC,210450.000,A,4910.20103,N,12303.97533,W,18.0,280.3,161018,,,A*45
$GNGSA,A,3,11,24,27,08,18,15,21,10,20,14,32,,1.1,0.6,0.9*21
$GNGSA,A,3,65,88,82,74,81,72,87,73,66,,,,1.1,0.6,0.9*2E
$PSIWMPVT,977.380,248707.999,3,49.1700172,-123.0662554,0.577,-9.116,1.661,-0.078,4.301,2.915,1.984,0.000,0.000,0.000,3.374,0.273,20,*33
$PSIWMPOS,001617.650,4910.20229,N,12303.97636,W,4.00,1.87,M,1.93,2,5,0,2,0,*6B
$PSIWMATT,001617.650,291.9,T,6.5,1.9,2.9,*76
$PSIWMVEL,001617.650,291.9,T,33.0,K,0.30,M,*6F
$PSIWMVSD,001617.650,-2.92,0.19,0.29,2,1.15,0.28,-10.02,2,*3B
$GPGGA,210451.000,4910.20194,N,12303.98347,W,1,20,0.6,000.40,M,-16.8,M,,*5F
$GPRMC,210451.000,A,4910.20194,N,12303.98347,W,20.5,279.8,161018,,,A*43
$GNGSA,A,3,11,24,27,08,18,15,21,10,20,14,32,,1.1,0.6,0.9*21
$GNGSA,A,3,65,88,82,74,81,72,87,73,66,,,,1.1,0.6,0.9*2E
$PSIWMPVT,978.380,248708.999,3,49.1700323,-123.0663912,0.399,-10.381,1.792,-0.025,4.416,3.240,2.566,0.354,0.000,0.000,4.396,0.250,20,*0D
$PSIWMPOS,001618.650,4910.20310,N,12303.98491,W,3.70,3.60,M,1.91,2,5,0,2,0,*66
$PSIWMATT,001618.650,288.6,T,6.1,1.8,2.2,*70
$PSIWMVEL,001618.650,288.6,T,38.0,K,0.20,M,*6D
$PSIWMVSD,001618.650,-1.18,0.88,-0.01,2,1.11,0.17,-9.94,2,*25
$GPGGA,210452.000,4910.20300,N,12303.99265,W,1,20,0.6,000.43,M,-16.8,M,,*50
$GPRMC,210452.000,A,4910.20300,N,12303.99265,W,22.8,279.7,161018,,,A*4F
$GNGSA,A,3,11,24,27,08,18,15,21,10,20,14,32,,1.1,0.6,0.9*21
$GNGSA,A,3,65,88,82,74,81,72,87,73,66,,,,1.1,0.6,0.9*2E
$PSIWMPVT,979.380,248709.999,3,49.1700499,-123.0665442,0.425,-11.560,1.971,0.023,4.472,3.391,2.457,0.354,0.000,0.000,4.480,0.289,20,*2D
$PSIWMPOS,001619.650,4910.20418,N,12303.99435,W,3.59,4.50,M,1.91,2,5,0,2,0,*68
$PSIWMATT,001619.650,286.7,T,6.2,1.8,1.9,*75
$PSIWMVEL,001619.650,286.7,T,42.1,K,0.20,M,*6F
$PSIWMVSD,001619.650,-0.86,-0.06,-0.04,2,0.96,0.27,-9.80,2,*04
$GPGGA,210453.000,4910.20420,N,12304.00277,W,1,19,0.6,000.78,M,-16.8,M,,*52
$GPRMC,210453.000,A,4910.20420,N,12304.00277,W,24.6,279.8,161018,,,A*48
$GNGSA,A,3,11,24,27,08,18,15,21,10,20,14,32,,1.1,0.6,0.9*21
$GNGSA,A,3,65,88,82,74,81,72,87,66,,,,,1.1,0.6,0.9*2A
$PSIWMPVT,980.380,248710.999,3,49.1700701,-123.0667128,0.777,-12.487,2.166,0.059,4.472,3.464,2.844,0.354,0.000,0.000,5.250,0.633,19,*23
$PSIWMPOS,001620.650,4910.20522,N,12304.00476,W,3.32,0.71,M,1.85,2,5,0,2,0,*65
$PSIWMATT,001620.650,284.9,T,6.0,1.4,1.6,*72
$PSIWMVEL,001620.650,284.9,T,45.4,K,0.18,M,*60
$PSIWMVSD,001620.650,-2.61,1.23,-0.05,2,0.84,0.05,-10.03,2,*1F
$GPGGA,210454.000,4910.20549,N,12304.01341,W,1,18,0.6,001.02,M,-16.8,M,,*53
$GPRMC,210454.000,A,4910.20549,N,12304.01341,W,25.9,279.8,161018,,,A*4A
$GNGSA,A,3,11,24,27,08,18,21,10,20,14,32,,,1.1,0.6,0.9*25
$GNGSA,A,3,65,88,82,74,81,72,87,66,,,,,1.1,0.6,0.9*2A
$PSIWMPVT,981.380,248711.999,3,49.1700915,-123.0668901,1.020,-13.154,2.275,0.142,4.472,3.536,2.594,0.354,0.000,0.000,4.917,0.898,18,*21
$PSIWMPOS,001621.650,4910.20645,N,12304.01566,W,3.23,1.29,M,1.82,2,5,0,2,0,*6C
$PSIWMATT,001621.650,283.8,T,5.9,1.5,1.4,*7C
$PSIWMVEL,001621.650,283.8,T,48.7,K,0.20,M,*62
$PSIWMVSD,001621.650,-2.21,0.43,-0.34,2,0.31,0.14,-10.13,2,*10
$GPGGA,210455.000,4910.20692,N,12304.02458,W,1,19,0.6,001.00,M,-16.8,M,,*58
$GPRMC,210455.000,A,4910.20692,N,12304.02458,W,27.0,280.2,161018,,,A*45
$GNGSA,A,3,11,24,27,08,18,21,10,20,14,32,,,1.1,0.6,0.9*25
$GNGSA,A,3,65,88,82,74,81,72,87,73,66,,,,1.1,0.6,0.9*2E
$PSIWMPVT,982.380,248713.000,3,49.1701154,-123.0670763,0.996,-13.657,2.460,0.117,4.301,3.082,1.965,0.354,0.000,0.000,3.348,0.391,19,*29
$PSIWMPOS,001622.650,4910.20775,N,12304.02702,W,3.16,1.12,M,1.80,2,5,0,2,0,*62
$PSIWMATT,001622.650,282.7,T,5.5,1.6,1.3,*79
$PSIWMVEL,001622.650,282.7,T,49.8,K,0.14,M,*66
$PSIWMVSD,001622.650,-2.97,-0.31,-0.44,2,0.14,-0.07,-9.39,2,*29
$GPGGA,210456.000,4910.20823,N,12304.03596,W,1,20,0.6,001.17,M,-16.8,M,,*51
$GPRMC,210456.000,A,4910.20823,N,12304.03596,W,26.9,280.2,161018,,,A*48
$GNGSA,A,3,11,24,27,08,18,15,21,10,20,14,32,,1.1,0.6,0.9*21
$GNGSA,A,3,65,88,82,74,81,72,87,73,66,,,,1.1,0.6,0.9*2E
$PSIWMPVT,983.380,248713.999,3,49.1701371,-123.0672659,1.167,-13.637,2.461,0.080,4.243,2.915,1.719,0.354,0.000,0.000,2.920,0.113,20,*22
$PSIWMPOS,001623.650,4910.20900,N,12304.03847,W,3.11,0.63,M,1.78,2,5,0,2,0,*67
$PSIWMATT,001623.650,281.5,T,5.6,1.7,1.2,*7A
$PSIWMVEL,001623.650,281.5,T,50.0,K,0.13,M,*61
$PSIWMVSD,001623.650,-2.28,0.84,-0.62,2,-0.04,-0.14,-10.06,2,*11
$GPGGA,210457.000,4910.20954,N,12304.04715,W,1,20,0.6,001.30,M,-16.8,M,,*5A
$GPRMC,210457.000,A,4910.20954,N,12304.04715,W,26.6,279.8,161018,,,A*45
$GNGSA,A,3,11,24,27,08,18,15,21,10,20,14,32,,1.1,0.6,0.9*21
$GNGSA,A,3,65,88,82,74,81,72,87,73,66,,,,1.1,0.6,0.9*2E
$PSIWMPVT,984.380,248714.999,3,49.1701590,-123.0674525,1.297,-13.503,2.338,0.068,4.359,3.162,1.453,0.354,0.000,0.000,2.464,0.062,20,*24
$PSIWMPOS,001624.650,4910.21019,N,12304.04976,W,3.11,0.88,M,1.78,2,5,0,2,0,*61
$PSIWMATT,001624.650,280.4,T,5.6,1.8,1.2,*72
$PSIWMVEL,001624.650,280.4,T,49.5,K,0.11,M,*69
$PSIWMVSD,001624.650,-2.41,1.79,-0.88,2,-0.34,-0.18,-10.65,2,*14
$GPGGA,210458.000,4910.21079,N,12304.05814,W,1,20,0.6,001.37,M,-16.8,M,,*5A
$GPRMC,210458.000,A,4910.21079,N,12304.05814,W,26.0,279.1,161018,,,A*4D
$GNGSA,A,3,11,24,27,08,18,15,21,10,20,14,32,,1.1,0.6,0.9*21
$GNGSA,A,3,65,88,82,74,81,72,87,73,66,,,,1.1,0.6,0.9*2E
$PSIWMPVT,985.380,248715.999,3,49.1701799,-123.0676357,1.372,-13.200,2.103,0.052,4.183,2.915,1.469,0.354,0.000,0.000,2.496,0.031,20,*2D
$PSIWMPOS,001625.650,4910.21128,N,12304.06080,W,3.07,0.55,M,1.77,2,5,0,2,0,*69
$PSIWMATT,001625.650,279.1,T,5.4,2.0,1.2,*79
$PSIWMVEL,001625.650,279.1,T,48.3,K,0.11,M,*6C
$PSIWMVSD,001625.650,-1.99,0.38,-1.17,2,-0.36,-0.13,-9.72,2,*27
$GPGGA,210459.000,4910.21187,N,12304.06893,W,1,20,0.6,001.54,M,-16.8,M,,*52
$GPRMC,210459.000,A,4910.21187,N,12304.06893,W,25.1,278.3,161018,,,A*41
$GNGSA,A,3,11,24,27,08,18,15,21,10,20,14,32,,1.1,0.6,0.9*21
$GNGSA,A,3,65,88,82,74,81,72,87,73,66,,,,1.1,0.6,0.9*2E
$PSIWMPVT,986.380,248717.000,3,49.1701978,-123.0678155,1.544,-12.788,1.860,0.035,4.301,3.162,1.387,0.000,0.000,0.000,2.353,0.023,20,*2A
$PSIWMPOS,001626.650,4910.21225,N,12304.07156,W,3.08,0.63,M,1.77,2,5,0,2,0,*65
$PSIWMATT,001626.650,277.8,T,5.6,2.1,1.2,*7E
$PSIWMVEL,001626.650,277.8,T,47.3,K,0.12,M,*64
$PSIWMVSD,001626.650,-2.61,-0.07,-1.22,2,-0.14,-0.43,-9.60,2,*01
$GPGGA,210500.000,4910.21277,N,12304.07937,W,1,20,0.6,001.54,M,-16.8,M,,*5D
$GPRMC,210500.000,A,4910.21277,N,12304.07937,W,24.6,277.2,161018,,,A*46
$GNGSA,A,3,11,24,27,08,18,15,21,10,20,14,32,,1.1,0.6,0.9*21
$GNGSA,A,3,65,88,82,74,81,72,87,73,66,,,,1.1,0.6,0.9*2E
$PSIWMPVT,987.390,248717.999,3,49.1702129,-123.0679894,1.544,-12.555,1.583,0.035,4.301,3.317,1.535,0.354,0.000,0.000,2.604,0.047,20,*23
$PSIWMPOS,001627.650,4910.21306,N,12304.08205,W,3.08,0.38,M,1.77,2,5,0,2,0,*60
$PSIWMATT,001627.650,276.3,T,5.6,1.9,1.2,*7E
$PSIWMVEL,001627.650,276.3,T,46.1,K,0.10,M,*6E
$PSIWMVSD,001627.650,-2.48,0.58,-1.27,2,-0.42,-0.22,-10.52,2,*14
$GPGGA,210501.000,4910.21348,N,12304.08959,W,1,20,0.6,001.30,M,-16.8,M,,*54
$GPRMC,210501.000,A,4910.21348,N,12304.08959,W,23.8,275.9,161018,,,A*4D
$GNGSA,A,3,11,24,27,08,18,15,21,10,20,14,32,,1.1,0.6,0.9*21
$GNGSA,A,3,65,88,82,74,81,72,87,73,66,,,,1.1,0.6,0.9*2E
$PSIWMPVT,988.380,248718.999,3,49.1702247,-123.0681598,1.303,-12.189,1.250,0.031,4.123,3.000,1.531,0.000,0.000,0.000,2.602,0.027,20,*23
$PSIWMPOS,001628.650,4910.21369,N,12304.09220,W,2.95,0.63,M,1.72,2,5,0,2,0,*6E
$PSIWMATT,001628.650,275.0,T,5.3,1.7,1.1,*79
$PSIWMVEL,001628.650,275.0,T,44.5,K,0.05,M,*63
$PSIWMVSD,001628.650,-2.75,0.41,-1.24,2,-0.40,-0.23,-10.16,2,*1D
$GPGGA,210502.000,4910.21406,N,12304.09949,W,1,20,0.6,001.23,M,-16.8,M,,*58
$GPRMC,210502.000,A,4910.21406,N,12304.09949,W,23.0,274.9,161018,,,A*4A
$GNGSA,A,3,11,24,27,08,18,15,21,10,20,14,32,,1.1,0.6,0.9*21
$GNGSA,A,3,65,88,82,74,81,72,87,73,66,,,,1.1,0.6,0.9*2E
$PSIWMPVT,989.380,248719.999,3,49.1702343,-123.0683248,1.227,-11.799,1.021,0.038,4.243,3.162,1.641,0.354,0.000,0.000,2.787,0.016,20,*28
$PSIWMPOS,001629.650,4910.21420,N,12304.10204,W,3.01,0.14,M,1.73,2,5,0,2,0,*66
$PSIWMATT,001629.650,273.8,T,5.4,1.6,1.2,*73
$PSIWMVEL,001629.650,273.8,T,42.8,K,0.03,M,*61
$PSIWMVSD,001629.650,-3.24,1.52,-0.78,2,-0.37,-0.18,-9.73,2,*21
$GPGGA,210503.000,4910.21443,N,12304.10884,W,1,20,0.6,001.01,M,-16.8,M,,*50
$GPRMC,210503.000,A,4910.21443,N,12304.10884,W,22.0,274.2,161018,,,A*48
$GNGSA,A,3,11,24,27,08,18,15,21,10,20,14,32,,1.1,0.6,0.9*21
$GNGSA,A,3,65,88,82,74,81,72,87,73,66,,,,1.1,0.6,0.9*2E
$PSIWMPVT,990.380,248721.000,3,49.1702405,-123.0684807,1.012,-11.285,0.827,0.033,4.062,2.915,1.664,0.354,0.000,0.000,2.828,0.043,20,*2C
$PSIWMPOS,001630.650,4910.21457,N,12304.11132,W,2.91,0.22,M,1.70,2,5,0,2,0,*67
$PSIWMATT,001630.650,273.5,T,5.2,1.7,1.2,*71
$PSIWMVEL,001630.650,273.5,T,40.3,K,0.00,M,*6E
$PSIWMVSD,001630.650,-1.59,0.91,-0.26,2,-0.60,-0.10,-9.79,2,*24
$GPGGA,210504.000,4910.21488,N,12304.11769,W,1,20,0.6,000.94,M,-16.8,M,,*50
$GPRMC,210504.000,A,4910.21488,N,12304.11769,W,20.6,274.0,161018,,,A*43
$GNGSA,A,3,11,24,27,08,18,15,21,10,20,14,32,,1.1,0.6,0.9*21
$GNGSA,A,3,65,88,82,74,81,72,87,73,66,,,,1.1,0.6,0.9*2E
$PSIWMPVT,991.380,248722.000,3,49.1702480,-123.0686282,0.945,-10.590,0.735,0.012,4.062,2.828,1.422,0.354,0.000,0.000,2.416,0.035,20,*2E
$PSIWMPOS,001631.650,4910.21494,N,12304.12003,W,2.88,0.30,M,1.68,2,5,0,2,0,*6B
$PSIWMATT,001631.650,273.2,T,5.2,1.7,1.2,*77
$PSIWMVEL,001631.650,273.2,T,37.8,K,0.00,M,*63
$PSIWMVSD,001631.650,-2.60,0.21,-0.17,2,-0.62,0.01,-10.43,2,*3B
$GPGGA,210505.000,4910.21530,N,12304.12607,W,1,20,0.6,001.02,M,-16.8,M,,*57
$GPRMC,210505.000,A,4910.21530,N,12304.12607,W,19.0,273.8,161018,,,A*49
$GNGSA,A,3,11,24,27,08,18,15,21,10,20,14,32,,1.1,0.6,0.9*21
$GNGSA,A,3,65,88,82,74,81,72,87,73,66,,,,1.1,0.6,0.9*2E
$PSIWMPVT,992.390,248722.999,3,49.1702550,-123.0687678,1.016,-9.773,0.651,-0.001,4.123,3.082,1.668,0.354,0.000,0.000,2.829,0.043,20,*3C
$PSIWMPOS,001632.650,4910.21529,N,12304.12812,W,2.87,0.14,M,1.67,2,5,0,2,0,*61
$PSIWMATT,001632.650,273.3,T,5.2,1.6,1.2,*74
$PSIWMVEL,001632.650,273.3,T,33.3,K,0.07,M,*69
$PSIWMVSD,001632.650,-2.39,-1.14,0.82,2,-1.70,0.22,-10.60,2,*3D
$GPGGA,210506.000,4910.21560,N,12304.13340,W,1,20,0.6,000.96,M,-16.8,M,,*5A
$GPRMC,210506.000,A,4910.21560,N,12304.13340,W,16.1,274.5,161018,,,A*4C
$GNGSA,A,3,11,24,27,08,18,15,21,10,20,14,32,,1.1,0.6,0.9*21
$GNGSA,A,3,65,88,82,74,81,72,87,73,66,,,,1.1,0.6,0.9*2E
$PSIWMPVT,993.380,248723.999,3,49.1702600,-123.0688899,0.961,-8.256,0.644,-0.006,4.062,2.915,1.508,0.354,0.000,0.000,2.558,0.070,20,*31
$PSIWMPOS,001633.650,4910.21567,N,12304.13507,W,2.85,-0.11,M,1.66,2,5,0,2,0,*49
$PSIWMATT,001633.650,276.8,T,4.2,1.8,1.2,*74
$PSIWMVEL,001633.650,276.8,T,27.8,K,-0.03,M,*41
$PSIWMVSD,001633.650,-2.17,-1.60,6.89,2,-1.80,0.82,-9.91,2,*0D
$GPGGA,210507.000,4910.21613,N,12304.13936,W,1,20,0.6,001.26,M,-16.8,M,,*5D
$GPRMC,210507.000,A,4910.21613,N,12304.13936,W,12.8,280.1,161018,,,A*43
$GNGSA,A,3,11,24,27,08,18,15,21,10,20,14,32,,1.1,0.6,0.9*21
$GNGSA,A,3,65,88,82,74,81,72,87,73,66,,,,1.1,0.6,0.9*2E
$PSIWMPVT,994.380,248725.000,3,49.1702689,-123.0689893,1.261,-6.481,1.159,-0.036,4.183,3.162,2.051,0.354,0.000,0.000,3.483,0.051,20,*3A
$PSIWMPOS,001634.650,4910.21642,N,12304.14068,W,2.93,-0.19,M,1.68,2,5,0,2,0,*40
$PSIWMATT,001634.650,291.0,T,4.5,1.3,1.2,*7E
$PSIWMVEL,001634.650,291.0,T,24.1,K,0.05,M,*66
$PSIWMVSD,001634.650,-0.85,-1.19,23.19,2,-0.21,3.11,-10.76,2,*01
$GPGGA,210508.000,4910.21726,N,12304.14406,W,1,18,0.6,001.24,M,-16.8,M,,*55
$GPRMC,210508.000,A,4910.21726,N,12304.14406,W,11.7,299.8,161018,,,A*4F
$GNGSA,A,3,11,24,27,08,18,15,21,10,20,14,32,,1.1,0.6,0.9*21
$GNGSA,A,3,65,88,82,81,72,87,66,,,,,,1.1,0.6,0.9*29
$PSIWMPVT,995.380,248726.000,3,49.1702877,-123.0690676,1.240,-5.217,2.984,-0.062,4.243,3.391,1.527,0.354,0.000,0.000,2.591,0.562,18,*32
$PSIWMPOS,001635.650,4910.21812,N,12304.14503,W,2.96,-0.52,M,1.70,2,5,0,2,0,*41
$PSIWMATT,001635.650,316.1,T,4.4,1.9,1.3,*7A
$PSIWMVEL,001635.650,316.1,T,23.9,K,-0.03,M,*4C
$PSIWMVSD,001635.650,-2.18,-0.39,26.31,2,0.96,2.87,-9.62,2,*18
$GPGGA,210509.000,4910.21954,N,12304.14755,W,1,17,0.6,001.56,M,-16.8,M,,*50
$GPRMC,210509.000,A,4910.21954,N,12304.14755,W,12.9,326.4,161018,,,A*44
$GNGSA,A,3,11,24,27,08,18,21,10,20,32,,,,1.1,0.6,0.9*20
$GNGSA,A,3,65,88,82,74,81,72,87,66,,,,,1.1,0.6,0.9*2A
$PSIWMPVT,996.380,248726.999,3,49.1703257,-123.0691259,1.555,-3.688,5.542,-0.078,4.359,3.464,3.051,0.354,0.000,0.000,5.209,0.574,17,*3C
$PSIWMPOS,001636.650,4910.22099,N,12304.14795,W,3.11,-0.36,M,1.75,2,5,0,2,0,*4E
$PSIWMATT,001636.650,339.9,T,6.1,1.3,1.4,*76
$PSIWMVEL,001636.650,339.9,T,26.6,K,0.02,M,*6C
$PSIWMVSD,001636.650,-3.28,1.53,21.46,2,1.28,2.92,-10.24,2,*04
$GPGGA,210510.000,4910.22327,N,12304.14946,W,1,17,0.6,001.51,M,-16.8,M,,*5E
$GPRMC,210510.000,A,4910.22327,N,12304.14946,W,15.6,348.5,161018,,,A*4C
$GNGSA,A,3,11,24,27,08,18,21,10,20,14,32,,,1.1,0.6,0.9*25
$GNGSA,A,3,65,88,82,81,87,73,66,,,,,,1.1,0.6,0.9*28
$PSIWMPVT,997.380,248727.999,3,49.1703878,-123.0691576,1.505,-1.600,7.870,-0.060,4.416,3.606,2.723,0.354,0.000,0.000,4.749,0.570,17,*3C
$PSIWMPOS,001637.650,4910.22485,N,12304.14928,W,3.22,-0.19,M,1.79,2,5,0,2,0,*4F
$PSIWMATT,001637.650,355.1,T,5.9,0.5,1.4,*79
$PSIWMVEL,001637.650,355.1,T,29.9,K,-0.03,M,*43
$PSIWMVSD,001637.650,-1.67,1.76,6.05,2,1.23,0.92,-10.27,2,*33
$GPGGA,210511.000,4910.22804,N,12304.14999,W,1,20,0.6,001.76,M,-16.8,M,,*56
$GPRMC,210511.000,A,4910.22804,N,12304.14999,W,18.2,359.4,161018,,,A*4D
$GNGSA,A,3,11,24,27,08,18,15,21,10,20,14,32,,1.1,0.6,0.9*21
$GNGSA,A,3,65,88,82,74,81,72,87,73,66,,,,1.1,0.6,0.9*2E
$PSIWMPVT,998.380,248729.000,3,49.1704673,-123.0691664,1.760,-0.104,9.392,-0.055,4.472,3.606,2.254,0.354,0.000,0.000,4.614,0.422,20,*36
$PSIWMPOS,001638.650,4910.22951,N,12304.14982,W,3.30,-0.27,M,1.82,2,5,0,2,0,*4E
$PSIWMATT,001638.650,356.3,T,5.7,0.8,1.4,*74
$PSIWMVEL,001638.650,356.3,T,33.8,K,-0.10,M,*45
$PSIWMVSD,001638.650,-0.58,-3.18,0.11,2,0.42,-1.10,-10.03,2,*33
$GPGGA,210512.000,4910.23355,N,12304.14984,W,1,20,0.6,001.84,M,-16.8,M,,*5A
$GPRMC,210512.000,A,4910.23355,N,12304.14984,W,20.3,0.2,161018,,,A*4F
$GNGSA,A,3,11,24,27,08,18,15,21,10,20,14,32,,1.1,0.6,0.9*21
$GNGSA,A,3,65,88,82,74,81,72,87,73,66,,,,1.1,0.6,0.9*2E
$PSIWMPVT,999.380,248730.000,3,49.1705591,-123.0691640,1.843,0.042,10.467,-0.045,4.472,3.606,1.891,0.000,0.000,0.000,4.282,0.383,20,*26
$PSIWMPOS,001639.650,4910.23486,N,12304.15025,W,3.36,-0.03,M,1.85,2,5,0,2,0,*4B
$PSIWMATT,001639.650,354.5,T,6.7,3.3,1.5,*7B
$PSIWMVEL,001639.650,354.5,T,36.3,K,0.12,M,*61
$PSIWMVSD,001639.650,-2.79,1.80,-2.70,2,0.47,-0.64,-10.69,2,*3E
$GPGGA,210513.000,4910.23944,N,12304.14990,W,1,20,0.6,001.88,M,-16.8,M,,*58
$GPRMC,210513.000,A,4910.23944,N,12304.14990,W,21.3,357.0,161018,,,A*43
$GNGSA,A,3,11,24,27,08,18,15,21,10,20,14,32,,1.1,0.6,0.9*21
$GNGSA,A,3,65,88,82,74,81,72,87,73,66,,,,1.1,0.6,0.9*2E
$PSIWMPVT,1000.380,248731.000,3,49.1706574,-123.0691650,1.878,-0.577,10.974,-0.022,4.472,3.674,2.168,0.000,0.000,0.000,3.924,0.340,20,*38
$PSIWMPOS,001640.650,4910.24065,N,12304.15085,W,3.39,0.06,M,1.86,2,5,0,2,0,*65
$PSIWMATT,001640.650,352.8,T,6.0,1.8,1.5,*70
$PSIWMVEL,001640.650,352.8,T,38.1,K,0.05,M,*6E
$PSIWMVSD,001640.650,-2.63,0.09,-0.49,2,0.32,0.01,-9.78,2,*27
$GPGGA,210514.000,4910.24552,N,12304.15057,W,1,20,0.6,002.12,M,-16.8,M,,*50
$GPRMC,210514.000,A,4910.24552,N,12304.15057,W,22.1,355.4,161018,,,A*4C
$GNGSA,A,3,11,24,27,08,18,15,21,10,20,14,32,,1.1,0.6,0.9*21
$GNGSA,A,3,65,88,82,74,81,72,87,73,66,,,,1.1,0.6,0.9*2E
$PSIWMPVT,1001.380,248732.000,3,49.1707587,-123.0691762,2.118,-0.913,11.316,-0.013,4.528,3.742,2.086,0.354,0.000,0.000,3.635,0.145,20,*39
$PSIWMPOS,001641.650,4910.24679,N,12304.15142,W,3.23,-0.11,M,1.82,2,5,0,2,0,*41
$PSIWMATT,001641.650,354.1,T,6.0,0.8,1.4,*7E
$PSIWMVEL,001641.650,354.1,T,40.6,K,0.09,M,*64
$PSIWMVSD,001641.650,-3.10,0.47,1.63,2,0.66,0.20,-9.94,2,*0D
$GPGGA,210515.000,4910.25169,N,12304.15130,W,1,20,0.6,002.70,M,-16.8,M,,*58
$GPRMC,210515.000,A,4910.25169,N,12304.15130,W,22.9,357.2,161018,,,A*4C
$GNGSA,A,3,11,24,27,08,18,15,21,10,20,14,32,,1.1,0.6,0.9*21
$GNGSA,A,3,65,88,82,74,81,72,87,73,66,,,,1.1,0.6,0.9*2E
