$GNGSA,A,3,11,24,27,08,18,15,21,10,20,14,32,,1.1,0.6,0.9*21
$GNGSA,A,3,65,88,82,74,81,72,87,73,66,,,,1.1,0.6,0.9*2E
$GPGGA,210301.000,4910.19167,N,12303.95928,W,1,20,0.6,-00.73,M,-16.8,M,,*48
$GPRMC,210301.000,A,4910.19167,N,12303.95928,W,0.0,0.0,161018,,,A*7A
$GNGSA,A,3,11,24,27,08,18,15,21,10,20,14,32,,1.1,0.6,0.9*21
$GNGSA,A,3,65,88,82,74,81,72,87,73,66,,,,1.1,0.6,0.9*2E
$PSIWMPVT,874.730,248599.000,3,49.1698612,-123.0659880,-0.729,-0.015,-0.000,-0.013,5.099,3.536,2.254,0.354,0.000,0.000,3.825,0.016,20,*36
$GPGGA,210302.000,4910.19167,N,12303.95928,W,1,20,0.6,-00.73,M,-16.8,M,,*4B
$GPRMC,210302.000,A,4910.19167,N,12303.95928,W,0.0,0.0,161018,,,A*79
$GNGSA,A,3,11,24,27,08,18,15,21,10,20,14,32,,1.1,0.6,0.9*21
$GNGSA,A,3,65,88,82,74,81,72,87,73,66,,,,1.1,0.6,0.9*2E
$PSIWMPVT,875.730,248600.000,3,49.1698612,-123.0659880,-0.729,-0.015,-0.016,-0.019,5.099,3.536,1.852,0.354,0.000,0.000,3.143,0.023,20,*39
$PSIWMPDR,873.700,49.1698603,-123.0659852,-0.512,15.411149025,-1010101.125000000,0,-2.376072884,0.590645015,-0.399369210,35.90,0.075314350,0.119044177,0.057266019,0.041594580,-1.815526009,152,*3F
$GPGGA,210303.000,4910.19167,N,12303.95928,W,1,20,0.6,-00.73,M,-16.8,M,,*4A
$GPRMC,210303.000,A,4910.19167,N,12303.95928,W,0.0,0.0,161018,,,A*78
$GNGSA,A,3,11,24,27,08,18,15,21,10,20,14,32,,1.1,0.6,0.9*21
$GNGSA,A,3,65,88,82,74,81,72,87,73,66,,,,1.1,0.6,0.9*2E
$PSIWMPVT,876.730,248601.000,3,49.1698612,-123.0659880,-0.729,-0.015,0.002,-0.017,5.099,3.536,2.145,0.354,0.000,0.000,3.636,0.016,20,*12
$GPGGA,210304.000,4910.19167,N,12303.95928,W,1,20,0.6,-00.73,M,-16.8,M,,*4D
$GPRMC,210304.000,A,4910.19167,N,12303.95928,W,0.0,0.0,161018,,,A*7F
$GNGSA,A,3,11,24,27,08,18,15,21,10,20,14,32,,1.1,0.6,0.9*21
$GNGSA,A,3,65,88,82,74,81,72,87,73,66,,,,1.1,0.6,0.9*2E
$PSIWMPVT,877.730,248602.000,3,49.1698612,-123.0659880,-0.729,-0.012,0.001,-0.021,5.148,3.606,2.828,0.354,0.000,0.000,4.797,0.016,20,*13
$PSIWMPOS,001438.600,4910.19167,N,12303.95928,W,141.42,-0.73,M,100.00,0,8,0,2,0,*44
$PSIWMATT,001438.600,15.4,T,5.8,1.4,180.0,*4E
$PSIWMVEL,001438.600,15.4,T,0.0,K,-0.00,M,*48
$PSIWMVSD,001438.600,0.00,0.00,0.00,2,0.00,0.00,0.00,2,*07
$GPGGA,210305.000,4910.19167,N,12303.95928,W,1,20,0.6,-00.73,M,-16.8,M,,*4C
$GPRMC,210305.000,A,4910.19167,N,12303.95928,W,0.0,0.0,161018,,,A*7E
$GNGSA,A,3,11,24,27,08,18,15,21,10,20,14,32,,1.1,0.6,0.9*21
$GNGSA,A,3,65,88,82,74,81,72,87,73,66,,,,1.1,0.6,0.9*2E
$PSIWMPVT,878.770,248603.000,3,49.1698612,-123.0659880,-0.729,-0.005,-0.007,-0.018,5.148,3.606,2.598,0.354,0.000,0.000,4.406,0.016,20,*33
$PSIWMPOS,001439.600,4910.19167,N,12303.95928,W,8.74,-0.73,M,6.18,0,8,0,2,0,*42
$PSIWMATT,001439.600,15.4,T,5.8,1.4,180.0,*4F
$PSIWMVEL,001439.600,15.4,T,0.0,K,0.02,M,*66
$PSIWMVSD,001439.600,0.00,0.00,0.00,2,0.00,0.00,0.00,2,*06
$GPGGA,210306.000,4910.19167,N,12303.95928,W,1,20,0.6,-00.73,M,-16.8,M,,*4F
$GPRMC,210306.000,A,4910.19167,N,12303.95928,W,0.0,0.0,161018,,,A*7D
$GNGSA,A,3,11,24,27,08,18,15,21,10,20,14,32,,1.1,0.6,0.9*21
$GNGSA,A,3,65,88,82,74,81,72,87,73,66,,,,1.1,0.6,0.9*2E
$PSIWMPVT,879.770,248604.000,3,49.1698612,-123.0659880,-0.729,-0.010,-0.005,-0.015,5.148,3.606,2.828,0.354,0.000,0.000,4.797,0.023,20,*35
$PSIWMPOS,001440.600,4910.19167,N,12303.95928,W,8.74,-0.70,M,6.18,2,5,0,2,0,*40
$PSIWMATT,001440.600,15.4,T,5.8,1.4,100.0,*49
$PSIWMVEL,001440.600,15.4,T,0.0,K,0.06,M,*6C
$PSIWMVSD,001440.600,-2.41,0.69,-0.20,2,0.00,0.00,-10.00,2,*1E
$GPGGA,210307.000,4910.19167,N,12303.95928,W,1,20,0.6,-00.73,M,-16.8,M,,*4E
$GPRMC,210307.000,A,4910.19167,N,12303.95928,W,0.0,0.0,161018,,,A*7C
$GNGSA,A,3,11,24,27,08,18,15,21,10,20,14,32,,1.1,0.6,0.9*21
$GNGSA,A,3,65,88,82,74,81,72,87,73,66,,,,1.1,0.6,0.9*2E
$PSIWMPVT,880.890,248605.000,3,49.1698612,-123.0659880,-0.729,-0.005,-0.004,-0.015,5.148,3.606,2.336,0.354,0.000,0.000,3.961,0.012,20,*30
$PSIWMPOS,001441.600,4910.19167,N,12303.95928,W,8.74,-0.65,M,6.18,2,5,0,2,0,*45
$PSIWMATT,001441.600,15.4,T,5.8,1.4,100.0,*48
$PSIWMVEL,001441.600,15.4,T,0.0,K,0.12,M,*68
$PSIWMVSD,001441.600,-2.40,0.63,-0.18,2,-0.00,-0.00,-9.97,2,*29
$GPGGA,210308.000,4910.19167,N,12303.95928,W,1,20,0.6,-00.73,M,-16.8,M,,*41
$GPRMC,210308.000,A,4910.19167,N,12303.95928,W,0.0,0.0,161018,,,A*73
$GNGSA,A,3,11,24,27,08,18,15,21,10,20,14,32,,1.1,0.6,0.9*21
$GNGSA,A,3,65,88,82,74,81,72,87,73,66,,,,1.1,0.6,0.9*2E
$PSIWMPVT,881.890,248606.000,3,49.1698612,-123.0659880,-0.729,-0.003,-0.001,-0.016,5.148,3.606,2.020,0.354,0.000,0.000,3.426,0.008,20,*33
$PSIWMPOS,001442.600,4910.19167,N,12303.95928,W,6.12,-0.54,M,4.33,2,5,0,2,0,*41
$PSIWMATT,001442.600,15.4,T,5.7,1.4,100.0,*44
$PSIWMVEL,001442.600,15.4,T,0.1,K,0.15,M,*6D
$PSIWMVSD,001442.600,-2.40,0.72,-0.16,2,0.03,0.01,-10.01,2,*11
$GPGGA,210309.000,4910.19167,N,12303.95928,W,1,20,0.6,-00.73,M,-16.8,M,,*40
$GPRMC,210309.000,A,4910.19167,N,12303.95928,W,0.0,0.0,161018,,,A*72
$GNGSA,A,3,11,24,27,08,18,15,21,10,20,14,32,,1.1,0.6,0.9*21
$GNGSA,A,3,65,88,82,74,81,72,87,73,66,,,,1.1,0.6,0.9*2E
$PSIWMPVT,882.890,248607.000,3,49.1698612,-123.0659880,-0.729,-0.000,-0.005,-0.018,5.196,3.674,2.590,0.354,0.000,0.000,4.396,0.012,20,*30
$PSIWMPOS,001443.600,4910.19167,N,12303.95928,W,6.24,-0.62,M,4.41,2,5,0,2,0,*45
$PSIWMATT,001443.600,15.4,T,5.7,1.4,99.9,*7D
$PSIWMVEL,001443.600,15.4,T,0.0,K,0.12,M,*6A
$PSIWMVSD,001443.600,-2.42,0.65,-0.07,2,0.01,0.02,-10.01,2,*15
$GPGGA,210310.000,4910.19167,N,12303.95928,W,1,20,0.6,-00.73,M,-16.8,M,,*48
$GPRMC,210310.000,A,4910.19167,N,12303.95928,W,0.0,0.0,161018,,,A*7A
$GNGSA,A,3,11,24,27,08,18,15,21,10,20,14,32,,1.1,0.6,0.9*21
$GNGSA,A,3,65,88,82,74,81,72,87,73,66,,,,1.1,0.6,0.9*2E
$PSIWMPVT,883.890,248608.000,3,49.1698612,-123.0659880,-0.729,-0.014,0.003,-0.008,5.196,3.674,2.781,0.354,0.000,0.000,4.719,0.012,20,*10
$PSIWMPOS,001444.600,4910.19167,N,12303.95928,W,6.24,-0.65,M,4.41,2,5,0,2,0,*45
$PSIWMATT,001444.600,15.5,T,5.7,1.5,99.7,*74
$PSIWMVEL,001444.600,15.5,T,0.0,K,0.11,M,*6F
$PSIWMVSD,001444.600,-2.41,0.78,-0.15,2,0.04,0.03,-9.98,2,*22
$GPGGA,210311.000,4910.19167,N,12303.95928,W,1,20,0.6,-00.73,M,-16.8,M,,*49
$GPRMC,210311.000,A,4910.19167,N,12303.95928,W,0.0,0.0,161018,,,A*7B
$GNGSA,A,3,11,24,27,08,18,15,21,10,20,14,32,,1.1,0.6,0.9*21
$GNGSA,A,3,65,88,82,74,81,72,87,73,66,,,,1.1,0.6,0.9*2E
$PSIWMPVT,884.890,248608.999,3,49.1698612,-123.0659880,-0.729,-0.005,-0.004,-0.006,5.196,3.674,2.562,0.354,0.000,0.000,4.345,0.012,20,*38
$PSIWMPOS,001445.600,4910.19167,N,12303.95928,W,6.24,-0.83,M,4.41,2,5,0,2,0,*4C
$PSIWMATT,001445.600,15.5,T,5.7,1.5,99.6,*74
$PSIWMVEL,001445.600,15.5,T,0.0,K,0.09,M,*67
$PSIWMVSD,001445.600,-2.34,0.64,-0.15,2,0.02,0.02,-10.01,2,*13
$GPGGA,210312.000,4910.19167,N,12303.95928,W,1,20,0.6,-00.73,M,-16.8,M,,*4A
$GPRMC,210312.000,A,4910.19167,N,12303.95928,W,0.0,0.0,161018,,,A*78
$GNGSA,A,3,11,24,27,08,18,15,21,10,20,14,32,,1.1,0.6,0.9*21
$GNGSA,A,3,65,88,82,74,81,72,87,73,66,,,,1.1,0.6,0.9*2E
$PSIWMPVT,885.890,248609.999,3,49.1698612,-123.0659880,-0.729,-0.003,0.010,-0.017,5.196,3.674,2.504,0.354,0.000,0.000,4.250,0.020,20,*12
$PSIWMPOS,001446.600,4910.19167,N,12303.95928,W,6.24,-0.90,M,4.41,2,5,0,2,0,*4D
$PSIWMATT,001446.600,15.5,T,5.7,1.5,99.5,*74
$PSIWMVEL,001446.600,15.5,T,0.0,K,0.08,M,*65
$PSIWMVSD,001446.600,-2.41,0.70,-0.13,2,0.01,-0.00,-9.96,2,*0B
$GPGGA,210313.000,4910.19167,N,12303.95928,W,1,20,0.6,-00.73,M,-16.8,M,,*4B
$GPRMC,210313.000,A,4910.19167,N,12303.95928,W,0.0,0.0,161018,,,A*79
$GNGSA,A,3,11,24,27,08,18,15,21,10,20,14,32,,1.1,0.6,0.9*21
$GNGSA,A,3,65,88,82,74,81,72,87,73,66,,,,1.1,0.6,0.9*2E
$PSIWMPVT,886.890,248610.999,3,49.1698612,-123.0659880,-0.729,-0.005,-0.003,-0.025,5.196,3.674,3.184,0.354,0.000,0.000,5.404,0.012,20,*3B
$PSIWMPOS,001447.600,4910.19167,N,12303.95928,W,6.24,-0.87,M,4.41,2,5,0,2,0,*4A
$PSIWMATT,001447.600,15.6,T,5.7,1.5,99.5,*76
$PSIWMVEL,001447.600,15.6,T,0.0,K,0.07,M,*68
$PSIWMVSD,001447.600,-2.47,0.71,-0.16,2,0.02,0.01,-10.00,2,*10
$GPGGA,210314.000,4910.19167,N,12303.95928,W,1,20,0.6,-00.73,M,-16.8,M,,*4C
$GPRMC,210314.000,A,4910.19167,N,12303.95928,W,0.0,0.0,161018,,,A*7E
$GNGSA,A,3,11,24,27,08,18,15,21,10,20,14,32,,1.1,0.6,0.9*21
$GNGSA,A,3,65,88,82,74,81,72,87,73,66,,,,1.1,0.6,0.9*2E
$PSIWMPVT,887.890,248611.999,3,49.1698612,-123.0659880,-0.729,-0.009,0.011,-0.011,5.244,3.742,3.008,0.354,0.000,0.000,5.104,0.023,20,*14
$PSIWMPOS,001448.600,4910.19167,N,12303.95928,W,6.35,-0.69,M,4.49,2,5,0,2,0,*4D
$PSIWMATT,001448.600,15.6,T,5.7,1.4,99.4,*79
$PSIWMVEL,001448.600,15.6,T,0.1,K,0.07,M,*66
$PSIWMVSD,001448.600,-2.41,0.74,-0.13,2,0.02,-0.00,-9.99,2,*0D
$GPGGA,210315.000,4910.19167,N,12303.95928,W,1,20,0.6,-00.73,M,-16.8,M,,*4D
$GPRMC,210315.000,A,4910.19167,N,12303.95928,W,0.0,0.0,161018,,,A*7F
$GNGSA,A,3,11,24,27,08,18,15,21,10,20,14,32,,1.1,0.6,0.9*21
$GNGSA,A,3,65,88,82,74,81,72,87,73,66,,,,1.1,0.6,0.9*2E
$PSIWMPVT,888.890,248612.999,3,49.1698612,-123.0659880,-0.729,0.012,-0.010,-0.034,5.244,3.742,2.930,0.354,0.000,0.000,4.973,0.016,20,*18
$PSIWMPOS,001449.600,4910.19168,N,12303.95928,W,2.05,-0.77,M,1.29,2,5,0,2,0,*48
$PSIWMATT,001449.600,15.6,T,5.7,1.4,99.3,*7F
$PSIWMVEL,001449.600,15.6,T,0.0,K,0.07,M,*66
$PSIWMVSD,001449.600,-2.39,0.62,-0.14,2,0.02,0.01,-9.93,2,*25
$GPGGA,210316.000,4910.19167,N,12303.95928,W,1,20,0.6,-00.73,M,-16.8,M,,*4E
$GPRMC,210316.000,A,4910.19167,N,12303.95928,W,0.0,0.0,161018,,,A*7C
$GNGSA,A,3,11,24,27,08,18,15,21,10,20,14,32,,1.1,0.6,0.9*21
$GNGSA,A,3,65,88,82,74,81,72,87,73,66,,,,1.1,0.6,0.9*2E
$PSIWMPVT,889.890,248613.999,3,49.1698612,-123.0659880,-0.729,0.010,-0.005,-0.042,5.244,3.742,2.789,0.354,0.000,0.000,4.731,0.020,20,*1E
$PSIWMPOS,001450.600,4910.19168,N,12303.95928,W,2.04,-0.77,M,1.29,2,5,0,2,0,*41
$PSIWMATT,001450.600,15.6,T,5.7,1.4,99.2,*76
$PSIWMVEL,001450.600,15.6,T,0.0,K,0.06,M,*6F
$PSIWMVSD,001450.600,-2.43,0.59,-0.13,2,0.01,-0.03,-10.00,2,*31
$GPGGA,210317.000,4910.19167,N,12303.95928,W,1,20,0.6,-00.73,M,-16.8,M,,*4F
$GPRMC,210317.000,A,4910.19167,N,12303.95928,W,0.0,0.0,161018,,,A*7D
$GNGSA,A,3,11,24,27,08,18,15,21,10,20,14,32,,1.1,0.6,0.9*21
$GNGSA,A,3,65,88,82,74,81,72,87,73,66,,,,1.1,0.6,0.9*2E
$PSIWMPVT,890.890,248614.999,3,49.1698612,-123.0659880,-0.729,0.001,-0.008,-0.041,5.244,3.742,2.844,0.354,0.000,0.000,4.826,0.023,20,*1B
$PSIWMPOS,001451.600,4910.19168,N,12303.95928,W,2.04,-0.85,M,1.29,2,5,0,2,0,*4D
$PSIWMATT,001451.600,15.6,T,5.7,1.4,99.1,*74
$PSIWMVEL,001451.600,15.6,T,0.1,K,0.06,M,*6F
$PSIWMVSD,001451.600,-2.34,0.75,-0.12,2,0.01,-0.00,-9.97,2,*0A
$GPGGA,210318.000,4910.19167,N,12303.95928,W,1,20,0.6,-00.73,M,-16.8,M,,*40
$GPRMC,210318.000,A,4910.19167,N,12303.95928,W,0.0,0.0,161018,,,A*72
$GNGSA,A,3,11,24,27,08,18,15,21,10,20,14,32,,1.1,0.6,0.9*21
$GNGSA,A,3,65,88,82,74,81,72,87,73,66,,,,1.1,0.6,0.9*2E
$PSIWMPVT,891.890,248615.999,3,49.1698612,-123.0659880,-0.729,-0.004,0.011,-0.033,5.244,3.742,2.238,0.354,0.000,0.000,3.801,0.027,20,*14
$PSIWMPOS,001452.600,4910.19168,N,12303.95928,W,2.04,-0.92,M,1.29,2,5,0,2,0,*48
$PSIWMATT,001452.600,15.6,T,5.7,1.4,99.0,*76
$PSIWMVEL,001452.600,15.6,T,0.0,K,0.05,M,*6E
$PSIWMVSD,001452.600,-2.42,0.76,-0.09,2,0.01,-0.00,-9.99,2,*0F
$GPGGA,210319.000,4910.19167,N,12303.95928,W,1,20,0.6,-00.73,M,-16.8,M,,*41
$GPRMC,210319.000,A,4910.19167,N,12303.95928,W,0.0,0.0,161018,,,A*73
$GNGSA,A,3,11,24,27,08,18,15,21,10,20,14,32,,1.1,0.6,0.9*21
$GNGSA,A,3,65,88,82,74,81,72,87,73,66,,,,1.1,0.6,0.9*2E
$PSIWMPVT,892.890,248617.000,3,49.1698612,-123.0659880,-0.729,0.012,0.002,-0.041,5.292,3.808,1.797,0.354,0.000,0.000,3.049,0.020,20,*3B
$PSIWMPOS,001453.600,4910.19168,N,12303.95928,W,2.05,-0.49,M,1.29,2,5,0,2,0,*4E
$PSIWMATT,001453.600,15.6,T,5.7,1.5,99.0,*76
$PSIWMVEL,001453.600,15.6,T,0.1,K,0.05,M,*6E
$PSIWMVSD,001453.600,-2.38,0.73,-0.18,2,0.02,0.01,-10.01,2,*10
$GPGGA,210320.000,4910.19167,N,12303.95928,W,1,20,0.6,-00.73,M,-16.8,M,,*4B
$GPRMC,210320.000,A,4910.19167,N,12303.95928,W,0.0,0.0,161018,,,A*79
$GNGSA,A,3,11,24,27,08,18,15,21,10,20,14,32,,1.1,0.6,0.9*21
$GNGSA,A,3,65,88,82,74,81,72,87,73,66,,,,1.1,0.6,0.9*2E
$PSIWMPVT,893.890,248617.999,3,49.1698612,-123.0659880,-0.729,0.009,0.005,-0.041,5.292,3.808,1.734,0.354,0.000,0.000,2.943,0.027,20,*32
$PSIWMPOS,001454.600,4910.19168,N,12303.95928,W,2.05,-0.68,M,1.29,2,5,0,2,0,*4A
$PSIWMATT,001454.600,15.6,T,5.7,1.5,98.9,*79
$PSIWMVEL,001454.600,15.6,T,0.1,K,0.04,M,*68
$PSIWMVSD,001454.600,-2.42,0.68,-0.14,2,0.02,0.00,-9.98,2,*25
$GPGGA,210321.000,4910.19167,N,12303.95928,W,1,20,0.6,-00.73,M,-16.8,M,,*4A
$GPRMC,210321.000,A,4910.19167,N,12303.95928,W,0.0,0.0,161018,,,A*78
$GNGSA,A,3,11,24,27,08,18,15,21,10,20,14,32,,1.1,0.6,0.9*21
$GNGSA,A,3,65,88,82,74,81,72,87,73,66,,,,1.1,0.6,0.9*2E
$PSIWMPVT,894.890,248618.999,3,49.1698612,-123.0659880,-0.729,0.005,0.004,-0.047,5.292,3.808,1.820,0.354,0.000,0.000,3.089,0.023,20,*31
$PSIWMPOS,001455.600,4910.19168,N,12303.95928,W,2.05,-0.76,M,1.29,2,5,0,2,0,*44
$PSIWMATT,001455.600,15.7,T,5.7,1.5,98.8,*78
$PSIWMVEL,001455.600,15.7,T,0.1,K,0.04,M,*68
$PSIWMVSD,001455.600,-2.40,0.66,-0.12,2,0.02,0.01,-10.00,2,*16
$GPGGA,210322.000,4910.19167,N,12303.95928,W,1,20,0.6,-00.73,M,-16.8,M,,*49
$GPRMC,210322.000,A,4910.19167,N,12303.95928,W,0.0,0.0,161018,,,A*7B
$GNGSA,A,3,11,24,27,08,18,15,21,10,20,14,32,,1.1,0.6,0.9*21
$GNGSA,A,3,65,88,82,74,81,72,87,73,66,,,,1.1,0.6,0.9*2E
$PSIWMPVT,895.890,248619.999,3,49.1698612,-123.0659880,-0.729,0.000,0.006,-0.047,5.292,3.808,2.242,0.354,0.000,0.000,3.802,0.020,20,*33
$PSIWMPOS,001456.600,4910.19168,N,12303.95928,W,2.05,-0.68,M,1.29,2,5,0,2,0,*48
$PSIWMATT,001456.600,15.7,T,5.7,1.5,98.6,*75
$PSIWMVEL,001456.600,15.7,T,0.1,K,0.04,M,*6B
$PSIWMVSD,001456.600,-2.39,0.63,-0.12,2,0.01,0.02,-9.97,2,*28
$GPGGA,210323.000,4910.19167,N,12303.95928,W,1,20,0.6,-00.73,M,-16.8,M,,*48
$GPRMC,210323.000,A,4910.19167,N,12303.95928,W,0.0,0.0,161018,,,A*7A
$GNGSA,A,3,11,24,27,08,18,15,21,10,20,14,32,,1.1,0.6,0.9*21
$GNGSA,A,3,65,88,82,74,81,72,87,73,66,,,,1.1,0.6,0.9*2E
$PSIWMPVT,896.890,248621.000,3,49.1698612,-123.0659880,-0.729,0.013,0.007,-0.041,5.292,3.808,2.555,0.354,0.000,0.000,4.336,0.023,20,*3E
$PSIWMPOS,001457.600,4910.19168,N,12303.95928,W,2.05,-0.76,M,1.29,2,5,0,2,0,*46
$PSIWMATT,001457.600,15.7,T,5.7,1.4,98.5,*76
$PSIWMVEL,001457.600,15.7,T,0.0,K,0.04,M,*6B
$PSIWMVSD,001457.600,-2.42,0.67,-0.16,2,-0.01,0.02,-10.02,2,*3C
$GPGGA,210324.000,4910.19167,N,12303.95928,W,1,20,0.6,-00.73,M,-16.8,M,,*4F
$GPRMC,210324.000,A,4910.19167,N,12303.95928,W,0.0,0.0,161018,,,A*7D
$GNGSA,A,3,11,24,27,08,18,15,21,10,20,14,32,,1.1,0.6,0.9*21
$GNGSA,A,3,65,88,82,74,81,72,87,73,66,,,,1.1,0.6,0.9*2E
$PSIWMPVT,897.890,248621.999,3,49.1698612,-123.0659880,-0.729,0.010,-0.019,-0.037,5.339,3.873,2.836,0.354,0.000,0.000,4.813,0.020,20,*1D
$PSIWMPOS,001458.600,4910.19167,N,12303.95928,W,2.05,-0.76,M,1.29,2,5,0,2,0,*46
$PSIWMATT,001458.600,15.7,T,5.7,1.5,98.4,*79
$PSIWMVEL,001458.600,15.7,T,0.0,K,0.04,M,*64
$PSIWMVSD,001458.600,-2.39,0.75,-0.12,2,0.00,0.00,-9.99,2,*2C
$GPGGA,210325.000,4910.19167,N,12303.95928,W,1,20,0.6,-00.73,M,-16.8,M,,*4E
$GPRMC,210325.000,A,4910.19167,N,12303.95928,W,0.0,0.0,161018,,,A*7C
$GNGSA,A,3,11,24,27,08,18,15,21,10,20,14,32,,1.1,0.6,0.9*21
$GNGSA,A,3,65,88,82,74,81,72,87,73,66,,,,1.1,0.6,0.9*2E
$PSIWMPVT,898.890,248622.999,3,49.1698612,-123.0659880,-0.729,0.010,-0.008,-0.038,5.339,3.873,2.305,0.354,0.000,0.000,3.913,0.020,20,*13
$PSIWMPOS,001459.600,4910.19168,N,12303.95928,W,2.05,-0.59,M,1.29,2,5,0,2,0,*45
$PSIWMATT,001459.600,15.8,T,5.7,1.4,98.4,*76
$PSIWMVEL,001459.600,15.8,T,0.0,K,0.04,M,*6A
$PSIWMVSD,001459.600,-2.45,0.72,-0.15,2,-0.00,-0.00,-10.00,2,*1E
$GPGGA,210326.000,4910.19167,N,12303.95928,W,1,20,0.6,-00.73,M,-16.8,M,,*4D
$GPRMC,210326.000,A,4910.19167,N,12303.95928,W,0.0,0.0,161018,,,A*7F
$GNGSA,A,3,11,24,27,08,18,15,21,10,20,14,32,,1.1,0.6,0.9*21
$GNGSA,A,3,65,88,82,74,81,72,87,73,66,,,,1.1,0.6,0.9*2E
$PSIWMPVT,899.890,248624.000,3,49.1698612,-123.0659880,-0.729,0.003,0.004,-0.046,5.339,3.873,2.152,0.354,0.000,0.000,3.653,0.020,20,*3C
$PSIWMPOS,001500.600,4910.19168,N,12303.95928,W,2.05,-0.85,M,1.29,2,5,0,2,0,*49
$PSIWMATT,001500.600,15.9,T,5.7,1.4,98.4,*7A
$PSIWMVEL,001500.600,15.9,T,0.0,K,0.04,M,*66
$PSIWMVSD,001500.600,-2.41,0.64,-0.14,2,-0.01,-0.01,-10.02,2,*13
$GPGGA,210327.000,4910.19167,N,12303.95928,W,1,20,0.6,-00.73,M,-16.8,M,,*4C
$GPRMC,210327.000,A,4910.19167,N,12303.95928,W,0.0,0.0,161018,,,A*7E
$GNGSA,A,3,11,24,27,08,18,15,21,10,20,14,32,,1.1,0.6,0.9*21
$GNGSA,A,3,65,88,82,74,81,72,87,73,66,,,,1.1,0.6,0.9*2E
$PSIWMPVT,900.890,248625.000,3,49.1698612,-123.0659880,-0.729,-0.013,-0.001,-0.032,5.339,3.873,2.418,0.354,0.000,0.000,4.105,0.023,20,*30
$PSIWMPOS,001501.600,4910.19168,N,12303.95928,W,2.05,-0.43,M,1.29,2,5,0,2,0,*42
$PSIWMATT,001501.600,15.9,T,5.7,1.4,98.3,*7C
$PSIWMVEL,001501.600,15.9,T,0.0,K,0.03,M,*60
$PSIWMVSD,001501.600,-2.40,0.67,-0.12,2,-0.01,0.01,-10.01,2,*38
$GPGGA,210328.000,4910.19167,N,12303.95928,W,1,20,0.6,-00.73,M,-16.8,M,,*43
$GPRMC,210328.000,A,4910.19167,N,12303.95928,W,0.0,0.0,161018,,,A*71
$GNGSA,A,3,11,24,27,08,18,15,21,10,20,14,32,,1.1,0.6,0.9*21
$GNGSA,A,3,65,88,82,74,81,72,87,73,66,,,,1.1,0.6,0.9*2E
$PSIWMPVT,901.890,248626.000,3,49.1698612,-123.0659880,-0.729,-0.004,-0.003,-0.036,5.339,3.873,2.695,0.354,0.000,0.000,4.573,0.016,20,*36
$PSIWMPOS,001502.600,4910.19167,N,12303.95928,W,2.05,-0.77,M,1.29,2,5,0,2,0,*49
$PSIWMATT,001502.600,15.9,T,5.7,1.4,98.3,*7F
$PSIWMVEL,001502.600,15.9,T,0.0,K,0.03,M,*63
$PSIWMVSD,001502.600,-2.43,0.63,-0.15,2,-0.01,0.00,-9.99,2,*03
$GPGGA,210329.000,4910.19167,N,12303.95928,W,1,20,0.6,-00.73,M,-16.8,M,,*42
$GPRMC,210329.000,A,4910.19167,N,12303.95928,W,0.0,0.0,161018,,,A*70
$GNGSA,A,3,11,24,27,08,18,15,21,10,20,14,32,,1.1,0.6,0.9*21
$GNGSA,A,3,65,88,82,74,81,72,87,73,66,,,,1.1,0.6,0.9*2E
$PSIWMPVT,902.890,248626.999,3,49.1698612,-123.0659880,-0.729,0.013,0.000,-0.048,5.385,3.937,3.188,0.354,0.000,0.000,5.405,0.023,20,*3B
$PSIWMPOS,001503.600,4910.19168,N,12303.95928,W,2.05,-0.69,M,1.29,2,5,0,2,0,*48
$PSIWMATT,001503.600,15.9,T,5.7,1.4,98.3,*7E
$PSIWMVEL,001503.600,15.9,T,0.0,K,0.02,M,*63
$PSIWMVSD,001503.600,-2.33,0.63,-0.12,2,0.01,-0.01,-9.97,2,*0D
$GPGGA,210330.000,4910.19167,N,12303.95928,W,1,20,0.6,-00.73,M,-16.8,M,,*4A
$GPRMC,210330.000,A,4910.19167,N,12303.95928,W,0.0,0.0,161018,,,A*78
$GNGSA,A,3,11,24,27,08,18,15,21,10,20,14,32,,1.1,0.6,0.9*21
$GNGSA,A,3,65,88,82,74,81,72,87,73,66,,,,1.1,0.6,0.9*2E
$PSIWMPVT,903.890,248628.000,3,49.1698612,-123.0659880,-0.729,0.006,-0.000,-0.048,5.385,3.937,3.793,0.354,0.000,0.000,6.436,0.020,20,*18
$PSIWMPOS,001504.600,4910.19168,N,12303.95928,W,2.05,-0.61,M,1.29,2,5,0,2,0,*47
$PSIWMATT,001504.600,15.9,T,5.7,1.4,98.3,*79
$PSIWMVEL,001504.600,15.9,T,0.0,K,0.02,M,*64
$PSIWMVSD,001504.600,-2.41,0.78,-0.13,2,0.02,0.02,-9.96,2,*28
$GPGGA,210331.000,4910.19167,N,12303.95928,W,1,20,0.6,-00.73,M,-16.8,M,,*4B
$GPRMC,210331.000,A,4910.19167,N,12303.95928,W,0.0,0.0,161018,,,A*79
$GNGSA,A,3,11,24,27,08,18,15,21,10,20,14,32,,1.1,0.6,0.9*21
$GNGSA,A,3,65,88,82,74,81,72,87,73,66,,,,1.1,0.6,0.9*2E
$PSIWMPVT,904.890,248629.000,3,49.1698612,-123.0659880,-0.729,-0.003,-0.003,-0.043,5.385,3.937,3.625,0.354,0.000,0.000,6.149,0.020,20,*3F
$PSIWMPOS,001505.600,4910.19168,N,12303.95928,W,2.05,-0.86,M,1.29,2,5,0,2,0,*4F
$PSIWMATT,001505.600,15.9,T,5.7,1.4,98.3,*78
$PSIWMVEL,001505.600,15.9,T,0.0,K,0.03,M,*64
$PSIWMVSD,001505.600,-2.42,0.70,-0.12,2,-0.00,0.00,-9.98,2,*00
$GPGGA,210332.000,4910.19167,N,12303.95928,W,1,20,0.6,-00.73,M,-16.8,M,,*48
$GPRMC,210332.000,A,4910.19167,N,12303.95928,W,0.0,0.0,161018,,,A*7A
$GNGSA,A,3,11,24,27,08,18,15,21,10,20,14,32,,1.1,0.6,0.9*21
$GNGSA,A,3,65,88,82,74,81,72,87,73,66,,,,1.1,0.6,0.9*2E
$PSIWMPVT,905.890,248630.000,3,49.1698612,-123.0659880,-0.729,0.002,0.016,-0.034,5.385,3.937,3.137,0.354,0.000,0.000,5.322,0.031,20,*3B
