$GNGSA,A,3,24,27,08,14,15,20,21,10,18,32,,,1.1,0.6,0.9*21
$GNGSA,A,3,87,73,72,81,66,88,65,,,,,,1.1,0.6,0.9*27
$PSIWMPVT,8397.330,246115.999,3,49.1720992,-123.0701287,9.602,0.008,0.020,-0.038,5.099,3.606,2.762,0.707,0.000,0.612,4.311,0.023,17,*2A
$PSIWMPOS,021957.500,4910.32595,N,12304.20772,W,8.65,9.60,M,6.12,0,2,0,2,0,*68
$PSIWMATT,021957.500,360.0,T,0.7,0.2,180.0,*73
$PSIWMVEL,021957.500,360.0,T,0.0,K,-0.00,M,*78
$PSIWMVSD,021957.500,0.00,0.00,0.00,2,0.00,0.00,0.00,2,*02
$GPGGA,202139.000,4910.32595,N,12304.20772,W,1,17,0.6,009.60,M,-16.8,M,,*58
$GPRMC,202139.000,A,4910.32595,N,12304.20772,W,0.0,0.0,161018,,,A*78
$GNGSA,A,3,24,27,08,14,15,20,21,10,18,32,,,1.1,0.6,0.9*21
$GNGSA,A,3,87,73,72,81,66,88,65,,,,,,1.1,0.6,0.9*27
$PSIWMPVT,8398.330,246116.999,3,49.1720992,-123.0701287,9.602,-0.008,-0.010,-0.041,5.148,3.606,2.285,0.707,0.000,0.612,3.572,0.023,17,*2E
$PSIWMPOS,021958.500,4910.32595,N,12304.20772,W,8.74,9.60,M,6.18,0,2,0,2,0,*6D
$PSIWMATT,021958.500,360.0,T,0.7,0.2,180.0,*7C
$PSIWMVEL,021958.500,360.0,T,0.0,K,-0.00,M,*77
$PSIWMVSD,021958.500,0.00,0.00,0.00,2,0.00,0.00,0.00,2,*0D
$GPGGA,202140.000,4910.32595,N,12304.20772,W,1,17,0.6,009.60,M,-16.8,M,,*56
$GPRMC,202140.000,A,4910.32595,N,12304.20772,W,0.0,0.0,161018,,,A*76
$GNGSA,A,3,24,27,08,14,15,20,21,10,18,32,,,1.1,0.6,0.9*21
$GNGSA,A,3,87,73,72,81,66,88,65,,,,,,1.1,0.6,0.9*27
$PSIWMPVT,8399.330,246117.999,3,49.1720992,-123.0701287,9.602,-0.018,-0.016,-0.052,5.148,3.674,2.168,0.707,0.000,0.612,3.387,0.023,17,*22
$PSIWMPOS,021959.500,4910.32595,N,12304.20772,W,8.74,9.60,M,6.18,0,2,0,2,0,*6C
$PSIWMATT,021959.500,360.0,T,0.7,0.2,180.0,*7D
$PSIWMVEL,021959.500,360.0,T,0.0,K,-0.00,M,*76
$PSIWMVSD,021959.500,0.00,0.00,0.00,2,0.00,0.00,0.00,2,*0C
$GPGGA,202141.000,4910.32595,N,12304.20772,W,1,17,0.6,009.60,M,-16.8,M,,*57
$GPRMC,202141.000,A,4910.32595,N,12304.20772,W,0.0,0.0,161018,,,A*77
$GNGSA,A,3,24,27,08,14,15,20,21,10,18,32,,,1.1,0.6,0.9*21
$GNGSA,A,3,87,73,72,81,66,88,65,,,,,,1.1,0.6,0.9*27
$PSIWMPVT,8400.330,246118.999,3,49.1720992,-123.0701287,9.602,-0.011,-0.006,-0.057,5.148,3.674,2.262,0.707,0.000,0.612,3.533,0.020,17,*24
$PSIWMPOS,022000.500,4910.32595,N,12304.20772,W,8.74,9.60,M,6.18,0,2,0,2,0,*6A
$PSIWMATT,022000.500,360.0,T,0.7,0.2,180.0,*7B
$PSIWMVEL,022000.500,360.0,T,0.0,K,-0.00,M,*70
$PSIWMVSD,022000.500,0.00,0.00,0.00,2,0.00,0.00,0.00,2,*0A
$GPGGA,202142.000,4910.32595,N,12304.20772,W,1,17,0.6,009.60,M,-16.8,M,,*54
$GPRMC,202142.000,A,4910.32595,N,12304.20772,W,0.0,0.0,161018,,,A*74
$GNGSA,A,3,24,27,08,14,15,20,21,10,18,32,,,1.1,0.6,0.9*21
$GNGSA,A,3,87,73,72,81,66,88,65,,,,,,1.1,0.6,0.9*27
$PSIWMPVT,8401.330,246119.999,3,49.1720992,-123.0701287,9.602,-0.007,-0.000,-0.063,5.148,3.674,2.535,0.612,0.000,0.500,3.961,0.027,17,*2E
$PSIWMPOS,022001.500,4910.32595,N,12304.20772,W,8.74,9.60,M,6.18,0,2,0,2,0,*6B
$PSIWMATT,022001.500,360.0,T,0.7,0.2,180.0,*7A
$PSIWMVEL,022001.500,360.0,T,0.0,K,-0.00,M,*71
$PSIWMVSD,022001.500,0.00,0.00,0.00,2,0.00,0.00,0.00,2,*0B
$GPGGA,202143.000,4910.32595,N,12304.20772,W,1,17,0.6,009.60,M,-16.8,M,,*55
$GPRMC,202143.000,A,4910.32595,N,12304.20772,W,0.0,0.0,161018,,,A*75
$GNGSA,A,3,24,27,08,14,15,20,21,10,18,32,,,1.1,0.6,0.9*21
$GNGSA,A,3,87,73,72,81,66,88,65,,,,,,1.1,0.6,0.9*27
$PSIWMPVT,8402.330,246121.000,3,49.1720992,-123.0701287,9.602,-0.002,-0.003,-0.070,5.148,3.674,2.770,0.612,0.000,0.500,4.325,0.027,17,*25
$PSIWMPOS,022002.500,4910.32595,N,12304.20772,W,8.74,9.60,M,6.18,0,2,0,2,0,*68
$PSIWMATT,022002.500,360.0,T,0.7,0.2,180.0,*79
$PSIWMVEL,022002.500,360.0,T,0.0,K,-0.00,M,*72
$PSIWMVSD,022002.500,0.00,0.00,0.00,2,0.00,0.00,0.00,2,*08
$GPGGA,202144.000,4910.32595,N,12304.20772,W,1,17,0.6,009.60,M,-16.8,M,,*52
$GPRMC,202144.000,A,4910.32595,N,12304.20772,W,0.0,0.0,161018,,,A*72
$GNGSA,A,3,24,27,08,14,15,20,21,10,18,32,,,1.1,0.6,0.9*21
$GNGSA,A,3,87,73,72,81,66,88,65,,,,,,1.1,0.6,0.9*27
$PSIWMPVT,8403.330,246121.999,3,49.1720992,-123.0701287,9.602,-0.006,0.011,-0.067,5.196,3.674,2.777,0.612,0.000,0.500,4.341,0.023,17,*03
$PSIWMPOS,022003.500,4910.32595,N,12304.20772,W,8.82,9.60,M,6.24,0,2,0,2,0,*6F
$PSIWMATT,022003.500,360.0,T,0.7,0.2,180.0,*78
$PSIWMVEL,022003.500,360.0,T,0.0,K,-0.00,M,*73
$PSIWMVSD,022003.500,0.00,0.00,0.00,2,0.00,0.00,0.00,2,*09
$GPGGA,202145.000,4910.32595,N,12304.20772,W,1,17,0.6,009.60,M,-16.8,M,,*53
$GPRMC,202145.000,A,4910.32595,N,12304.20772,W,0.0,0.0,161018,,,A*73
$GNGSA,A,3,24,27,08,14,15,20,21,10,18,32,,,1.1,0.6,0.9*21
$GNGSA,A,3,87,73,72,81,66,88,65,,,,,,1.1,0.6,0.9*27
$PSIWMPVT,8404.330,246122.999,3,49.1720992,-123.0701287,9.602,-0.001,-0.002,-0.063,5.196,3.742,2.766,0.612,0.000,0.500,4.323,0.023,17,*2B
$PSIWMPOS,022004.500,4910.32595,N,12304.20772,W,8.82,9.60,M,6.24,0,2,0,2,0,*68
$PSIWMATT,022004.500,360.0,T,0.7,0.2,180.0,*7F
$PSIWMVEL,022004.500,360.0,T,0.0,K,-0.00,M,*74
$PSIWMVSD,022004.500,0.00,0.00,0.00,2,0.00,0.00,0.00,2,*0E
$GPGGA,202146.000,4910.32595,N,12304.20772,W,1,17,0.6,009.60,M,-16.8,M,,*50
$GPRMC,202146.000,A,4910.32595,N,12304.20772,W,0.0,0.0,161018,,,A*70
$GNGSA,A,3,24,27,08,14,15,20,21,10,18,32,,,1.1,0.6,0.9*21
$GNGSA,A,3,87,73,72,81,66,88,65,,,,,,1.1,0.6,0.9*27
$PSIWMPVT,8405.330,246124.000,3,49.1720992,-123.0701287,9.602,-0.006,0.001,-0.062,5.196,3.742,2.734,0.612,0.000,0.500,4.271,0.027,17,*08
$PSIWMPOS,022005.500,4910.32595,N,12304.20772,W,8.82,9.60,M,6.24,0,2,0,2,0,*69
$PSIWMATT,022005.500,360.0,T,0.7,0.2,180.0,*7E
$PSIWMVEL,022005.500,360.0,T,0.0,K,-0.00,M,*75
$PSIWMVSD,022005.500,0.00,0.00,0.00,2,0.00,0.00,0.00,2,*0F
$GPGGA,202147.000,4910.32595,N,12304.20772,W,1,17,0.6,009.60,M,-16.8,M,,*51
$GPRMC,202147.000,A,4910.32595,N,12304.20772,W,0.0,0.0,161018,,,A*71
$GNGSA,A,3,24,27,08,14,15,20,21,10,18,32,,,1.1,0.6,0.9*21
$GNGSA,A,3,87,73,72,81,66,88,65,,,,,,1.1,0.6,0.9*27
$PSIWMPVT,8406.330,246125.000,3,49.1720992,-123.0701287,9.602,-0.004,-0.003,-0.053,5.196,3.742,2.914,0.612,0.000,0.500,4.552,0.023,17,*2B
$PSIWMPOS,022006.500,4910.32595,N,12304.20772,W,8.82,9.60,M,6.24,0,2,0,2,0,*6A
$PSIWMATT,022006.500,360.0,T,0.7,0.2,180.0,*7D
$PSIWMVEL,022006.500,360.0,T,0.0,K,-0.00,M,*76
$PSIWMVSD,022006.500,0.00,0.00,0.00,2,0.00,0.00,0.00,2,*0C
$GPGGA,202148.000,4910.32595,N,12304.20772,W,1,17,0.6,009.60,M,-16.8,M,,*5E
$GPRMC,202148.000,A,4910.32595,N,12304.20772,W,0.0,0.0,161018,,,A*7E
$GNGSA,A,3,24,27,08,14,15,20,21,10,18,32,,,1.1,0.6,0.9*21
$GNGSA,A,3,87,73,72,81,66,88,65,,,,,,1.1,0.6,0.9*27
$PSIWMPVT,8407.330,246125.999,3,49.1720992,-123.0701287,9.602,-0.004,0.008,-0.051,5.196,3.742,2.926,0.612,0.000,0.500,4.568,0.020,17,*0C
$PSIWMPOS,022007.500,4910.32595,N,12304.20772,W,8.82,9.60,M,6.24,0,2,0,2,0,*6B
$PSIWMATT,022007.500,360.0,T,0.7,0.2,180.0,*7C
$PSIWMVEL,022007.500,360.0,T,0.0,K,-0.00,M,*77
$PSIWMVSD,022007.500,0.00,0.00,0.00,2,0.00,0.00,0.00,2,*0D
$GPGGA,202149.000,4910.32595,N,12304.20772,W,1,17,0.6,009.60,M,-16.8,M,,*5F
$GPRMC,202149.000,A,4910.32595,N,12304.20772,W,0.0,0.0,161018,,,A*7F
$GNGSA,A,3,24,27,08,14,15,20,21,10,18,32,,,1.1,0.6,0.9*21
$GNGSA,A,3,87,73,72,81,66,88,65,,,,,,1.1,0.6,0.9*27
$PSIWMPVT,8408.330,246126.999,3,49.1720992,-123.0701287,9.602,-0.006,-0.016,-0.052,5.244,3.742,2.758,0.612,0.000,0.500,4.306,0.023,17,*25
$PSIWMPOS,022008.500,4910.32595,N,12304.20772,W,8.90,9.60,M,6.29,0,2,0,2,0,*6A
$PSIWMATT,022008.500,360.0,T,0.7,0.2,180.0,*73
$PSIWMVEL,022008.500,360.0,T,0.0,K,-0.00,M,*78
$PSIWMVSD,022008.500,0.00,0.00,0.00,2,0.00,0.00,0.00,2,*02
$GPGGA,202150.000,4910.32595,N,12304.20772,W,1,17,0.6,009.60,M,-16.8,M,,*57
$GPRMC,202150.000,A,4910.32595,N,12304.20772,W,0.1,0.0,161018,,,A*76
$GNGSA,A,3,24,27,08,14,15,20,21,10,18,32,,,1.1,0.6,0.9*21
$GNGSA,A,3,87,73,72,81,66,88,65,,,,,,1.1,0.6,0.9*27
$PSIWMPVT,8409.330,246128.000,3,49.1720992,-123.0701287,9.602,0.020,0.019,-0.038,5.244,3.808,3.121,0.612,0.000,0.500,4.876,0.027,17,*24
$PSIWMPOS,022009.500,4910.32595,N,12304.20772,W,8.90,9.60,M,6.29,0,2,0,2,0,*6B
$PSIWMATT,022009.500,360.0,T,0.7,0.2,180.0,*72
$PSIWMVEL,022009.500,360.0,T,0.0,K,-0.00,M,*79
$PSIWMVSD,022009.500,0.00,0.00,0.00,2,0.00,0.00,0.00,2,*03
$GPGGA,202151.000,4910.32595,N,12304.20772,W,1,17,0.6,009.60,M,-16.8,M,,*56
$GPRMC,202151.000,A,4910.32595,N,12304.20772,W,0.0,0.0,161018,,,A*76
$GNGSA,A,3,24,27,08,14,15,20,21,10,18,32,,,1.1,0.6,0.9*21
$GNGSA,A,3,87,73,72,81,66,88,65,,,,,,1.1,0.6,0.9*27
$PSIWMPVT,8410.330,246129.000,3,49.1720992,-123.0701287,9.602,-0.016,-0.019,-0.052,5.244,3.808,3.391,0.612,0.000,0.500,5.298,0.023,17,*22
$PSIWMPOS,022010.500,4910.32595,N,12304.20772,W,8.90,9.60,M,6.29,0,2,0,2,0,*63
$PSIWMATT,022010.500,360.0,T,0.7,0.2,180.0,*7A
$PSIWMVEL,022010.500,360.0,T,0.0,K,-0.00,M,*71
$PSIWMVSD,022010.500,0.00,0.00,0.00,2,0.00,0.00,0.00,2,*0B
$GPGGA,202152.000,4910.32595,N,12304.20772,W,1,17,0.6,009.60,M,-16.8,M,,*55
$GPRMC,202152.000,A,4910.32595,N,12304.20772,W,0.0,0.0,161018,,,A*75
$GNGSA,A,3,24,27,08,14,15,20,21,10,18,32,,,1.1,0.6,0.9*21
$GNGSA,A,3,87,73,72,81,66,88,65,,,,,,1.1,0.6,0.9*27
$PSIWMPVT,8411.330,246130.000,3,49.1720992,-123.0701287,9.602,0.006,0.009,-0.048,5.244,3.808,3.621,0.612,0.000,0.500,5.654,0.020,17,*29
$PSIWMPOS,022011.500,4910.32595,N,12304.20772,W,8.90,9.60,M,6.29,0,2,0,2,0,*62
$PSIWMATT,022011.500,360.0,T,0.7,0.2,180.0,*7B
$PSIWMVEL,022011.500,360.0,T,0.0,K,-0.00,M,*70
$PSIWMVSD,022011.500,0.00,0.00,0.00,2,0.00,0.00,0.00,2,*0A
$GPGGA,202153.000,4910.32595,N,12304.20772,W,1,17,0.6,009.60,M,-16.8,M,,*54
$GPRMC,202153.000,A,4910.32595,N,12304.20772,W,0.0,0.0,161018,,,A*74
$GNGSA,A,3,24,27,08,14,15,20,21,10,18,32,,,1.1,0.6,0.9*21
$GNGSA,A,3,87,73,72,81,66,88,65,,,,,,1.1,0.6,0.9*27
$PSIWMPVT,8412.330,246130.999,3,49.1720992,-123.0701287,9.602,0.007,0.000,-0.039,5.244,3.808,3.246,0.612,0.000,0.500,5.071,0.016,17,*2C
$PSIWMPOS,022012.500,4910.32595,N,12304.20772,W,8.90,9.60,M,6.29,0,2,0,2,0,*61
$PSIWMATT,022012.500,360.0,T,0.7,0.2,180.0,*78
$PSIWMVEL,022012.500,360.0,T,0.0,K,-0.00,M,*73
$PSIWMVSD,022012.500,0.00,0.00,0.00,2,0.00,0.00,0.00,2,*09
$GPGGA,202154.000,4910.32595,N,12304.20772,W,1,17,0.6,009.60,M,-16.8,M,,*53
$GPRMC,202154.000,A,4910.32595,N,12304.20772,W,0.0,0.0,161018,,,A*73
$GNGSA,A,3,24,27,08,14,15,20,21,10,18,32,,,1.1,0.6,0.9*21
$GNGSA,A,3,87,73,72,81,66,88,65,,,,,,1.1,0.6,0.9*27
$PSIWMPVT,8413.330,246132.000,3,49.1720992,-123.0701287,9.602,0.010,0.019,-0.027,5.292,3.808,3.828,0.612,0.000,0.500,5.979,0.027,17,*2D
$PSIWMPOS,022013.500,4910.32595,N,12304.20772,W,8.98,9.60,M,6.35,0,2,0,2,0,*65
$PSIWMATT,022013.500,360.0,T,0.7,0.2,180.0,*79
$PSIWMVEL,022013.500,360.0,T,0.0,K,-0.00,M,*72
$PSIWMVSD,022013.500,0.00,0.00,0.00,2,0.00,0.00,0.00,2,*08
$GPGGA,202155.000,4910.32595,N,12304.20772,W,1,17,0.6,009.60,M,-16.8,M,,*52
$GPRMC,202155.000,A,4910.32595,N,12304.20772,W,0.0,0.0,161018,,,A*72
$GNGSA,A,3,24,27,08,14,15,20,21,10,18,32,,,1.1,0.6,0.9*21
$GNGSA,A,3,87,73,72,81,66,88,65,,,,,,1.1,0.6,0.9*27
$PSIWMPVT,8414.330,246133.000,3,49.1720992,-123.0701287,9.602,-0.005,-0.010,-0.037,5.292,3.873,3.465,0.612,0.000,0.500,5.409,0.016,17,*26
$PSIWMPOS,022014.500,4910.32595,N,12304.20772,W,8.98,9.60,M,6.35,0,2,0,2,0,*62
$PSIWMATT,022014.500,360.0,T,0.7,0.2,180.0,*7E
$PSIWMVEL,022014.500,360.0,T,0.0,K,-0.00,M,*75
$PSIWMVSD,022014.500,0.00,0.00,0.00,2,0.00,0.00,0.00,2,*0F
$GPGGA,202156.000,4910.32595,N,12304.20772,W,1,17,0.6,009.60,M,-16.8,M,,*51
$GPRMC,202156.000,A,4910.32595,N,12304.20772,W,0.0,0.0,161018,,,A*71
$GNGSA,A,3,24,27,08,14,15,20,21,10,18,32,,,1.1,0.6,0.9*21
$GNGSA,A,3,87,73,72,81,66,88,65,,,,,,1.1,0.6,0.9*27
$PSIWMPVT,8415.330,246134.000,3,49.1720992,-123.0701287,9.602,-0.001,-0.017,-0.035,5.292,3.873,2.867,0.612,0.000,0.500,4.477,0.020,17,*23
$PSIWMPOS,022015.500,4910.32595,N,12304.20772,W,8.98,9.60,M,6.35,0,2,0,2,0,*63
$PSIWMATT,022015.500,360.0,T,0.7,0.2,180.0,*7F
$PSIWMVEL,022015.500,360.0,T,0.0,K,-0.00,M,*74
$PSIWMVSD,022015.500,0.00,0.00,0.00,2,0.00,0.00,0.00,2,*0E
$GPGGA,202157.000,4910.32595,N,12304.20772,W,1,17,0.6,009.60,M,-16.8,M,,*50
$GPRMC,202157.000,A,4910.32595,N,12304.20772,W,0.0,0.0,161018,,,A*70
$GNGSA,A,3,24,27,08,14,15,20,21,10,18,32,,,1.1,0.6,0.9*21
$GNGSA,A,3,87,73,72,81,66,88,65,,,,,,1.1,0.6,0.9*27
$PSIWMPVT,8416.330,246134.999,3,49.1720992,-123.0701287,9.602,-0.005,-0.007,-0.034,5.292,3.873,3.289,0.612,0.000,0.500,5.136,0.023,17,*24
$PSIWMPOS,022016.500,4910.32595,N,12304.20772,W,8.98,9.60,M,6.35,0,2,0,2,0,*60
$PSIWMATT,022016.500,360.0,T,0.7,0.2,180.0,*7C
$PSIWMVEL,022016.500,360.0,T,0.0,K,-0.00,M,*77
$PSIWMVSD,022016.500,0.00,0.00,0.00,2,0.00,0.00,0.00,2,*0D
$GPGGA,202158.000,4910.32595,N,12304.20772,W,1,17,0.6,009.60,M,-16.8,M,,*5F
$GPRMC,202158.000,A,4910.32595,N,12304.20772,W,0.0,0.0,161018,,,A*7F
$GNGSA,A,3,24,27,08,14,15,20,21,10,18,32,,,1.1,0.6,0.9*21
$GNGSA,A,3,87,73,72,81,66,88,65,,,,,,1.1,0.6,0.9*27
$PSIWMPVT,8417.330,246136.000,3,49.1720992,-123.0701287,9.602,-0.003,-0.007,-0.035,5.292,3.873,3.410,0.612,0.000,0.500,5.329,0.020,17,*20
$PSIWMPOS,022017.500,4910.32595,N,12304.20772,W,8.98,9.60,M,6.35,0,2,0,2,0,*61
$PSIWMATT,022017.500,360.0,T,0.7,0.2,180.0,*7D
$PSIWMVEL,022017.500,360.0,T,0.0,K,-0.00,M,*76
$PSIWMVSD,022017.500,0.00,0.00,0.00,2,0.00,0.00,0.00,2,*0C
$GPGGA,202159.000,4910.32595,N,12304.20772,W,1,17,0.6,009.60,M,-16.8,M,,*5E
$GPRMC,202159.000,A,4910.32595,N,12304.20772,W,0.0,0.0,161018,,,A*7E
$GNGSA,A,3,24,27,08,14,15,20,21,10,18,32,,,1.1,0.6,0.9*21
$GNGSA,A,3,87,73,72,81,66,88,65,,,,,,1.1,0.6,0.9*27
$PSIWMPVT,8418.330,246137.000,3,49.1720992,-123.0701287,9.602,0.005,-0.012,-0.036,5.339,3.873,3.348,0.612,0.000,0.500,5.229,0.016,17,*0C
$PSIWMPOS,022018.500,4910.32595,N,12304.20772,W,9.06,9.60,M,6.41,0,2,0,2,0,*6B
$PSIWMATT,022018.500,360.0,T,0.7,0.2,180.0,*72
$PSIWMVEL,022018.500,360.0,T,0.0,K,-0.00,M,*79
$PSIWMVSD,022018.500,0.00,0.00,0.00,2,0.00,0.00,0.00,2,*03
$GPGGA,202200.000,4910.32595,N,12304.20772,W,1,17,0.6,009.60,M,-16.8,M,,*51
$GPRMC,202200.000,A,4910.32595,N,12304.20772,W,0.0,0.0,161018,,,A*71
$GNGSA,A,3,24,27,08,14,15,20,21,10,18,32,,,1.1,0.6,0.9*21
$GNGSA,A,3,87,73,72,81,66,88,65,,,,,,1.1,0.6,0.9*27
$PSIWMPVT,8419.330,246138.000,3,49.1720992,-123.0701287,9.602,0.005,-0.010,-0.041,5.339,3.937,3.703,0.612,0.000,0.500,5.784,0.016,17,*08
$PSIWMPOS,022019.500,4910.32595,N,12304.20772,W,9.06,9.60,M,6.41,0,2,0,2,0,*6A
$PSIWMATT,022019.500,360.0,T,0.7,0.2,180.0,*73
$PSIWMVEL,022019.500,360.0,T,0.0,K,-0.00,M,*78
$PSIWMVSD,022019.500,0.00,0.00,0.00,2,0.00,0.00,0.00,2,*02
$GPGGA,202201.000,4910.32595,N,12304.20772,W,1,17,0.6,009.60,M,-16.8,M,,*50
$GPRMC,202201.000,A,4910.32595,N,12304.20772,W,0.0,0.0,161018,,,A*70
$GNGSA,A,3,24,27,08,14,15,20,21,10,18,32,,,1.1,0.6,0.9*21
$GNGSA,A,3,87,73,72,81,66,88,65,,,,,,1.1,0.6,0.9*27
$PSIWMPVT,8420.330,246139.000,3,49.1720992,-123.0701287,9.602,-0.001,-0.018,-0.046,5.339,3.937,3.441,0.612,0.000,0.500,5.376,0.020,17,*2C
$PSIWMPOS,022020.500,4910.32595,N,12304.20772,W,9.06,9.60,M,6.41,0,2,0,2,0,*60
$PSIWMATT,022020.500,360.0,T,0.7,0.2,180.0,*79
$PSIWMVEL,022020.500,360.0,T,0.0,K,-0.00,M,*72
$PSIWMVSD,022020.500,0.00,0.00,0.00,2,0.00,0.00,0.00,2,*08
$GPGGA,202202.000,4910.32595,N,12304.20772,W,1,17,0.6,009.60,M,-16.8,M,,*53
$GPRMC,202202.000,A,4910.32595,N,12304.20772,W,0.0,0.0,161018,,,A*73
$GNGSA,A,3,24,27,08,14,15,20,21,10,18,32,,,1.1,0.6,0.9*21
$GNGSA,A,3,87,73,72,81,66,88,65,,,,,,1.1,0.6,0.9*27
$PSIWMPVT,8421.330,246140.000,3,49.1720992,-123.0701287,9.602,-0.002,-0.006,-0.041,5.339,3.937,3.332,0.612,0.000,0.500,5.208,0.023,17,*20
$PSIWMPOS,022021.500,4910.32595,N,12304.20772,W,9.06,9.60,M,6.41,0,2,0,2,0,*61
$PSIWMATT,022021.500,360.0,T,0.7,0.2,180.0,*78
$PSIWMVEL,022021.500,360.0,T,0.0,K,-0.00,M,*73
$PSIWMVSD,022021.500,0.00,0.00,0.00,2,0.00,0.00,0.00,2,*09
$GPGGA,202203.000,4910.32595,N,12304.20772,W,1,17,0.6,009.60,M,-16.8,M,,*52
$GPRMC,202203.000,A,4910.32595,N,12304.20772,W,0.0,0.0,161018,,,A*72
$GNGSA,A,3,24,27,08,14,15,20,21,10,18,32,,,1.1,0.6,0.9*21
$GNGSA,A,3,87,73,72,81,66,88,65,,,,,,1.1,0.6,0.9*27
$PSIWMPVT,8422.330,246141.000,3,49.1720992,-123.0701287,9.602,-0.006,-0.025,-0.043,5.339,3.937,3.301,0.612,0.000,0.500,5.153,0.020,17,*2B
$PSIWMPOS,022022.500,4910.32595,N,12304.20772,W,9.06,9.60,M,6.41,0,2,0,2,0,*62
$PSIWMATT,022022.500,360.0,T,0.7,0.1,180.0,*78
$PSIWMVEL,022022.500,360.0,T,0.0,K,-0.00,M,*70
$PSIWMVSD,022022.500,0.00,0.00,0.00,2,0.00,0.00,0.00,2,*0A
$GPGGA,202204.000,4910.32595,N,12304.20772,W,1,17,0.6,009.60,M,-16.8,M,,*55
$GPRMC,202204.000,A,4910.32595,N,12304.20772,W,0.0,0.0,161018,,,A*75
$GNGSA,A,3,24,27,08,14,15,20,21,10,18,32,,,1.1,0.6,0.9*21
$GNGSA,A,3,87,73,72,81,66,88,65,,,,,,1.1,0.6,0.9*27
$PSIWMPVT,8423.330,246142.000,3,49.1720992,-123.0701287,9.602,-0.006,-0.009,-0.049,5.385,3.937,3.438,0.612,0.000,0.500,5.372,0.023,17,*25
$PSIWMPOS,022023.500,4910.32595,N,12304.20772,W,9.14,9.60,M,6.46,0,2,0,2,0,*67
$PSIWMATT,022023.500,360.0,T,0.7,0.2,180.0,*7A
$PSIWMVEL,022023.500,360.0,T,0.0,K,-0.00,M,*71
$PSIWMVSD,022023.500,0.00,0.00,0.00,2,0.00,0.00,0.00,2,*0B
$GPGGA,202205.000,4910.32550,N,12304.20767,W,1,17,0.6,010.36,M,-16.8,M,,*52
$GPRMC,202205.000,A,4910.32550,N,12304.20767,W,0.1,0.0,161018,,,A*78
$GNGSA,A,3,24,27,08,14,15,20,21,10,18,32,,,1.1,0.6,0.9*21
$GNGSA,A,3,87,73,72,81,66,88,65,,,,,,1.1,0.6,0.9*27
$PSIWMPVT,8424.330,246143.000,3,49.1720917,-123.0701278,10.358,-0.009,-0.026,-0.048,4.950,3.240,2.840,0.612,0.000,0.500,4.437,0.023,17,*12
$PSIWMPOS,022024.500,4910.32550,N,12304.20767,W,8.40,10.36,M,5.94,0,2,0,2,0,*5A
$PSIWMATT,022024.500,360.0,T,0.7,0.1,180.0,*7E
$PSIWMVEL,022024.500,360.0,T,0.0,K,-0.00,M,*76
$PSIWMVSD,022024.500,0.00,0.00,0.00,2,0.00,0.00,0.00,2,*0C
$GPGGA,202206.000,4910.32550,N,12304.20767,W,1,17,0.6,010.36,M,-16.8,M,,*51
$GPRMC,202206.000,A,4910.32550,N,12304.20767,W,0.0,0.0,161018,,,A*7A
$GNGSA,A,3,24,27,08,14,15,20,21,10,18,32,,,1.1,0.6,0.9*21
$GNGSA,A,3,87,73,72,81,66,88,65,,,,,,1.1,0.6,0.9*27
$PSIWMPVT,8425.330,246144.000,3,49.1720917,-123.0701278,10.358,-0.009,-0.019,-0.040,4.950,3.240,3.047,0.612,0.000,0.500,4.758,0.020,17,*17
$PSIWMPOS,022025.500,4910.32550,N,12304.20767,W,8.40,10.36,M,5.94,0,2,0,2,0,*5B
$PSIWMATT,022025.500,360.0,T,0.7,0.1,180.0,*7F
$PSIWMVEL,022025.500,360.0,T,0.0,K,-0.00,M,*77
$PSIWMVSD,022025.500,0.00,0.00,0.00,2,0.00,0.00,0.00,2,*0D
$GPGGA,202207.000,4910.32550,N,12304.20767,W,1,17,0.6,010.36,M,-16.8,M,,*50
$GPRMC,202207.000,A,4910.32550,N,12304.20767,W,0.0,0.0,161018,,,A*7B
$GNGSA,A,3,24,27,08,14,15,20,21,10,18,32,,,1.1,0.6,0.9*21
$GNGSA,A,3,87,73,72,81,66,88,65,,,,,,1.1,0.6,0.9*27
$PSIWMPVT,8426.330,246145.000,3,49.1720917,-123.0701278,10.358,-0.013,-0.021,-0.047,4.950,3.240,3.105,0.612,0.000,0.500,4.853,0.023,17,*12
$PSIWMPOS,022026.500,4910.32550,N,12304.20767,W,8.40,10.36,M,5.94,0,2,0,2,0,*58
$PSIWMATT,022026.500,360.0,T,0.7,0.1,180.0,*7C
$PSIWMVEL,022026.500,360.0,T,0.0,K,-0.00,M,*74
$PSIWMVSD,022026.500,0.00,0.00,0.00,2,0.00,0.00,0.00,2,*0E
$GPGGA,202208.000,4910.32550,N,12304.20767,W,1,17,0.6,010.36,M,-16.8,M,,*5F
$GPRMC,202208.000,A,4910.32550,N,12304.20767,W,0.0,0.0,161018,,,A*74
$GNGSA,A,3,24,27,08,14,15,20,21,10,18,32,,,1.1,0.6,0.9*21
$GNGSA,A,3,87,73,72,81,66,88,65,,,,,,1.1,0.6,0.9*27
$PSIWMPVT,8427.330,246145.999,3,49.1720917,-123.0701278,10.358,-0.008,-0.011,-0.043,5.000,3.240,3.164,0.612,0.000,0.500,4.944,0.023,17,*1A
$PSIWMPOS,022027.500,4910.32550,N,12304.20767,W,8.49,10.36,M,6.00,0,2,0,2,0,*5E
$PSIWMATT,022027.500,360.0,T,0.7,0.1,180.0,*7D
$PSIWMVEL,022027.500,360.0,T,0.0,K,-0.00,M,*75
$PSIWMVSD,022027.500,0.00,0.00,0.00,2,0.00,0.00,0.00,2,*0F
$GPGGA,202209.000,4910.32550,N,12304.20767,W,1,17,0.6,010.36,M,-16.8,M,,*5E
$GPRMC,202209.000,A,4910.32550,N,12304.20767,W,0.0,0.0,161018,,,A*75
$GNGSA,A,3,24,27,08,14,15,20,21,10,18,32,,,1.1,0.6,0.9*21
$GNGSA,A,3,87,73,72,81,66,88,65,,,,,,1.1,0.6,0.9*27
$PSIWMPVT,8428.330,246146.999,3,49.1720917,-123.0701278,10.358,-0.015,-0.008,-0.044,5.000,3.240,2.797,0.612,0.000,0.500,4.369,0.020,17,*18
$PSIWMPOS,022028.500,4910.32550,N,12304.20767,W,8.49,10.36,M,6.00,0,2,0,2,0,*51
$PSIWMATT,022028.500,360.0,T,0.7,0.1,180.0,*72
$PSIWMVEL,022028.500,360.0,T,0.0,K,-0.00,M,*7A
$PSIWMVSD,022028.500,0.00,0.00,0.00,2,0.00,0.00,0.00,2,*00
$GPGGA,202210.000,4910.32550,N,12304.20767,W,1,17,0.6,010.36,M,-16.8,M,,*56
$GPRMC,202210.000,A,4910.32550,N,12304.20767,W,0.0,0.0,161018,,,A*7D
$GNGSA,A,3,24,27,08,14,15,20,21,10,18,32,,,1.1,0.6,0.9*21
$GNGSA,A,3,87,73,72,81,66,88,65,,,,,,1.1,0.6,0.9*27
$PSIWMPVT,8429.330,246147.999,3,49.1720917,-123.0701278,10.358,0.002,0.004,-0.031,5.000,3.317,2.914,0.612,0.000,0.500,4.555,0.023,17,*1C
$PSIWMPOS,022029.500,4910.32550,N,12304.20767,W,8.49,10.36,M,6.00,0,2,0,2,0,*50
$PSIWMATT,022029.500,360.0,T,0.7,0.2,180.0,*70
$PSIWMVEL,022029.500,360.0,T,0.0,K,-0.00,M,*7B
$PSIWMVSD,022029.500,0.00,0.00,0.00,2,0.00,0.00,0.00,2,*01
$GPGGA,202211.000,4910.32550,N,12304.20767,W,1,17,0.6,010.36,M,-16.8,M,,*57
$GPRMC,202211.000,A,4910.32550,N,12304.20767,W,0.1,0.0,161018,,,A*7D
$GNGSA,A,3,24,27,08,14,15,20,21,10,18,32,,,1.1,0.6,0.9*21
$GNGSA,A,3,87,73,72,81,66,88,65,,,,,,1.1,0.6,0.9*27
$PSIWMPVT,8430.330,246148.999,3,49.1720917,-123.0701278,10.358,-0.019,-0.031,-0.038,5.000,3.317,3.535,0.612,0.000,0.500,5.520,0.023,17,*13
$PSIWMPOS,022030.500,4910.32550,N,12304.20767,W,8.49,10.36,M,6.00,0,2,0,2,0,*58
$PSIWMATT,022030.500,360.0,T,0.7,0.1,180.0,*7B
$PSIWMVEL,022030.500,360.0,T,0.0,K,-0.00,M,*73
$PSIWMVSD,022030.500,0.00,0.00,0.00,2,0.00,0.00,0.00,2,*09
$GPGGA,202212.000,4910.32550,N,12304.20767,W,1,17,0.6,010.36,M,-16.8,M,,*54
$GPRMC,202212.000,A,4910.32550,N,12304.20767,W,0.0,0.0,161018,,,A*7F
$GNGSA,A,3,24,27,08,14,15,20,21,10,18,32,,,1.1,0.6,0.9*21
$GNGSA,A,3,87,73,72,81,66,88,65,,,,,,1.1,0.6,0.9*27
$PSIWMPVT,8431.330,246149.999,3,49.1720917,-123.0701278,10.358,-0.009,-0.012,-0.033,5.000,3.317,3.539,0.612,0.000,0.500,5.526,0.020,17,*11
$PSIWMPOS,022031.500,4910.32550,N,12304.20767,W,8.49,10.36,M,6.00,0,2,0,2,0,*59
$PSIWMATT,022031.500,360.0,T,0.7,0.1,180.0,*7A
$PSIWMVEL,022031.500,360.0,T,0.0,K,-0.00,M,*72
$PSIWMVSD,022031.500,0.00,0.00,0.00,2,0.00,0.00,0.00,2,*08
$GPGGA,202213.000,4910.32550,N,12304.20767,W,1,17,0.6,010.36,M,-16.8,M,,*55
$GPRMC,202213.000,A,4910.32550,N,12304.20767,W,0.0,0.0,161018,,,A*7E
$GNGSA,A,3,24,27,08,14,15,20,21,10,18,32,,,1.1,0.6,0.9*21
$GNGSA,A,3,87,73,72,81,66,88,65,,,,,,1.1,0.6,0.9*27
$PSIWMPVT,8432.330,246151.000,3,49.1720917,-123.0701278,10.358,-0.008,-0.012,-0.042,5.050,3.317,3.742,0.612,0.000,0.500,5.844,0.020,17,*17
$PSIWMPOS,022032.500,4910.32550,N,12304.20767,W,8.57,10.36,M,6.06,0,2,0,2,0,*53
$PSIWMATT,022032.500,360.0,T,0.7,0.1,180.0,*79
$PSIWMVEL,022032.500,360.0,T,0.0,K,-0.00,M,*71
$PSIWMVSD,022032.500,0.00,0.00,0.00,2,0.00,0.00,0.00,2,*0B
$GPGGA,202214.000,4910.32550,N,12304.20767,W,1,17,0.6,010.36,M,-16.8,M,,*52
$GPRMC,202214.000,A,4910.32550,N,12304.20767,W,0.1,0.0,161018,,,A*78
$GNGSA,A,3,24,27,08,14,15,20,21,10,18,32,,,1.1,0.6,0.9*21
$GNGSA,A,3,87,73,72,81,66,88,65,,,,,,1.1,0.6,0.9*27
$PSIWMPVT,8433.330,246151.999,3,49.1720917,-123.0701278,10.358,-0.028,-0.025,-0.050,5.050,3.317,3.426,0.612,0.000,0.612,5.350,0.027,17,*12
$PSIWMPOS,022033.500,4910.32550,N,12304.20767,W,8.57,10.36,M,6.06,0,2,0,2,0,*52
$PSIWMATT,022033.500,360.0,T,0.7,0.1,180.0,*78
$PSIWMVEL,022033.500,360.0,T,0.0,K,-0.00,M,*70
$PSIWMVSD,022033.500,0.00,0.00,0.00,2,0.00,0.00,0.00,2,*0A
$GPGGA,202215.000,4910.32550,N,12304.20767,W,1,17,0.6,010.36,M,-16.8,M,,*53
$GPRMC,202215.000,A,4910.32550,N,12304.20767,W,0.0,0.0,161018,,,A*78
$GNGSA,A,3,24,27,08,14,15,20,21,10,18,32,,,1.1,0.6,0.9*21
$GNGSA,A,3,87,73,72,81,66,88,65,,,,,,1.1,0.6,0.9*27
$PSIWMPVT,8434.330,246152.999,3,49.1720917,-123.0701278,10.358,-0.018,-0.013,-0.049,5.050,3.391,3.289,0.612,0.000,0.612,5.137,0.023,17,*12
$PSIWMPOS,022034.500,4910.32550,N,12304.20767,W,8.57,10.36,M,6.06,0,2,0,2,0,*55
$PSIWMATT,022034.500,360.0,T,0.7,0.1,180.0,*7F
$PSIWMVEL,022034.500,360.0,T,0.0,K,-0.00,M,*77
$PSIWMVSD,022034.500,0.00,0.00,0.00,2,0.00,0.00,0.00,2,*0D
$GPGGA,202216.000,4910.32550,N,12304.20767,W,1,17,0.6,010.36,M,-16.8,M,,*50
$GPRMC,202216.000,A,4910.32550,N,12304.20767,W,0.1,0.0,161018,,,A*7A
$GNGSA,A,3,24,27,08,14,15,20,21,10,18,32,,,1.1,0.6,0.9*21
$GNGSA,A,3,87,73,72,81,66,88,65,,,,,,1.1,0.6,0.9*27
$PSIWMPVT,8435.330,246153.999,3,49.1720917,-123.0701278,10.358,-0.013,-0.023,-0.052,5.050,3.391,3.562,0.612,0.000,0.612,5.562,0.027,17,*12
$PSIWMPOS,022035.500,4910.32550,N,12304.20767,W,8.57,10.36,M,6.06,0,2,0,2,0,*54
$PSIWMATT,022035.500,360.0,T,0.7,0.1,180.0,*7E
$PSIWMVEL,022035.500,360.0,T,0.0,K,-0.00,M,*76
$PSIWMVSD,022035.500,0.00,0.00,0.00,2,0.00,0.00,0.00,2,*0C
$GPGGA,202217.000,4910.32550,N,12304.20767,W,1,17,0.6,010.36,M,-16.8,M,,*51
$GPRMC,202217.000,A,4910.32550,N,12304.20767,W,0.0,0.0,161018,,,A*7A
$GNGSA,A,3,24,27,08,14,15,20,21,10,18,32,,,1.1,0.6,0.9*21
$GNGSA,A,3,87,73,72,81,66,88,65,,,,,,1.1,0.6,0.9*27
$PSIWMPVT,8436.330,246155.000,3,49.1720917,-123.0701278,10.358,-0.003,0.007,-0.038,5.050,3.391,3.508,0.612,0.000,0.612,5.480,0.023,17,*3D
$PSIWMPOS,022036.500,4910.32550,N,12304.20767,W,8.57,10.36,M,6.06,0,2,0,2,0,*57
$PSIWMATT,022036.500,360.0,T,0.7,0.1,180.0,*7D
$PSIWMVEL,022036.500,360.0,T,0.0,K,-0.00,M,*75
$PSIWMVSD,022036.500,0.00,0.00,0.00,2,0.00,0.00,0.00,2,*0F
$GPGGA,202218.000,4910.32550,N,12304.20767,W,1,17,0.6,010.36,M,-16.8,M,,*5E
$GPRMC,202218.000,A,4910.32550,N,12304.20767,W,0.0,0.0,161018,,,A*75
$GNGSA,A,3,24,27,08,14,15,20,21,10,18,32,,,1.1,0.6,0.9*21
$GNGSA,A,3,87,73,72,81,66,88,65,,,,,,1.1,0.6,0.9*27
$PSIWMPVT,8437.330,246156.000,3,49.1720917,-123.0701278,10.358,-0.016,-0.015,-0.053,5.099,3.391,3.973,0.612,0.000,0.612,6.206,0.027,17,*12
$PSIWMPOS,022037.500,4910.32550,N,12304.20767,W,8.65,10.36,M,6.12,0,2,0,2,0,*52
$PSIWMATT,022037.500,360.0,T,0.7,0.1,180.0,*7C
$PSIWMVEL,022037.500,360.0,T,0.0,K,-0.00,M,*74
$PSIWMVSD,022037.500,0.00,0.00,0.00,2,0.00,0.00,0.00,2,*0E
$GPGGA,202219.000,4910.32550,N,12304.20767,W,1,17,0.6,010.36,M,-16.8,M,,*5F
$GPRMC,202219.000,A,4910.32550,N,12304.20767,W,0.0,0.0,161018,,,A*74
$GNGSA,A,3,24,27,08,14,15,20,21,10,18,32,,,1.1,0.6,0.9*21
$GNGSA,A,3,87,73,72,81,66,88,65,,,,,,1.1,0.6,0.9*27
$PSIWMPVT,8438.330,246156.999,3,49.1720917,-123.0701278,10.358,-0.006,-0.005,-0.045,5.099,3.391,3.547,0.612,0.000,0.612,5.540,0.020,17,*19
$PSIWMPOS,022038.500,4910.32550,N,12304.20767,W,8.65,10.36,M,6.12,0,2,0,2,0,*5D
$PSIWMATT,022038.500,360.0,T,0.7,0.1,180.0,*73
$PSIWMVEL,022038.500,360.0,T,0.0,K,-0.00,M,*7B
$PSIWMVSD,022038.500,0.00,0.00,0.00,2,0.00,0.00,0.00,2,*01
$GPGGA,202220.000,4910.32550,N,12304.20767,W,1,17,0.6,010.36,M,-16.8,M,,*55
$GPRMC,202220.000,A,4910.32550,N,12304.20767,W,0.0,0.0,161018,,,A*7E
$GNGSA,A,3,24,27,08,14,15,20,21,10,18,32,,,1.1,0.6,0.9*21
$GNGSA,A,3,87,73,72,81,66,88,65,,,,,,1.1,0.6,0.9*27
$PSIWMPVT,8439.330,246157.999,3,49.1720917,-123.0701278,10.358,-0.019,-0.016,-0.051,5.099,3.464,3.559,0.612,0.000,0.612,5.556,0.023,17,*16
$PSIWMPOS,022039.500,4910.32550,N,12304.20767,W,8.65,10.36,M,6.12,0,2,0,2,0,*5C
$PSIWMATT,022039.500,360.0,T,0.7,0.1,180.0,*72
$PSIWMVEL,022039.500,360.0,T,0.0,K,-0.00,M,*7A
$PSIWMVSD,022039.500,0.00,0.00,0.00,2,0.00,0.00,0.00,2,*00
$GPGGA,202221.000,4910.32550,N,12304.20767,W,1,17,0.6,010.36,M,-16.8,M,,*54
$GPRMC,202221.000,A,4910.32550,N,12304.20767,W,0.0,0.0,161018,,,A*7F
$GNGSA,A,3,24,27,08,14,15,20,21,10,18,32,,,1.1,0.6,0.9*21
$GNGSA,A,3,87,73,72,81,66,88,65,,,,,,1.1,0.6,0.9*27
$PSIWMPVT,8440.330,246159.000,3,49.1720917,-123.0701278,10.358,-0.011,-0.019,-0.056,5.099,3.464,3.715,0.612,0.000,0.612,5.803,0.023,17,*18
$PSIWMPOS,022040.500,4910.32550,N,12304.20767,W,8.65,10.36,M,6.12,0,2,0,2,0,*52
$PSIWMATT,022040.500,360.0,T,0.7,0.1,180.0,*7C
$PSIWMVEL,022040.500,360.0,T,0.0,K,-0.00,M,*74
$PSIWMVSD,022040.500,0.00,0.00,0.00,2,0.00,0.00,0.00,2,*0E
$GPGGA,202222.000,4910.32550,N,12304.20767,W,1,17,0.6,010.36,M,-16.8,M,,*57
$GPRMC,202222.000,A,4910.32550,N,12304.20767,W,0.0,0.0,161018,,,A*7C
$GNGSA,A,3,24,27,08,14,15,20,21,10,18,32,,,1.1,0.6,0.9*21
$GNGSA,A,3,87,73,72,81,66,88,65,,,,,,1.1,0.6,0.9*27
$PSIWMPVT,8441.330,246160.000,3,49.1720917,-123.0701278,10.358,-0.008,-0.011,-0.059,5.099,3.464,3.801,0.612,0.000,0.612,5.934,0.031,17,*10
$PSIWMPOS,022041.500,4910.32550,N,12304.20767,W,8.65,10.36,M,6.12,0,2,0,2,0,*53
$PSIWMATT,022041.500,360.0,T,0.7,0.1,180.0,*7D
$PSIWMVEL,022041.500,360.0,T,0.0,K,-0.00,M,*75
$PSIWMVSD,022041.500,0.00,0.00,0.00,2,0.00,0.00,0.00,2,*0F
$GPGGA,202223.000,4910.32550,N,12304.20767,W,1,17,0.6,010.36,M,-16.8,M,,*56
$GPRMC,202223.000,A,4910.32550,N,12304.20767,W,0.0,0.0,161018,,,A*7D
$GNGSA,A,3,24,27,08,14,15,20,21,10,18,32,,,1.1,0.6,0.9*21
$GNGSA,A,3,87,73,72,81,66,88,65,,,,,,1.1,0.6,0.9*27
$PSIWMPVT,8442.330,246160.999,3,49.1720917,-123.0701278,10.358,-0.010,-0.001,-0.060,5.148,3.464,3.641,0.612,0.000,0.612,5.685,0.023,17,*19
$PSIWMPOS,022042.500,4910.32550,N,12304.20767,W,8.74,10.36,M,6.18,0,2,0,2,0,*5A
$PSIWMATT,022042.500,360.0,T,0.7,0.1,180.0,*7E
$PSIWMVEL,022042.500,360.0,T,0.0,K,-0.00,M,*76
$PSIWMVSD,022042.500,0.00,0.00,0.00,2,0.00,0.00,0.00,2,*0C
$GPGGA,202224.000,4910.32550,N,12304.20767,W,1,17,0.6,010.36,M,-16.8,M,,*51
$GPRMC,202224.000,A,4910.32550,N,12304.20767,W,0.0,0.0,161018,,,A*7A
$GNGSA,A,3,24,27,08,14,15,20,21,10,18,32,,,1.1,0.6,0.9*21
$GNGSA,A,3,87,73,72,81,66,88,65,,,,,,1.1,0.6,0.9*27
$PSIWMPVT,8443.330,246161.999,3,49.1720917,-123.0701278,10.358,-0.002,0.022,-0.046,5.148,3.464,3.812,0.612,0.000,0.612,5.955,0.023,17,*38
$PSIWMPOS,022043.500,4910.32550,N,12304.20767,W,8.74,10.36,M,6.18,0,2,0,2,0,*5B
$PSIWMATT,022043.500,360.0,T,0.7,0.2,180.0,*7C
$PSIWMVEL,022043.500,360.0,T,0.0,K,-0.00,M,*77
$PSIWMVSD,022043.500,0.00,0.00,0.00,2,0.00,0.00,0.00,2,*0D
$GPGGA,202225.000,4910.32550,N,12304.20767,W,1,17,0.6,010.36,M,-16.8,M,,*50
$GPRMC,202225.000,A,4910.32550,N,12304.20767,W,0.0,0.0,161018,,,A*7B
$GNGSA,A,3,24,27,08,14,15,20,21,10,18,32,,,1.1,0.6,0.9*21
$GNGSA,A,3,87,73,72,81,66,88,65,,,,,,1.1,0.6,0.9*27
$PSIWMPVT,8444.330,246163.000,3,49.1720917,-123.0701278,10.358,-0.016,-0.001,-0.049,5.148,3.536,3.629,0.612,0.000,0.612,5.668,0.020,17,*10
$PSIWMPOS,022044.500,4910.32550,N,12304.20767,W,8.74,10.36,M,6.18,0,2,0,2,0,*5C
$PSIWMATT,022044.500,360.0,T,0.7,0.1,180.0,*78
$PSIWMVEL,022044.500,360.0,T,0.0,K,-0.00,M,*70
$PSIWMVSD,022044.500,0.00,0.00,0.00,2,0.00,0.00,0.00,2,*0A
$GPGGA,202226.000,4910.32550,N,12304.20767,W,1,17,0.6,010.36,M,-16.8,M,,*53
$GPRMC,202226.000,A,4910.32550,N,12304.20767,W,0.0,0.0,161018,,,A*78
$GNGSA,A,3,24,27,08,14,15,20,21,10,18,32,,,1.1,0.6,0.9*21
$GNGSA,A,3,87,73,72,81,66,88,65,,,,,,1.1,0.6,0.9*27
$PSIWMPVT,8445.330,246164.000,3,49.1720917,-123.0701278,10.358,-0.010,0.012,-0.041,5.148,3.536,3.695,0.707,0.000,0.612,5.769,0.023,17,*36
$PSIWMPOS,022045.500,4910.32550,N,12304.20767,W,8.74,10.36,M,6.18,0,2,0,2,0,*5D
$PSIWMATT,022045.500,360.0,T,0.7,0.2,180.0,*7A
$PSIWMVEL,022045.500,360.0,T,0.0,K,-0.00,M,*71
$PSIWMVSD,022045.500,0.00,0.00,0.00,2,0.00,0.00,0.00,2,*0B
$GPGGA,202227.000,4910.32550,N,12304.20767,W,1,17,0.6,010.36,M,-16.8,M,,*52
$GPRMC,202227.000,A,4910.32550,N,12304.20767,W,0.0,0.0,161018,,,A*79
$GNGSA,A,3,24,27,08,14,15,20,21,10,18,32,,,1.1,0.6,0.9*21
$GNGSA,A,3,87,73,72,81,66,88,65,,,,,,1.1,0.6,0.9*27
$PSIWMPVT,8446.330,246165.000,3,49.1720917,-123.0701278,10.358,-0.010,-0.013,-0.040,5.148,3.536,3.855,0.707,0.000,0.612,6.021,0.023,17,*13
$PSIWMPOS,022046.500,4910.32550,N,12304.20767,W,8.74,10.36,M,6.18,0,2,0,2,0,*5E
$PSIWMATT,022046.500,360.0,T,0.7,0.1,180.0,*7A
$PSIWMVEL,022046.500,360.0,T,0.0,K,-0.00,M,*72
$PSIWMVSD,022046.500,0.00,0.00,0.00,2,0.00,0.00,0.00,2,*08
$GPGGA,202228.000,4910.32550,N,12304.20767,W,1,17,0.6,010.36,M,-16.8,M,,*5D
$GPRMC,202228.000,A,4910.32550,N,12304.20767,W,0.0,0.0,161018,,,A*76
$GNGSA,A,3,24,27,08,14,15,20,21,10,18,32,,,1.1,0.6,0.9*21
$GNGSA,A,3,87,73,72,81,66,88,65,,,,,,1.1,0.6,0.9*27
$PSIWMPVT,8447.330,246165.999,3,49.1720917,-123.0701278,10.358,-0.003,-0.005,-0.042,5.196,3.536,4.234,0.707,0.000,0.612,6.612,0.020,17,*10
$PSIWMPOS,022047.500,4910.32550,N,12304.20767,W,8.82,10.36,M,6.24,0,2,0,2,0,*59
$PSIWMATT,022047.500,360.0,T,0.7,0.1,180.0,*7B
$PSIWMVEL,022047.500,360.0,T,0.0,K,-0.00,M,*73
$PSIWMVSD,022047.500,0.00,0.00,0.00,2,0.00,0.00,0.00,2,*09
$GPGGA,202229.000,4910.32550,N,12304.20767,W,1,17,0.6,010.36,M,-16.8,M,,*5C
$GPRMC,202229.000,A,4910.32550,N,12304.20767,W,0.0,0.0,161018,,,A*77
$GNGSA,A,3,24,27,08,14,15,20,21,10,18,32,,,1.1,0.6,0.9*21
$GNGSA,A,3,87,73,72,81,66,88,65,,,,,,1.1,0.6,0.9*27
$PSIWMPVT,8448.330,246167.000,3,49.1720917,-123.0701278,10.358,-0.008,0.005,-0.043,5.196,3.536,4.246,0.707,0.000,0.612,6.630,0.020,17,*36
$PSIWMPOS,022048.500,4910.32550,N,12304.20767,W,8.82,10.36,M,6.24,0,2,0,2,0,*56
$PSIWMATT,022048.500,360.0,T,0.7,0.1,180.0,*74
$PSIWMVEL,022048.500,360.0,T,0.0,K,-0.00,M,*7C
$PSIWMVSD,022048.500,0.00,0.00,0.00,2,0.00,0.00,0.00,2,*06
$GPGGA,202230.000,4910.32550,N,12304.20767,W,1,17,0.6,010.36,M,-16.8,M,,*54
$GPRMC,202230.000,A,4910.32550,N,12304.20767,W,0.0,0.0,161018,,,A*7F
$GNGSA,A,3,24,27,08,14,15,20,21,10,18,32,,,1.1,0.6,0.9*21
$GNGSA,A,3,87,73,72,81,66,88,65,,,,,,1.1,0.6,0.9*27
$PSIWMPVT,8449.330,246168.000,3,49.1720917,-123.0701278,10.358,0.001,0.007,-0.041,5.196,3.606,3.977,0.707,0.000,0.612,6.209,0.016,17,*19
$PSIWMPOS,022049.500,4910.32550,N,12304.20767,W,8.82,10.36,M,6.24,0,2,0,2,0,*57
$PSIWMATT,022049.500,360.0,T,0.7,0.1,180.0,*75
$PSIWMVEL,022049.500,360.0,T,0.0,K,-0.00,M,*7D
$PSIWMVSD,022049.500,0.00,0.00,0.00,2,0.00,0.00,0.00,2,*07
$GPGGA,202231.000,4910.32550,N,12304.20767,W,1,17,0.6,010.36,M,-16.8,M,,*55
$GPRMC,202231.000,A,4910.32550,N,12304.20767,W,0.1,0.0,161018,,,A*7F
$GNGSA,A,3,24,27,08,14,15,20,21,10,18,32,,,1.1,0.6,0.9*21
$GNGSA,A,3,87,73,72,81,66,88,65,,,,,,1.1,0.6,0.9*27
$PSIWMPVT,8450.330,246169.000,3,49.1720917,-123.0701278,10.358,-0.020,-0.028,-0.041,5.196,3.606,4.473,0.707,0.000,0.612,6.987,0.023,17,*1B
$PSIWMPOS,022050.500,4910.32550,N,12304.20767,W,8.82,10.36,M,6.24,0,2,0,2,0,*5F
$PSIWMATT,022050.500,360.0,T,0.7,0.1,180.0,*7D
$PSIWMVEL,022050.500,360.0,T,0.0,K,-0.00,M,*75
$PSIWMVSD,022050.500,0.00,0.00,0.00,2,0.00,0.00,0.00,2,*0F
$GPGGA,202232.000,4910.32550,N,12304.20767,W,1,17,0.6,010.36,M,-16.8,M,,*56
$GPRMC,202232.000,A,4910.32550,N,12304.20767,W,0.0,0.0,161018,,,A*7D
$GNGSA,A,3,24,27,08,14,15,20,21,10,18,32,,,1.1,0.6,0.9*21
$GNGSA,A,3,87,73,72,81,66,88,65,,,,,,1.1,0.6,0.9*27
$PSIWMPVT,8451.330,246169.999,3,49.1720917,-123.0701278,10.358,-0.000,0.011,-0.033,5.196,3.606,4.230,0.707,0.000,0.612,6.606,0.020,17,*37
$PSIWMPOS,022051.500,4910.32550,N,12304.20767,W,8.82,10.36,M,6.24,0,2,0,2,0,*5E
$PSIWMATT,022051.500,360.0,T,0.7,0.1,180.0,*7C
$PSIWMVEL,022051.500,360.0,T,0.0,K,-0.00,M,*74
$PSIWMVSD,022051.500,0.00,0.00,0.00,2,0.00,0.00,0.00,2,*0E
$GPGGA,202233.000,4910.32550,N,12304.20767,W,1,17,0.6,010.36,M,-16.8,M,,*57
$GPRMC,202233.000,A,4910.32550,N,12304.20767,W,0.0,0.0,161018,,,A*7C
$GNGSA,A,3,24,27,08,14,15,20,21,10,18,32,,,1.1,0.6,0.9*21
$GNGSA,A,3,87,73,72,81,66,88,65,,,,,,1.1,0.6,0.9*27
$PSIWMPVT,8452.330,246171.000,3,49.1720917,-123.0701278,10.358,-0.006,0.006,-0.028,5.244,3.606,4.160,0.707,0.000,0.612,6.495,0.008,17,*36
$PSIWMPOS,022052.500,4910.32550,N,12304.20767,W,8.90,10.36,M,6.29,0,2,0,2,0,*53
$PSIWMATT,022052.500,360.0,T,0.7,0.1,180.0,*7F
$PSIWMVEL,022052.500,360.0,T,0.0,K,-0.00,M,*77
$PSIWMVSD,022052.500,0.00,0.00,0.00,2,0.00,0.00,0.00,2,*0D
$GPGGA,202234.000,4910.32550,N,12304.20767,W,1,17,0.6,010.36,M,-16.8,M,,*50
$GPRMC,202234.000,A,4910.32550,N,12304.20767,W,0.0,0.0,161018,,,A*7B
$GNGSA,A,3,24,27,08,14,15,20,21,10,18,32,,,1.1,0.6,0.9*21
$GNGSA,A,3,87,73,72,81,66,88,65,,,,,,1.1,0.6,0.9*27
$PSIWMPVT,8453.330,246172.000,3,49.1720917,-123.0701278,10.358,-0.009,-0.009,-0.032,5.244,3.606,4.234,0.707,0.000,0.612,6.614,0.012,17,*10
$PSIWMPOS,022053.500,4910.32550,N,12304.20767,W,8.90,10.36,M,6.29,0,2,0,2,0,*52
$PSIWMATT,022053.500,360.0,T,0.6,0.1,180.0,*7F
$PSIWMVEL,022053.500,360.0,T,0.0,K,-0.00,M,*76
$PSIWMVSD,022053.500,0.00,0.00,0.00,2,0.00,0.00,0.00,2,*0C
$GPGGA,202235.000,4910.32550,N,12304.20767,W,1,17,0.6,010.36,M,-16.8,M,,*51
$GPRMC,202235.000,A,4910.32550,N,12304.20767,W,0.0,0.0,161018,,,A*7A
$GNGSA,A,3,24,27,08,14,15,20,21,10,18,32,,,1.1,0.6,0.9*21
$GNGSA,A,3,87,73,72,81,66,88,65,,,,,,1.1,0.6,0.9*27
$PSIWMPVT,8454.330,246173.000,3,49.1720917,-123.0701278,10.358,-0.012,-0.018,-0.035,5.244,3.674,4.402,0.707,0.000,0.612,6.875,0.020,17,*15
$PSIWMPOS,022054.500,4910.32550,N,12304.20767,W,8.90,10.36,M,6.29,0,2,0,2,0,*55
$PSIWMATT,022054.500,360.0,T,0.6,0.1,180.0,*78
$PSIWMVEL,022054.500,360.0,T,0.0,K,-0.00,M,*71
$PSIWMVSD,022054.500,0.00,0.00,0.00,2,0.00,0.00,0.00,2,*0B
$GPGGA,202236.000,4910.32550,N,12304.20767,W,1,17,0.6,010.36,M,-16.8,M,,*52
$GPRMC,202236.000,A,4910.32550,N,12304.20767,W,0.1,0.0,161018,,,A*78
$GNGSA,A,3,24,27,08,14,15,20,21,10,18,32,,,1.1,0.6,0.9*21
$GNGSA,A,3,87,73,72,81,66,88,65,,,,,,1.1,0.6,0.9*27
$PSIWMPVT,8455.330,246174.000,3,49.1720917,-123.0701278,10.358,-0.016,-0.029,-0.044,5.244,3.674,4.297,0.707,0.000,0.612,6.710,0.020,17,*15
$PSIWMPOS,022055.500,4910.32550,N,12304.20767,W,8.90,10.36,M,6.29,0,2,0,2,0,*54
$PSIWMATT,022055.500,360.0,T,0.6,0.1,180.0,*79
$PSIWMVEL,022055.500,360.0,T,0.0,K,-0.00,M,*70
$PSIWMVSD,022055.500,0.00,0.00,0.00,2,0.00,0.00,0.00,2,*0A
$GPGGA,202237.000,4910.32550,N,12304.20767,W,1,17,0.6,010.36,M,-16.8,M,,*53
$GPRMC,202237.000,A,4910.32550,N,12304.20767,W,0.0,0.0,161018,,,A*78
$GNGSA,A,3,24,27,08,14,15,20,21,10,18,32,,,1.1,0.6,0.9*21
$GNGSA,A,3,87,73,72,81,66,88,65,,,,,,1.1,0.6,0.9*27
$PSIWMPVT,8456.330,246175.000,3,49.1720917,-123.0701278,10.358,0.001,-0.009,-0.047,5.244,3.674,4.391,0.707,0.000,0.612,6.857,0.016,17,*33
$PSIWMPOS,022056.500,4910.32550,N,12304.20767,W,8.90,10.36,M,6.29,0,2,0,2,0,*57
$PSIWMATT,022056.500,360.0,T,0.7,0.1,180.0,*7B
$PSIWMVEL,022056.500,360.0,T,0.0,K,-0.00,M,*73
$PSIWMVSD,022056.500,0.00,0.00,0.00,2,0.00,0.00,0.00,2,*09
$GPGGA,202238.000,4910.32550,N,12304.20767,W,1,16,0.6,010.36,M,-16.8,M,,*5D
$GPRMC,202238.000,A,4910.32550,N,12304.20767,W,0.0,0.0,161018,,,A*77
$GNGSA,A,3,24,27,08,14,15,20,21,10,32,,,,1.1,0.6,0.9*28
$GNGSA,A,3,87,73,72,81,66,88,65,,,,,,1.1,0.6,0.9*27
$PSIWMPVT,8457.330,246176.000,3,49.1720917,-123.0701278,10.358,0.001,-0.003,-0.049,5.292,3.674,4.270,0.707,0.000,0.612,6.667,0.020,16,*39
$PSIWMPOS,022057.500,4910.32550,N,12304.20767,W,8.98,10.36,M,6.35,0,2,0,2,0,*53
$PSIWMATT,022057.500,360.0,T,0.6,0.1,180.0,*7B
$PSIWMVEL,022057.500,360.0,T,0.0,K,-0.00,M,*72
$PSIWMVSD,022057.500,0.00,0.00,0.00,2,0.00,0.00,0.00,2,*08
$GPGGA,202239.000,4910.32550,N,12304.20767,W,1,16,0.6,010.36,M,-16.8,M,,*5C
$GPRMC,202239.000,A,4910.32550,N,12304.20767,W,0.0,0.0,161018,,,A*76
$GNGSA,A,3,24,27,08,14,15,20,21,10,32,,,,1.1,0.6,0.9*28
$GNGSA,A,3,87,73,72,81,66,88,65,,,,,,1.1,0.6,0.9*27
$PSIWMPVT,8458.330,246177.000,3,49.1720917,-123.0701278,10.358,0.002,0.004,-0.054,5.292,3.674,4.406,0.707,0.000,0.612,6.884,0.023,16,*15
$PSIWMPOS,022058.500,4910.32550,N,12304.20767,W,8.98,10.36,M,6.35,0,2,0,2,0,*5C
$PSIWMATT,022058.500,360.0,T,0.7,0.1,180.0,*75
$PSIWMVEL,022058.500,360.0,T,0.0,K,-0.00,M,*7D
$PSIWMVSD,022058.500,0.00,0.00,0.00,2,0.00,0.00,0.00,2,*07
$GPGGA,202240.000,4910.32550,N,12304.20767,W,1,16,0.6,010.36,M,-16.8,M,,*52
$GPRMC,202240.000,A,4910.32550,N,12304.20767,W,0.0,0.0,161018,,,A*78
$GNGSA,A,3,24,27,08,14,15,20,21,10,32,,,,1.1,0.6,0.9*28
$GNGSA,A,3,87,73,72,81,66,88,65,,,,,,1.1,0.6,0.9*27
$PSIWMPVT,8459.330,246178.000,3,49.1720917,-123.0701278,10.358,-0.003,-0.014,-0.060,5.292,3.742,4.746,0.707,0.000,0.612,7.411,0.020,16,*1D
$PSIWMPOS,022059.500,4910.32550,N,12304.20767,W,8.98,10.36,M,6.35,0,2,0,2,0,*5D
$PSIWMATT,022059.500,360.0,T,0.7,0.1,180.0,*74
$PSIWMVEL,022059.500,360.0,T,0.0,K,-0.00,M,*7C
$PSIWMVSD,022059.500,0.00,0.00,0.00,2,0.00,0.00,0.00,2,*06
$GPGGA,202241.000,4910.32550,N,12304.20767,W,1,16,0.6,010.36,M,-16.8,M,,*53
$GPRMC,202241.000,A,4910.32550,N,12304.20767,W,0.0,0.0,161018,,,A*79
$GNGSA,A,3,24,27,08,14,15,20,21,10,32,,,,1.1,0.6,0.9*28
$GNGSA,A,3,87,73,72,81,66,88,65,,,,,,1.1,0.6,0.9*27
$PSIWMPVT,8460.330,246178.999,3,49.1720917,-123.0701278,10.358,-0.000,0.015,-0.048,5.292,3.742,4.652,0.707,0.000,0.612,7.265,0.023,16,*39
$PSIWMPOS,022100.500,4910.32550,N,12304.20767,W,8.98,10.36,M,6.35,0,2,0,2,0,*50
$PSIWMATT,022100.500,360.0,T,0.7,0.1,180.0,*79
$PSIWMVEL,022100.500,360.0,T,0.0,K,-0.00,M,*71
$PSIWMVSD,022100.500,0.00,0.00,0.00,2,0.00,0.00,0.00,2,*0B
$GPGGA,202242.000,4910.32550,N,12304.20767,W,1,16,0.6,010.36,M,-16.8,M,,*50
$GPRMC,202242.000,A,4910.32550,N,12304.20767,W,0.0,0.0,161018,,,A*7A
$GNGSA,A,3,24,27,08,14,15,20,21,10,32,,,,1.1,0.6,0.9*28
$GNGSA,A,3,87,73,72,81,66,88,65,,,,,,1.1,0.6,0.9*27
$PSIWMPVT,8461.330,246179.999,3,49.1720917,-123.0701278,10.358,-0.009,-0.003,-0.054,5.292,3.742,4.457,0.707,0.000,0.612,6.963,0.023,16,*1C
$PSIWMPOS,022101.500,4910.32550,N,12304.20767,W,8.98,10.36,M,6.35,0,2,0,2,0,*51
$PSIWMATT,022101.500,360.0,T,0.7,0.1,180.0,*78
$PSIWMVEL,022101.500,360.0,T,0.0,K,-0.00,M,*70
$PSIWMVSD,022101.500,0.00,0.00,0.00,2,0.00,0.00,0.00,2,*0A
$GPGGA,202243.000,4910.32550,N,12304.20767,W,1,16,0.6,010.36,M,-16.8,M,,*51
$GPRMC,202243.000,A,4910.32550,N,12304.20767,W,0.0,0.0,161018,,,A*7B
$GNGSA,A,3,24,27,08,14,15,20,21,10,32,,,,1.1,0.6,0.9*28
$GNGSA,A,3,87,73,72,81,66,88,65,,,,,,1.1,0.6,0.9*27
$PSIWMPVT,8462.330,246180.999,3,49.1720917,-123.0701278,10.358,-0.002,0.005,-0.053,5.339,3.742,4.492,0.707,0.000,0.612,7.016,0.023,16,*3D
$PSIWMPOS,022102.500,4910.32550,N,12304.20767,W,9.06,10.36,M,6.41,0,2,0,2,0,*57
$PSIWMATT,022102.500,360.0,T,0.7,0.1,180.0,*7B
$PSIWMVEL,022102.500,360.0,T,0.0,K,-0.00,M,*73
$PSIWMVSD,022102.500,0.00,0.00,0.00,2,0.00,0.00,0.00,2,*09
$GPGGA,202244.000,4910.32550,N,12304.20767,W,1,16,0.6,010.36,M,-16.8,M,,*56
$GPRMC,202244.000,A,4910.32550,N,12304.20767,W,0.0,0.0,161018,,,A*7C
$GNGSA,A,3,24,27,08,14,15,20,21,10,32,,,,1.1,0.6,0.9*28
$GNGSA,A,3,87,73,72,81,66,88,65,,,,,,1.1,0.6,0.9*27
$PSIWMPVT,8463.330,246182.000,3,49.1720917,-123.0701278,10.358,-0.014,-0.013,-0.056,5.339,3.742,4.527,0.707,0.000,0.612,7.073,0.027,16,*17
$PSIWMPOS,022103.500,4910.32550,N,12304.20767,W,9.06,10.36,M,6.41,0,2,0,2,0,*56
$PSIWMATT,022103.500,360.0,T,0.7,0.1,180.0,*7A
$PSIWMVEL,022103.500,360.0,T,0.0,K,-0.00,M,*72
$PSIWMVSD,022103.500,0.00,0.00,0.00,2,0.00,0.00,0.00,2,*08
$GPGGA,202245.000,4910.32568,N,12304.20747,W,1,16,0.6,010.04,M,-16.8,M,,*5F
$GPRMC,202245.000,A,4910.32568,N,12304.20747,W,0.0,0.0,161018,,,A*74
$GNGSA,A,3,24,27,08,14,15,20,21,10,32,,,,1.1,0.6,0.9*28
$GNGSA,A,3,87,73,72,81,66,88,65,,,,,,1.1,0.6,0.9*27
$PSIWMPVT,8464.330,246182.999,3,49.1720947,-123.0701246,10.045,-0.012,-0.014,-0.067,5.050,3.464,4.066,0.707,0.000,0.612,6.350,0.023,16,*11
$PSIWMPOS,022104.500,4910.32568,N,12304.20747,W,8.57,10.04,M,6.06,0,2,0,2,0,*5F
$PSIWMATT,022104.500,360.0,T,0.7,0.1,180.0,*7D
$PSIWMVEL,022104.500,360.0,T,0.0,K,-0.00,M,*75
$PSIWMVSD,022104.500,0.00,0.00,0.00,2,0.00,0.00,0.00,2,*0F
$GPGGA,202246.000,4910.32568,N,12304.20747,W,1,16,0.6,010.04,M,-16.8,M,,*5C
$GPRMC,202246.000,A,4910.32568,N,12304.20747,W,0.0,0.0,161018,,,A*77
$GNGSA,A,3,24,27,08,14,15,20,21,10,32,,,,1.1,0.6,0.9*28
$GNGSA,A,3,87,73,72,81,66,88,65,,,,,,1.1,0.6,0.9*27
$PSIWMPVT,8465.330,246183.999,3,49.1720947,-123.0701246,10.045,-0.008,0.011,-0.067,5.050,3.464,4.242,0.707,0.000,0.612,6.625,0.027,16,*35
$PSIWMPOS,022105.500,4910.32568,N,12304.20747,W,8.57,10.04,M,6.06,0,2,0,2,0,*5E
$PSIWMATT,022105.500,360.0,T,0.7,0.1,180.0,*7C
$PSIWMVEL,022105.500,360.0,T,0.0,K,-0.00,M,*74
$PSIWMVSD,022105.500,0.00,0.00,0.00,2,0.00,0.00,0.00,2,*0E
$GPGGA,202247.000,4910.32568,N,12304.20747,W,1,16,0.6,010.04,M,-16.8,M,,*5D
$GPRMC,202247.000,A,4910.32568,N,12304.20747,W,0.0,0.0,161018,,,A*76
$GNGSA,A,3,24,27,08,14,15,20,21,10,32,,,,1.1,0.6,0.9*28
$GNGSA,A,3,87,73,72,81,66,88,65,,,,,,1.1,0.6,0.9*27
$PSIWMPVT,8466.330,246184.999,3,49.1720947,-123.0701246,10.045,-0.011,-0.001,-0.070,5.050,3.464,4.359,0.707,0.000,0.612,6.808,0.027,16,*19
$PSIWMPOS,022106.500,4910.32568,N,12304.20747,W,8.57,10.04,M,6.06,0,2,0,2,0,*5D
$PSIWMATT,022106.500,360.0,T,0.7,0.1,180.0,*7F
$PSIWMVEL,022106.500,360.0,T,0.0,K,-0.00,M,*77
$PSIWMVSD,022106.500,0.00,0.00,0.00,2,0.00,0.00,0.00,2,*0D
$GPGGA,202248.000,4910.32568,N,12304.20747,W,1,16,0.6,010.04,M,-16.8,M,,*52
$GPRMC,202248.000,A,4910.32568,N,12304.20747,W,0.0,0.0,161018,,,A*79
$GNGSA,A,3,24,27,08,14,15,20,21,10,32,,,,1.1,0.6,0.9*28
$GNGSA,A,3,87,73,72,81,66,88,65,,,,,,1.1,0.6,0.9*27
$PSIWMPVT,8467.330,246186.000,3,49.1720947,-123.0701246,10.045,0.004,0.020,-0.064,5.050,3.536,4.621,0.707,0.000,0.612,7.219,0.027,16,*16
$PSIWMPOS,022107.500,4910.32568,N,12304.20747,W,8.57,10.04,M,6.06,0,2,0,2,0,*5C
$PSIWMATT,022107.500,360.0,T,0.7,0.1,180.0,*7E
$PSIWMVEL,022107.500,360.0,T,0.0,K,-0.00,M,*76
$PSIWMVSD,022107.500,0.00,0.00,0.00,2,0.00,0.00,0.00,2,*0C
$GPGGA,202249.000,4910.32568,N,12304.20747,W,1,16,0.6,010.04,M,-16.8,M,,*53
$GPRMC,202249.000,A,4910.32568,N,12304.20747,W,0.0,0.0,161018,,,A*78
$GNGSA,A,3,24,27,08,14,15,20,21,10,32,,,,1.1,0.6,0.9*28
$GNGSA,A,3,87,73,72,81,66,88,65,,,,,,1.1,0.6,0.9*27
$PSIWMPVT,8468.330,246186.999,3,49.1720947,-123.0701246,10.045,-0.002,0.002,-0.060,5.099,3.536,4.484,0.707,0.000,0.612,7.001,0.023,16,*38
$PSIWMPOS,022108.500,4910.32568,N,12304.20747,W,8.65,10.04,M,6.12,0,2,0,2,0,*57
$PSIWMATT,022108.500,360.0,T,0.7,0.1,180.0,*71
$PSIWMVEL,022108.500,360.0,T,0.0,K,-0.00,M,*79
$PSIWMVSD,022108.500,0.00,0.00,0.00,2,0.00,0.00,0.00,2,*03
$GPGGA,202250.000,4910.32568,N,12304.20747,W,1,16,0.6,010.04,M,-16.8,M,,*5B
$GPRMC,202250.000,A,4910.32568,N,12304.20747,W,0.0,0.0,161018,,,A*70
$GNGSA,A,3,24,27,08,14,15,20,21,10,32,,,,1.1,0.6,0.9*28
$GNGSA,A,3,87,73,72,81,66,88,65,,,,,,1.1,0.6,0.9*27
$PSIWMPVT,8469.330,246187.999,3,49.1720947,-123.0701246,10.045,0.000,0.009,-0.059,5.099,3.536,4.832,0.707,0.000,0.612,7.544,0.023,16,*13
$PSIWMPOS,022109.500,4910.32568,N,12304.20747,W,8.65,10.04,M,6.12,0,2,0,2,0,*56
$PSIWMATT,022109.500,360.0,T,0.7,0.1,180.0,*70
$PSIWMVEL,022109.500,360.0,T,0.0,K,-0.00,M,*78
$PSIWMVSD,022109.500,0.00,0.00,0.00,2,0.00,0.00,0.00,2,*02
$GPGGA,202251.000,4910.32568,N,12304.20747,W,1,16,0.6,010.04,M,-16.8,M,,*5A
$GPRMC,202251.000,A,4910.32568,N,12304.20747,W,0.0,0.0,161018,,,A*71
$GNGSA,A,3,24,27,08,14,15,20,21,10,32,,,,1.1,0.6,0.9*28
$GNGSA,A,3,87,73,72,81,66,88,65,,,,,,1.1,0.6,0.9*27
$PSIWMPVT,8470.330,246188.999,3,49.1720947,-123.0701246,10.045,-0.002,0.005,-0.056,5.099,3.536,4.859,0.707,0.000,0.612,7.589,0.020,16,*37
$PSIWMPOS,022110.500,4910.32568,N,12304.20747,W,8.65,10.04,M,6.12,0,2,0,2,0,*5E
$PSIWMATT,022110.500,360.0,T,0.7,0.1,180.0,*78
$PSIWMVEL,022110.500,360.0,T,0.0,K,-0.00,M,*70
$PSIWMVSD,022110.500,0.00,0.00,0.00,2,0.00,0.00,0.00,2,*0A
$GPGGA,202252.000,4910.32568,N,12304.20747,W,1,16,0.6,010.04,M,-16.8,M,,*59
$GPRMC,202252.000,A,4910.32568,N,12304.20747,W,0.0,0.0,161018,,,A*72
$GNGSA,A,3,24,27,08,14,15,20,21,10,32,,,,1.1,0.6,0.9*28
$GNGSA,A,3,87,73,72,81,66,88,65,,,,,,1.1,0.6,0.9*27
$PSIWMPVT,8471.330,246190.000,3,49.1720947,-123.0701246,10.045,-0.001,0.008,-0.049,5.099,3.536,4.605,0.707,0.000,0.612,7.192,0.016,16,*3A
$PSIWMPOS,022111.500,4910.32568,N,12304.20747,W,8.65,10.04,M,6.12,0,2,0,2,0,*5F
$PSIWMATT,022111.500,360.0,T,0.7,0.1,180.0,*79
$PSIWMVEL,022111.500,360.0,T,0.0,K,-0.00,M,*71
$PSIWMVSD,022111.500,0.00,0.00,0.00,2,0.00,0.00,0.00,2,*0B
$GPGGA,202253.000,4910.32568,N,12304.20747,W,1,16,0.6,010.04,M,-16.8,M,,*58
$GPRMC,202253.000,A,4910.32568,N,12304.20747,W,0.0,0.0,161018,,,A*73
$GNGSA,A,3,24,27,08,14,15,20,21,10,32,,,,1.1,0.6,0.9*28
$GNGSA,A,3,87,73,72,81,66,88,65,,,,,,1.1,0.6,0.9*27
$PSIWMPVT,8472.330,246191.000,3,49.1720947,-123.0701246,10.045,-0.000,-0.002,-0.044,5.099,3.606,4.953,0.707,0.000,0.612,7.733,0.020,16,*17
$PSIWMPOS,022112.500,4910.32568,N,12304.20747,W,8.65,10.04,M,6.12,0,2,0,2,0,*5C
$PSIWMATT,022112.500,360.0,T,0.7,0.1,180.0,*7A
$PSIWMVEL,022112.500,360.0,T,0.0,K,-0.00,M,*72
$PSIWMVSD,022112.500,0.00,0.00,0.00,2,0.00,0.00,0.00,2,*08
$GPGGA,202254.000,4910.32568,N,12304.20747,W,1,16,0.6,010.04,M,-16.8,M,,*5F
$GPRMC,202254.000,A,4910.32568,N,12304.20747,W,0.0,0.0,161018,,,A*74
$GNGSA,A,3,24,27,08,14,15,20,21,10,32,,,,1.1,0.6,0.9*28
$GNGSA,A,3,87,73,72,81,66,88,65,,,,,,1.1,0.6,0.9*27
$PSIWMPVT,8473.330,246191.999,3,49.1720947,-123.0701246,10.045,-0.010,-0.011,-0.051,5.148,3.606,4.785,0.707,0.000,0.612,7.475,0.016,16,*14
$PSIWMPOS,022113.500,4910.32568,N,12304.20747,W,8.74,10.04,M,6.18,0,2,0,2,0,*57
$PSIWMATT,022113.500,360.0,T,0.7,0.1,180.0,*7B
$PSIWMVEL,022113.500,360.0,T,0.0,K,-0.00,M,*73
$PSIWMVSD,022113.500,0.00,0.00,0.00,2,0.00,0.00,0.00,2,*09
$GPGGA,202255.000,4910.32568,N,12304.20747,W,1,16,0.6,010.04,M,-16.8,M,,*5E
$GPRMC,202255.000,A,4910.32568,N,12304.20747,W,0.0,0.0,161018,,,A*75
$GNGSA,A,3,24,27,08,14,15,20,21,10,32,,,,1.1,0.6,0.9*28
$GNGSA,A,3,87,73,72,81,66,88,65,,,,,,1.1,0.6,0.9*27
$PSIWMPVT,8474.330,246192.999,3,49.1720947,-123.0701246,10.045,-0.002,-0.008,-0.045,5.148,3.606,4.848,0.707,0.000,0.612,7.568,0.016,16,*1D
$PSIWMPOS,022114.500,4910.32568,N,12304.20747,W,8.74,10.04,M,6.18,0,2,0,2,0,*50
$PSIWMATT,022114.500,360.0,T,0.7,0.1,180.0,*7C
$PSIWMVEL,022114.500,360.0,T,0.0,K,-0.00,M,*74
$PSIWMVSD,022114.500,0.00,0.00,0.00,2,0.00,0.00,0.00,2,*0E
$GPGGA,202256.000,4910.32568,N,12304.20747,W,1,16,0.6,010.04,M,-16.8,M,,*5D
$GPRMC,202256.000,A,4910.32568,N,12304.20747,W,0.0,0.0,161018,,,A*76
$GNGSA,A,3,24,27,08,14,15,20,21,10,32,,,,1.1,0.6,0.9*28
$GNGSA,A,3,87,73,72,81,66,88,65,,,,,,1.1,0.6,0.9*27
$PSIWMPVT,8475.330,246194.000,3,49.1720947,-123.0701246,10.045,-0.008,-0.009,-0.045,5.148,3.606,5.109,0.707,0.000,0.612,7.981,0.020,16,*1B
$PSIWMPOS,022115.500,4910.32568,N,12304.20747,W,8.74,10.04,M,6.18,0,2,0,2,0,*51
$PSIWMATT,022115.500,360.0,T,0.7,0.1,180.0,*7D
$PSIWMVEL,022115.500,360.0,T,0.0,K,-0.00,M,*75
$PSIWMVSD,022115.500,0.00,0.00,0.00,2,0.00,0.00,0.00,2,*0F
$GPGGA,202257.000,4910.32568,N,12304.20747,W,1,16,0.6,010.04,M,-16.8,M,,*5C
$GPRMC,202257.000,A,4910.32568,N,12304.20747,W,0.0,0.0,161018,,,A*77
$GNGSA,A,3,24,27,08,14,15,20,21,10,32,,,,1.1,0.6,0.9*28
$GNGSA,A,3,87,73,72,81,66,88,65,,,,,,1.1,0.6,0.9*27
$PSIWMPVT,8476.330,246195.000,3,49.1720947,-123.0701246,10.045,-0.003,-0.006,-0.044,5.148,3.606,4.863,0.707,0.000,0.612,7.594,0.027,16,*17
$PSIWMPOS,022116.500,4910.32568,N,12304.20747,W,8.74,10.04,M,6.18,0,2,0,2,0,*52
$PSIWMATT,022116.500,360.0,T,0.7,0.1,180.0,*7E
$PSIWMVEL,022116.500,360.0,T,0.0,K,-0.00,M,*76
$PSIWMVSD,022116.500,0.00,0.00,0.00,2,0.00,0.00,0.00,2,*0C
$GPGGA,202258.000,4910.32568,N,12304.20747,W,1,16,0.6,010.04,M,-16.8,M,,*53
$GPRMC,202258.000,A,4910.32568,N,12304.20747,W,0.0,0.0,161018,,,A*78
$GNGSA,A,3,24,27,08,14,15,20,21,10,32,,,,1.1,0.6,0.9*28
$GNGSA,A,3,87,73,72,81,66,88,65,,,,,,1.1,0.6,0.9*27
$PSIWMPVT,8477.330,246195.999,3,49.1720947,-123.0701246,10.045,0.005,0.008,-0.035,5.148,3.674,5.086,0.707,0.000,0.612,7.940,0.023,16,*17
$PSIWMPOS,022117.500,4910.32568,N,12304.20747,W,8.74,10.04,M,6.18,0,2,0,2,0,*53
$PSIWMATT,022117.500,360.0,T,0.7,0.1,180.0,*7F
$PSIWMVEL,022117.500,360.0,T,0.0,K,-0.00,M,*77
$PSIWMVSD,022117.500,0.00,0.00,0.00,2,0.00,0.00,0.00,2,*0D
$GPGGA,202259.000,4910.32568,N,12304.20747,W,1,16,0.6,010.04,M,-16.8,M,,*52
$GPRMC,202259.000,A,4910.32568,N,12304.20747,W,0.0,0.0,161018,,,A*79
$GNGSA,A,3,24,27,08,14,15,20,21,10,32,,,,1.1,0.6,0.9*28
$GNGSA,A,3,87,73,72,81,66,88,65,,,,,,1.1,0.6,0.9*27
$PSIWMPVT,8478.330,246196.999,3,49.1720947,-123.0701246,10.045,-0.007,-0.017,-0.041,5.196,3.674,5.430,0.707,0.000,0.612,8.478,0.016,16,*11
$PSIWMPOS,022118.500,4910.32568,N,12304.20747,W,8.82,10.04,M,6.24,0,2,0,2,0,*5A
$PSIWMATT,022118.500,360.0,T,0.7,0.1,180.0,*70
$PSIWMVEL,022118.500,360.0,T,0.0,K,-0.00,M,*78
$PSIWMVSD,022118.500,0.00,0.00,0.00,2,0.00,0.00,0.00,2,*02
$GPGGA,202300.000,4910.32568,N,12304.20747,W,1,16,0.6,010.04,M,-16.8,M,,*5F
$GPRMC,202300.000,A,4910.32568,N,12304.20747,W,0.0,0.0,161018,,,A*74
$GNGSA,A,3,24,27,08,14,15,20,21,10,32,,,,1.1,0.6,0.9*28
$GNGSA,A,3,87,73,72,81,66,88,65,,,,,,1.1,0.6,0.9*27
$PSIWMPVT,8479.330,246198.000,3,49.1720947,-123.0701246,10.045,-0.010,-0.002,-0.036,5.196,3.674,5.348,0.707,0.000,0.612,8.353,0.023,16,*15
$PSIWMPOS,022119.500,4910.32568,N,12304.20747,W,8.82,10.04,M,6.24,0,2,0,2,0,*5B
$PSIWMATT,022119.500,360.0,T,0.7,0.1,180.0,*71
$PSIWMVEL,022119.500,360.0,T,0.0,K,-0.00,M,*79
$PSIWMVSD,022119.500,0.00,0.00,0.00,2,0.00,0.00,0.00,2,*03
$GPGGA,202301.000,4910.32568,N,12304.20747,W,1,16,0.6,010.04,M,-16.8,M,,*5E
$GPRMC,202301.000,A,4910.32568,N,12304.20747,W,0.1,0.0,161018,,,A*74
$GNGSA,A,3,24,27,08,14,15,20,21,10,32,,,,1.1,0.6,0.9*28
$GNGSA,A,3,87,73,72,81,66,88,65,,,,,,1.1,0.6,0.9*27
$PSIWMPVT,8480.330,246199.000,3,49.1720947,-123.0701246,10.045,-0.014,-0.022,-0.045,5.196,3.674,5.328,0.707,0.000,0.612,8.320,0.023,16,*12
$PSIWMPOS,022120.500,4910.32568,N,12304.20747,W,8.82,10.04,M,6.24,0,2,0,2,0,*51
$PSIWMATT,022120.500,360.0,T,0.7,0.1,180.0,*7B
$PSIWMVEL,022120.500,360.0,T,0.0,K,-0.00,M,*73
$PSIWMVSD,022120.500,0.00,0.00,0.00,2,0.00,0.00,0.00,2,*09
$GPGGA,202302.000,4910.32568,N,12304.20747,W,1,16,0.6,010.04,M,-16.8,M,,*5D
$GPRMC,202302.000,A,4910.32568,N,12304.20747,W,0.0,0.0,161018,,,A*76
$GNGSA,A,3,24,27,08,14,15,20,21,10,32,,,,1.1,0.6,0.9*28
$GNGSA,A,3,87,73,72,81,66,88,65,,,,,,1.1,0.6,0.9*27
$PSIWMPVT,8481.330,246200.000,3,49.1720947,-123.0701246,10.045,-0.001,-0.004,-0.044,5.196,3.674,5.336,0.707,0.000,0.612,8.332,0.023,16,*1D
$PSIWMPOS,022121.500,4910.32568,N,12304.20747,W,8.82,10.04,M,6.24,0,2,0,2,0,*50
$PSIWMATT,022121.500,360.0,T,0.7,0.1,180.0,*7A
$PSIWMVEL,022121.500,360.0,T,0.0,K,-0.00,M,*72
$PSIWMVSD,022121.500,0.00,0.00,0.00,2,0.00,0.00,0.00,2,*08
$GPGGA,202303.000,4910.32568,N,12304.20747,W,1,16,0.6,010.04,M,-16.8,M,,*5C
$GPRMC,202303.000,A,4910.32568,N,12304.20747,W,0.0,0.0,161018,,,A*77
$GNGSA,A,3,24,27,08,14,15,20,21,10,32,,,,1.1,0.6,0.9*28
$GNGSA,A,3,87,73,72,81,66,88,65,,,,,,1.1,0.6,0.9*27
$PSIWMPVT,8482.330,246200.999,3,49.1720947,-123.0701246,10.045,-0.004,0.006,-0.040,5.196,3.742,5.285,0.707,0.000,0.612,8.255,0.023,16,*34
$PSIWMPOS,022122.500,4910.32568,N,12304.20747,W,8.82,10.04,M,6.24,0,2,0,2,0,*53
$PSIWMATT,022122.500,360.0,T,0.7,0.1,180.0,*79
$PSIWMVEL,022122.500,360.0,T,0.0,K,-0.00,M,*71
$PSIWMVSD,022122.500,0.00,0.00,0.00,2,0.00,0.00,0.00,2,*0B
$GPGGA,202304.000,4910.32568,N,12304.20747,W,1,16,0.6,010.04,M,-16.8,M,,*5B
$GPRMC,202304.000,A,4910.32568,N,12304.20747,W,0.0,0.0,161018,,,A*70
$GNGSA,A,3,24,27,08,14,15,20,21,10,32,,,,1.1,0.6,0.9*28
$GNGSA,A,3,87,73,72,81,66,88,65,,,,,,1.1,0.6,0.9*27
$PSIWMPVT,8483.330,246202.000,3,49.1720947,-123.0701246,10.045,-0.004,-0.016,-0.043,5.244,3.742,5.109,0.707,0.000,0.612,7.977,0.016,16,*18
$PSIWMPOS,022123.500,4910.32568,N,12304.20747,W,8.90,10.04,M,6.29,0,2,0,2,0,*5C
$PSIWMATT,022123.500,360.0,T,0.7,0.1,180.0,*78
$PSIWMVEL,022123.500,360.0,T,0.0,K,-0.00,M,*70
$PSIWMVSD,022123.500,0.00,0.00,0.00,2,0.00,0.00,0.00,2,*0A
$GPGGA,202305.000,4910.32568,N,12304.20747,W,1,16,0.6,010.04,M,-16.8,M,,*5A
$GPRMC,202305.000,A,4910.32568,N,12304.20747,W,0.0,0.0,161018,,,A*71
$GNGSA,A,3,24,27,08,14,15,20,21,10,32,,,,1.1,0.6,0.9*28
$GNGSA,A,3,87,73,72,81,66,88,65,,,,,,1.1,0.6,0.9*27
$PSIWMPVT,8484.330,246203.000,3,49.1720947,-123.0701246,10.045,-0.001,0.010,-0.037,5.244,3.742,5.410,0.707,0.000,0.612,8.446,0.023,16,*38
$PSIWMPOS,022124.500,4910.32568,N,12304.20747,W,8.90,10.04,M,6.29,0,2,0,2,0,*5B
$PSIWMATT,022124.500,360.0,T,0.7,0.1,180.0,*7F
$PSIWMVEL,022124.500,360.0,T,0.0,K,-0.00,M,*77
$PSIWMVSD,022124.500,0.00,0.00,0.00,2,0.00,0.00,0.00,2,*0D
$GPGGA,202306.000,4910.32568,N,12304.20747,W,1,16,0.6,010.04,M,-16.8,M,,*59
$GPRMC,202306.000,A,4910.32568,N,12304.20747,W,0.0,0.0,161018,,,A*72
$GNGSA,A,3,24,27,08,14,15,20,21,10,32,,,,1.1,0.6,0.9*28
$GNGSA,A,3,87,73,72,81,66,88,65,,,,,,1.1,0.6,0.9*27
$PSIWMPVT,8485.330,246204.000,3,49.1720947,-123.0701246,10.045,-0.006,-0.014,-0.043,5.244,3.742,5.320,0.707,0.000,0.612,8.307,0.020,16,*16
$PSIWMPOS,022125.500,4910.32568,N,12304.20747,W,8.90,10.04,M,6.29,0,2,0,2,0,*5A
$PSIWMATT,022125.500,360.0,T,0.7,0.1,180.0,*7E
$PSIWMVEL,022125.500,360.0,T,0.0,K,-0.00,M,*76
$PSIWMVSD,022125.500,0.00,0.00,0.00,2,0.00,0.00,0.00,2,*0C
$GPGGA,202307.000,4910.32568,N,12304.20747,W,1,16,0.6,010.04,M,-16.8,M,,*58
$GPRMC,202307.000,A,4910.32568,N,12304.20747,W,0.0,0.0,161018,,,A*73
$GNGSA,A,3,24,27,08,14,15,20,21,10,32,,,,1.1,0.6,0.9*28
$GNGSA,A,3,87,73,72,81,66,88,65,,,,,,1.1,0.6,0.9*27
$PSIWMPVT,8486.330,246205.000,3,49.1720947,-123.0701246,10.045,-0.001,-0.011,-0.040,5.244,3.742,5.449,0.707,0.000,0.612,8.512,0.020,16,*1F
$PSIWMPOS,022126.500,4910.32568,N,12304.20747,W,8.90,10.04,M,6.29,0,2,0,2,0,*59
$PSIWMATT,022126.500,360.0,T,0.7,0.1,180.0,*7D
$PSIWMVEL,022126.500,360.0,T,0.0,K,-0.00,M,*75
$PSIWMVSD,022126.500,0.00,0.00,0.00,2,0.00,0.00,0.00,2,*0F
$GPGGA,202308.000,4910.32568,N,12304.20747,W,1,16,0.6,010.04,M,-16.8,M,,*57
$GPRMC,202308.000,A,4910.32568,N,12304.20747,W,0.1,0.0,161018,,,A*7D
$GNGSA,A,3,24,27,08,14,15,20,21,10,32,,,,1.1,0.6,0.9*28
$GNGSA,A,3,87,73,72,81,66,88,65,,,,,,1.1,0.6,0.9*27
$PSIWMPVT,8487.330,246206.000,3,49.1720947,-123.0701246,10.045,-0.019,-0.037,-0.050,5.244,3.808,5.129,0.707,0.000,0.612,8.007,0.027,16,*15
$PSIWMPOS,022127.500,4910.32568,N,12304.20747,W,8.90,10.04,M,6.29,0,2,0,2,0,*58
$PSIWMATT,022127.500,360.0,T,0.7,0.1,180.0,*7C
$PSIWMVEL,022127.500,360.0,T,0.0,K,-0.00,M,*74
$PSIWMVSD,022127.500,0.00,0.00,0.00,2,0.00,0.00,0.00,2,*0E
$GPGGA,202309.000,4910.32568,N,12304.20747,W,1,16,0.6,010.04,M,-16.8,M,,*56
$GPRMC,202309.000,A,4910.32568,N,12304.20747,W,0.0,0.0,161018,,,A*7D
$GNGSA,A,3,24,27,08,14,15,20,21,10,32,,,,1.1,0.6,0.9*28
$GNGSA,A,3,87,73,72,81,66,88,65,,,,,,1.1,0.6,0.9*27
$PSIWMPVT,8488.330,246207.000,3,49.1720947,-123.0701246,10.045,-0.005,-0.023,-0.056,5.292,3.808,5.066,0.707,0.000,0.612,7.910,0.027,16,*14
$PSIWMPOS,022128.500,4910.32568,N,12304.20747,W,8.98,10.04,M,6.35,0,2,0,2,0,*52
$PSIWMATT,022128.500,360.0,T,0.7,0.1,180.0,*73
$PSIWMVEL,022128.500,360.0,T,0.0,K,-0.00,M,*7B
$PSIWMVSD,022128.500,0.00,0.00,0.00,2,0.00,0.00,0.00,2,*01
$GPGGA,202310.000,4910.32568,N,12304.20747,W,1,16,0.6,010.04,M,-16.8,M,,*5E
$GPRMC,202310.000,A,4910.32568,N,12304.20747,W,0.0,0.0,161018,,,A*75
$GNGSA,A,3,24,27,08,14,15,20,21,10,32,,,,1.1,0.6,0.9*28
$GNGSA,A,3,87,73,72,81,66,88,65,,,,,,1.1,0.6,0.9*27
$PSIWMPVT,8489.330,246208.000,3,49.1720947,-123.0701246,10.045,-0.005,0.004,-0.053,5.292,3.808,5.273,0.707,0.000,0.612,8.233,0.027,16,*34
$PSIWMPOS,022129.500,4910.32568,N,12304.20747,W,8.98,10.04,M,6.35,0,2,0,2,0,*53
$PSIWMATT,022129.500,360.0,T,0.7,0.2,180.0,*71
$PSIWMVEL,022129.500,360.0,T,0.0,K,-0.00,M,*7A
$PSIWMVSD,022129.500,0.00,0.00,0.00,2,0.00,0.00,0.00,2,*00
$GPGGA,202311.000,4910.32568,N,12304.20747,W,1,16,0.6,010.04,M,-16.8,M,,*5F
$GPRMC,202311.000,A,4910.32568,N,12304.20747,W,0.0,0.0,161018,,,A*74
$GNGSA,A,3,24,27,08,14,15,20,21,10,32,,,,1.1,0.6,0.9*28
$GNGSA,A,3,87,73,72,81,66,88,65,,,,,,1.1,0.6,0.9*27
$PSIWMPVT,8490.330,246209.000,3,49.1720947,-123.0701246,10.045,-0.005,-0.006,-0.052,5.292,3.808,5.035,0.707,0.000,0.612,7.863,0.023,16,*17
$PSIWMPOS,022130.500,4910.32568,N,12304.20747,W,8.98,10.04,M,6.35,0,2,0,2,0,*5B
$PSIWMATT,022130.500,360.0,T,0.7,0.1,180.0,*7A
$PSIWMVEL,022130.500,360.0,T,0.0,K,-0.00,M,*72
$PSIWMVSD,022130.500,0.00,0.00,0.00,2,0.00,0.00,0.00,2,*08
$GPGGA,202312.000,4910.32568,N,12304.20747,W,1,16,0.6,010.04,M,-16.8,M,,*5C
$GPRMC,202312.000,A,4910.32568,N,12304.20747,W,0.0,0.0,161018,,,A*77
$GNGSA,A,3,24,27,08,14,15,20,21,10,32,,,,1.1,0.6,0.9*28
$GNGSA,A,3,87,73,72,81,66,88,65,,,,,,1.1,0.6,0.9*27
$PSIWMPVT,8491.330,246210.000,3,49.1720947,-123.0701246,10.045,-0.005,-0.006,-0.052,5.292,3.808,4.887,0.707,0.000,0.612,7.629,0.027,16,*1A
$PSIWMPOS,022131.500,4910.32568,N,12304.20747,W,8.98,10.04,M,6.35,0,2,0,2,0,*5A
$PSIWMATT,022131.500,360.0,T,0.7,0.1,180.0,*7B
$PSIWMVEL,022131.500,360.0,T,0.0,K,-0.00,M,*73
$PSIWMVSD,022131.500,0.00,0.00,0.00,2,0.00,0.00,0.00,2,*09
$GPGGA,202313.000,4910.32568,N,12304.20747,W,1,16,0.6,010.04,M,-16.8,M,,*5D
$GPRMC,202313.000,A,4910.32568,N,12304.20747,W,0.0,0.0,161018,,,A*76
$GNGSA,A,3,24,27,08,14,15,20,21,10,32,,,,1.1,0.6,0.9*28
$GNGSA,A,3,87,73,72,81,66,88,65,,,,,,1.1,0.6,0.9*27
$PSIWMPVT,8492.330,246211.000,3,49.1720947,-123.0701246,10.045,-0.011,-0.006,-0.052,5.292,3.873,4.820,0.707,0.000,0.612,7.528,0.023,16,*1A
$PSIWMPOS,022132.500,4910.32568,N,12304.20747,W,8.98,10.04,M,6.35,0,2,0,2,0,*59
$PSIWMATT,022132.500,360.0,T,0.7,0.2,180.0,*7B
$PSIWMVEL,022132.500,360.0,T,0.0,K,-0.00,M,*70
$PSIWMVSD,022132.500,0.00,0.00,0.00,2,0.00,0.00,0.00,2,*0A
$GPGGA,202314.000,4910.32568,N,12304.20747,W,1,16,0.6,010.04,M,-16.8,M,,*5A
