$GPGGA,212555.000,4910.30970,N,12304.12512,W,1,17,0.6,004.48,M,-16.8,M,,*50
$GPRMC,212555.000,A,4910.30970,N,12304.12512,W,0.0,0.0,161018,,,A*77
$GNGSA,A,3,10,32,20,08,27,18,14,24,11,01,,,1.0,0.6,0.9*26
$GNGSA,A,3,81,65,66,74,82,72,75,,,,,,1.0,0.6,0.9*26
$PSIWMPVT,46.220,249972.999,3,49.1718283,-123.0687519,4.481,-0.017,0.006,-0.018,4.743,3.162,7.105,0.612,0.354,0.000,12.788,0.227,17,*34
$GPGGA,212556.000,4910.30973,N,12304.12519,W,1,17,0.6,004.76,M,-16.8,M,,*56
$GPRMC,212556.000,A,4910.30973,N,12304.12519,W,0.0,0.0,161018,,,A*7C
$GNGSA,A,3,10,32,20,08,27,18,14,24,11,01,,,1.0,0.6,0.9*26
$GNGSA,A,3,81,65,66,74,82,72,75,,,,,,1.0,0.6,0.9*26
$PSIWMPVT,47.220,249974.000,3,49.1718288,-123.0687532,4.765,-0.006,0.013,-0.019,4.743,3.162,7.000,0.612,0.354,0.000,12.630,0.289,17,*36
$PSIWMPDR,2093.250,49.1718277,-123.0687185,-0.881,171.308776855,4.648944378,1,-2.418382883,0.525354564,-0.328240275,37.56,0.106265366,0.138313964,0.094037138,0.114536777,-1010101.125000000,152,*19
$GPGGA,212557.000,4910.30972,N,12304.12526,W,1,19,0.6,005.09,M,-16.8,M,,*5D
$GPRMC,212557.000,A,4910.30972,N,12304.12526,W,0.0,0.0,161018,,,A*70
$GNGSA,A,3,10,32,20,08,27,18,14,24,11,01,,,1.0,0.6,0.9*26
$GNGSA,A,3,81,65,66,88,74,82,72,87,75,,,,1.0,0.6,0.9*29
$PSIWMPVT,48.220,249975.000,3,49.1718286,-123.0687543,5.092,-0.010,0.008,-0.018,4.690,3.162,7.105,0.612,0.354,0.000,13.042,0.207,19,*33
$GPGGA,212558.000,4910.30970,N,12304.12527,W,1,17,0.6,005.13,M,-16.8,M,,*54
$GPRMC,212558.000,A,4910.30970,N,12304.12527,W,0.0,0.0,161018,,,A*7C
$GNGSA,A,3,10,32,20,08,27,18,14,24,11,01,,,1.0,0.6,0.9*26
$GNGSA,A,3,81,65,66,88,74,82,72,,,,,,1.0,0.6,0.9*24
$PSIWMPVT,49.220,249975.999,3,49.1718284,-123.0687546,5.130,-0.016,-0.005,-0.020,4.743,3.162,7.699,0.612,0.354,0.000,14.360,0.043,17,*1D
$PSIWMPOS,000049.800,4910.30970,N,12304.12527,W,141.42,5.13,M,100.00,0,8,0,2,0,*69
$PSIWMATT,000049.800,360.0,T,6.0,-0.8,180.0,*5D
$PSIWMVEL,000049.800,360.0,T,0.0,K,-0.00,M,*70
$PSIWMVSD,000049.800,0.00,0.00,0.00,2,0.00,0.00,0.00,2,*0A
$GPGGA,212559.000,4910.30963,N,12304.12538,W,1,17,0.6,005.46,M,-16.8,M,,*59
$GPRMC,212559.000,A,4910.30963,N,12304.12538,W,0.0,0.0,161018,,,A*71
$GNGSA,A,3,10,32,20,08,27,18,14,24,11,01,,,1.0,0.6,0.9*26
$GNGSA,A,3,81,65,66,88,74,82,72,,,,,,1.0,0.6,0.9*24
$PSIWMPVT,50.260,249976.999,3,49.1718272,-123.0687564,5.459,-0.004,-0.004,-0.017,4.743,3.162,7.953,0.612,0.354,0.000,15.844,0.020,17,*17
$PSIWMPOS,000050.800,4910.30963,N,12304.12538,W,6.71,5.46,M,4.74,0,8,0,2,0,*69
$PSIWMATT,000050.800,360.0,T,6.0,-0.8,180.0,*55
$PSIWMVEL,000050.800,360.0,T,0.0,K,0.02,M,*57
$PSIWMVSD,000050.800,0.00,0.00,0.00,2,0.00,0.00,0.00,2,*02
$GPGGA,212600.000,4910.30958,N,12304.12550,W,1,17,0.6,005.71,M,-16.8,M,,*54
$GPRMC,212600.000,A,4910.30958,N,12304.12550,W,0.0,0.0,161018,,,A*78
$GNGSA,A,3,10,32,20,08,27,18,14,24,11,01,,,1.0,0.6,0.9*26
$GNGSA,A,3,81,65,66,88,74,82,72,,,,,,1.0,0.6,0.9*24
$PSIWMPVT,51.270,249978.000,3,49.1718263,-123.0687583,5.707,0.001,0.003,-0.013,4.690,3.162,7.852,0.612,0.354,0.000,16.078,0.121,17,*1C
$PSIWMPOS,000051.800,4910.30958,N,12304.12550,W,6.63,5.71,M,4.69,0,8,0,2,0,*65
$PSIWMATT,000051.800,360.0,T,6.0,-0.7,180.0,*5B
$PSIWMVEL,000051.800,360.0,T,0.0,K,-0.00,M,*79
$PSIWMVSD,000051.800,0.00,0.00,0.00,2,0.00,0.00,0.00,2,*03
$GPGGA,212601.000,4910.30948,N,12304.12562,W,1,17,0.6,006.05,M,-16.8,M,,*55
$GPRMC,212601.000,A,4910.30948,N,12304.12562,W,0.0,0.0,161018,,,A*79
$GNGSA,A,3,10,32,20,08,27,18,14,24,11,01,,,1.0,0.6,0.9*26
$GNGSA,A,3,81,65,66,88,74,82,72,,,,,,1.0,0.6,0.9*24
$PSIWMPVT,52.280,249979.000,3,49.1718246,-123.0687604,6.050,-0.017,0.008,-0.017,4.690,3.162,8.297,0.612,0.354,0.000,16.864,0.270,17,*37
$PSIWMPOS,000052.800,4910.30948,N,12304.12562,W,7.96,6.05,M,5.63,0,8,0,2,0,*66
$PSIWMATT,000052.800,360.0,T,5.9,-0.8,180.0,*5D
$PSIWMVEL,000052.800,360.0,T,0.0,K,-0.00,M,*7A
$PSIWMVSD,000052.800,0.00,0.00,0.00,2,0.00,0.00,0.00,2,*00
$GPGGA,212602.000,4910.30936,N,12304.12555,W,1,17,0.6,006.30,M,-16.8,M,,*5D
$GPRMC,212602.000,A,4910.30936,N,12304.12555,W,0.0,0.0,161018,,,A*77
$GNGSA,A,3,10,32,20,08,27,18,14,24,11,01,,,1.0,0.6,0.9*26
$GNGSA,A,3,81,65,66,88,74,82,72,,,,,,1.0,0.6,0.9*24
$PSIWMPVT,53.280,249979.999,3,49.1718227,-123.0687592,6.300,-0.002,0.001,-0.017,4.690,3.162,8.277,0.612,0.354,0.000,17.364,0.156,17,*3C
$PSIWMPOS,000053.800,4910.30936,N,12304.12555,W,7.96,6.30,M,5.63,0,8,0,2,0,*6C
$PSIWMATT,000053.800,360.0,T,6.0,-0.7,180.0,*59
$PSIWMVEL,000053.800,360.0,T,0.0,K,-0.00,M,*7B
$PSIWMVSD,000053.800,0.00,0.00,0.00,2,0.00,0.00,0.00,2,*01
$GPGGA,212603.000,4910.30927,N,12304.12552,W,1,17,0.6,006.74,M,-16.8,M,,*5B
$GPRMC,212603.000,A,4910.30927,N,12304.12552,W,0.0,0.0,161018,,,A*71
$GNGSA,A,3,10,32,20,08,27,18,14,24,11,01,,,1.0,0.6,0.9*26
$GNGSA,A,3,81,65,66,88,74,82,72,,,,,,1.0,0.6,0.9*24
$PSIWMPVT,54.280,249980.999,3,49.1718211,-123.0687586,6.742,-0.012,-0.000,-0.017,4.690,3.162,8.148,0.612,0.354,0.000,18.395,0.062,17,*1A
$PSIWMPOS,000054.800,4910.30927,N,12304.12552,W,7.96,6.74,M,5.63,0,8,0,2,0,*6C
$PSIWMATT,000054.800,360.0,T,6.0,-0.7,180.0,*5E
$PSIWMVEL,000054.800,360.0,T,0.0,K,-0.00,M,*7C
$PSIWMVSD,000054.800,0.00,0.00,0.00,2,0.00,0.00,0.00,2,*06
$GPGGA,212604.000,4910.30924,N,12304.12541,W,1,17,0.6,006.99,M,-16.8,M,,*5E
$GPRMC,212604.000,A,4910.30924,N,12304.12541,W,0.0,0.0,161018,,,A*77
$GNGSA,A,3,10,32,20,08,27,18,14,24,11,01,,,1.0,0.6,0.9*26
$GNGSA,A,3,81,65,66,88,74,82,87,,,,,,1.0,0.6,0.9*2E
$PSIWMPVT,55.280,249982.000,3,49.1718207,-123.0687569,6.989,-0.008,0.010,-0.017,4.690,3.162,8.363,0.612,0.354,0.000,16.838,0.055,17,*35
$PSIWMPOS,000055.800,4910.30924,N,12304.12541,W,7.96,6.99,M,5.63,0,8,0,2,0,*6F
$PSIWMATT,000055.800,360.0,T,6.0,-0.7,180.0,*5F
$PSIWMVEL,000055.800,360.0,T,0.0,K,-0.00,M,*7D
$PSIWMVSD,000055.800,0.00,0.00,0.00,2,0.00,0.00,0.00,2,*07
$GPGGA,212605.000,4910.30927,N,12304.12522,W,1,17,0.6,007.25,M,-16.8,M,,*5F
$GPRMC,212605.000,A,4910.30927,N,12304.12522,W,0.0,0.0,161018,,,A*70
$GNGSA,A,3,10,32,20,08,27,18,14,24,11,01,,,1.0,0.6,0.9*26
$GNGSA,A,3,81,65,66,88,74,82,72,,,,,,1.0,0.6,0.9*24
$PSIWMPVT,56.280,249983.000,3,49.1718211,-123.0687536,7.250,-0.009,0.015,-0.021,4.690,3.162,7.586,0.612,0.354,0.000,17.065,0.035,17,*30
$PSIWMPOS,000056.800,4910.30927,N,12304.12522,W,7.96,7.25,M,5.63,0,8,0,2,0,*6C
$PSIWMATT,000056.800,360.0,T,6.0,-0.7,180.0,*5C
$PSIWMVEL,000056.800,360.0,T,0.0,K,-0.00,M,*7E
$PSIWMVSD,000056.800,0.00,0.00,0.00,2,0.00,0.00,0.00,2,*04
$GPGGA,212606.000,4910.30926,N,12304.12504,W,1,17,0.6,007.59,M,-16.8,M,,*52
$GPRMC,212606.000,A,4910.30926,N,12304.12504,W,0.0,0.0,161018,,,A*76
$GNGSA,A,3,10,32,20,08,27,18,14,24,11,01,,,1.0,0.6,0.9*26
$GNGSA,A,3,81,65,66,88,74,82,72,,,,,,1.0,0.6,0.9*24
$PSIWMPVT,57.280,249984.000,3,49.1718211,-123.0687506,7.587,-0.006,0.014,-0.027,4.690,3.082,7.367,0.612,0.354,0.000,16.536,0.074,17,*31
$PSIWMPOS,000057.800,4910.30926,N,12304.12504,W,7.96,7.59,M,5.63,0,8,0,2,0,*63
$PSIWMATT,000057.800,360.0,T,6.0,-0.7,180.0,*5D
$PSIWMVEL,000057.800,360.0,T,0.0,K,-0.00,M,*7F
$PSIWMVSD,000057.800,0.00,0.00,0.00,2,0.00,0.00,0.00,2,*05
$GPGGA,212607.000,4910.30935,N,12304.12472,W,1,17,0.6,007.88,M,-16.8,M,,*5D
$GPRMC,212607.000,A,4910.30935,N,12304.12472,W,0.0,0.0,161018,,,A*75
$GNGSA,A,3,10,32,20,08,27,18,14,24,11,01,,,1.0,0.6,0.9*26
$GNGSA,A,3,81,65,66,88,74,82,72,,,,,,1.0,0.6,0.9*24
$PSIWMPVT,58.280,249984.999,3,49.1718225,-123.0687453,7.877,0.002,0.010,-0.024,4.690,3.082,7.477,0.612,0.354,0.000,18.154,0.199,17,*17
$PSIWMPOS,000058.800,4910.30935,N,12304.12472,W,7.96,7.88,M,5.63,0,8,0,2,0,*62
$PSIWMATT,000058.800,360.0,T,6.0,-0.7,180.0,*52
$PSIWMVEL,000058.800,360.0,T,0.0,K,-0.00,M,*70
$PSIWMVSD,000058.800,0.00,0.00,0.00,2,0.00,0.00,0.00,2,*0A
$GPGGA,212608.000,4910.30935,N,12304.12437,W,1,17,0.6,008.09,M,-16.8,M,,*55
$GPRMC,212608.000,A,4910.30935,N,12304.12437,W,0.0,0.0,161018,,,A*7B
$GNGSA,A,3,10,32,20,08,27,18,14,24,11,01,,,1.0,0.6,0.9*26
$GNGSA,A,3,81,65,66,88,74,82,72,,,,,,1.0,0.6,0.9*24
$PSIWMPVT,59.280,249986.000,3,49.1718225,-123.0687395,8.094,-0.004,-0.010,-0.024,4.690,3.082,5.762,0.612,0.354,0.000,17.728,0.195,17,*17
$PSIWMPOS,000059.800,4910.30935,N,12304.12437,W,7.96,8.09,M,5.63,0,8,0,2,0,*64
$PSIWMATT,000059.800,360.0,T,6.0,-0.7,180.0,*53
$PSIWMVEL,000059.800,360.0,T,0.0,K,-0.00,M,*71
$PSIWMVSD,000059.800,0.00,0.00,0.00,2,0.00,0.00,0.00,2,*0B
$GPGGA,212609.000,4910.30939,N,12304.12420,W,1,16,0.6,008.12,M,-16.8,M,,*55
$GPRMC,212609.000,A,4910.30939,N,12304.12420,W,0.0,0.0,161018,,,A*70
$GNGSA,A,3,10,32,20,08,27,18,14,24,11,01,,,1.1,0.6,1.0*2F
$GNGSA,A,3,81,65,66,88,74,82,,,,,,,1.1,0.6,1.0*28
$PSIWMPVT,60.280,249987.000,3,49.1718232,-123.0687367,8.123,-0.013,0.015,-0.023,4.690,3.082,5.375,0.612,0.354,0.000,14.034,0.395,16,*3B
$PSIWMPOS,000100.800,4910.30939,N,12304.12420,W,7.96,8.12,M,5.63,0,8,0,2,0,*69
$PSIWMATT,000100.800,360.0,T,6.0,-0.7,180.0,*5E
$PSIWMVEL,000100.800,360.0,T,0.0,K,-0.00,M,*7C
$PSIWMVSD,000100.800,0.00,0.00,0.00,2,0.00,0.00,0.00,2,*06
$GPGGA,212610.000,4910.30949,N,12304.12407,W,1,16,0.6,008.04,M,-16.8,M,,*58
$GPRMC,212610.000,A,4910.30949,N,12304.12407,W,0.1,0.0,161018,,,A*7B
$GNGSA,A,3,10,32,20,08,27,18,14,24,11,01,,,1.1,0.6,1.0*2F
$GNGSA,A,3,81,65,66,88,74,82,,,,,,,1.1,0.6,1.0*28
$PSIWMPVT,61.270,249988.000,3,49.1718249,-123.0687345,8.037,-0.009,0.025,-0.023,4.690,3.082,5.020,0.612,0.354,0.000,15.307,0.484,16,*3C
$PSIWMPOS,000101.800,4910.30949,N,12304.12407,W,7.96,8.04,M,5.63,0,8,0,2,0,*6D
$PSIWMATT,000101.800,360.0,T,6.0,-0.7,180.0,*5F
$PSIWMVEL,000101.800,360.0,T,0.0,K,-0.00,M,*7D
$PSIWMVSD,000101.800,0.00,0.00,0.00,2,0.00,0.00,0.00,2,*07
$GPGGA,212611.000,4910.30950,N,12304.12397,W,1,16,0.7,007.93,M,-16.8,M,,*5F
$GPRMC,212611.000,A,4910.30950,N,12304.12397,W,0.0,0.0,161018,,,A*7D
$GNGSA,A,3,10,32,20,08,27,18,14,24,11,01,,,1.2,0.7,1.0*2D
$GNGSA,A,3,81,65,66,88,74,82,,,,,,,1.2,0.7,1.0*2A
$PSIWMPVT,62.270,249988.999,3,49.1718250,-123.0687329,7.932,-0.003,0.021,-0.021,4.690,3.082,5.047,0.612,0.354,0.000,7.776,0.023,16,*02
$PSIWMPOS,000102.800,4910.30950,N,12304.12397,W,7.96,7.93,M,5.63,0,8,0,2,0,*69
$PSIWMATT,000102.800,360.0,T,6.0,-0.7,180.0,*5C
$PSIWMVEL,000102.800,360.0,T,0.0,K,-0.00,M,*7E
$PSIWMVSD,000102.800,0.00,0.00,0.00,2,0.00,0.00,0.00,2,*04
$GPGGA,212612.000,4910.30950,N,12304.12390,W,1,16,0.7,007.71,M,-16.8,M,,*57
$GPRMC,212612.000,A,4910.30950,N,12304.12390,W,0.0,0.0,161018,,,A*79
$GNGSA,A,3,10,32,20,08,27,18,14,24,11,01,,,1.2,0.7,1.0*2D
$GNGSA,A,3,81,65,66,88,74,82,,,,,,,1.2,0.7,1.0*2A
$PSIWMPVT,63.270,249990.000,3,49.1718250,-123.0687316,7.710,0.003,-0.002,-0.018,4.690,3.082,5.176,0.612,0.354,0.000,8.088,0.043,16,*06
$PSIWMPOS,000103.800,4910.30950,N,12304.12390,W,7.96,7.71,M,5.63,0,8,0,2,0,*63
$PSIWMATT,000103.800,360.0,T,6.0,-0.7,180.0,*5D
$PSIWMVEL,000103.800,360.0,T,0.0,K,-0.00,M,*7F
$PSIWMVSD,000103.800,0.00,0.00,0.00,2,0.00,0.00,0.00,2,*05
$GPGGA,212613.000,4910.30949,N,12304.12389,W,1,17,0.7,007.32,M,-16.8,M,,*50
$GPRMC,212613.000,A,4910.30949,N,12304.12389,W,0.0,0.0,161018,,,A*78
$GNGSA,A,3,10,32,20,08,27,18,14,24,11,01,,,1.2,0.7,1.0*2D
$GNGSA,A,3,81,65,66,88,74,82,72,,,,,,1.2,0.7,1.0*2F
$PSIWMPVT,64.280,249991.000,3,49.1718249,-123.0687315,7.318,-0.018,0.012,-0.019,4.690,3.162,4.457,0.612,0.354,0.000,7.250,0.062,17,*00
$PSIWMPOS,000104.800,4910.30949,N,12304.12389,W,7.96,7.32,M,5.63,0,8,0,2,0,*63
$PSIWMATT,000104.800,360.0,T,6.0,-0.7,180.0,*5A
$PSIWMVEL,000104.800,360.0,T,0.0,K,-0.00,M,*78
$PSIWMVSD,000104.800,0.00,0.00,0.00,2,0.00,0.00,0.00,2,*02
$GPGGA,212614.000,4910.30951,N,12304.12393,W,1,17,0.7,006.99,M,-16.8,M,,*55
$GPRMC,212614.000,A,4910.30951,N,12304.12393,W,0.0,0.0,161018,,,A*7D
$GNGSA,A,3,10,32,20,08,27,18,14,24,11,01,,,1.2,0.7,1.0*2D
$GNGSA,A,3,81,65,66,88,74,82,72,,,,,,1.2,0.7,1.0*2F
$PSIWMPVT,65.270,249992.000,3,49.1718251,-123.0687322,6.988,0.001,0.011,-0.014,4.690,3.162,4.062,0.612,0.354,0.000,6.592,0.082,17,*2D
$PSIWMPOS,000105.800,4910.30951,N,12304.12393,W,7.96,6.99,M,5.63,0,8,0,2,0,*60
$PSIWMATT,000105.800,360.0,T,6.0,-0.7,180.0,*5B
$PSIWMVEL,000105.800,360.0,T,0.0,K,-0.00,M,*79
$PSIWMVSD,000105.800,0.00,0.00,0.00,2,0.00,0.00,0.00,2,*03
$GPGGA,212615.000,4910.30943,N,12304.12407,W,1,17,0.7,006.59,M,-16.8,M,,*51
$GPRMC,212615.000,A,4910.30943,N,12304.12407,W,0.0,0.0,161018,,,A*75
$GNGSA,A,3,10,32,20,08,27,18,14,24,11,01,,,1.2,0.7,1.0*2D
$GNGSA,A,3,81,65,66,88,74,82,72,,,,,,1.2,0.7,1.0*2F
$PSIWMPVT,66.270,249993.000,3,49.1718239,-123.0687345,6.592,-0.005,0.010,-0.013,4.690,3.162,4.078,0.612,0.354,0.000,6.473,0.074,17,*04
$PSIWMPOS,000106.800,4910.30943,N,12304.12407,W,7.96,6.59,M,5.63,0,8,0,2,0,*66
$PSIWMATT,000106.800,360.0,T,6.0,-0.7,180.0,*58
$PSIWMVEL,000106.800,360.0,T,0.0,K,-0.00,M,*7A
$PSIWMVSD,000106.800,0.00,0.00,0.00,2,0.00,0.00,0.00,2,*00
$GPGGA,212616.000,4910.30944,N,12304.12408,W,1,17,0.7,006.17,M,-16.8,M,,*50
$GPRMC,212616.000,A,4910.30944,N,12304.12408,W,0.0,0.0,161018,,,A*7E
$GNGSA,A,3,10,32,20,08,27,18,14,24,11,01,,,1.2,0.7,1.0*2D
$GNGSA,A,3,81,65,66,88,74,82,72,,,,,,1.2,0.7,1.0*2F
$PSIWMPVT,67.270,249994.000,3,49.1718239,-123.0687347,6.168,-0.009,0.017,-0.012,4.690,3.162,3.664,0.612,0.354,0.000,5.742,0.078,17,*09
$PSIWMPOS,000107.800,4910.30944,N,12304.12408,W,7.96,6.17,M,5.63,0,8,0,2,0,*65
$PSIWMATT,000107.800,360.0,T,5.9,-0.7,180.0,*53
$PSIWMVEL,000107.800,360.0,T,0.0,K,-0.00,M,*7B
$PSIWMVSD,000107.800,0.00,0.00,0.00,2,0.00,0.00,0.00,2,*01
$GPGGA,212617.000,4910.30947,N,12304.12426,W,1,17,0.7,005.95,M,-16.8,M,,*57
$GPRMC,212617.000,A,4910.30947,N,12304.12426,W,0.0,0.0,161018,,,A*70
$GNGSA,A,3,10,32,20,08,27,18,14,24,11,01,,,1.2,0.7,1.0*2D
$GNGSA,A,3,81,65,66,88,74,82,72,,,,,,1.2,0.7,1.0*2F
$PSIWMPVT,68.280,249995.000,3,49.1718245,-123.0687377,5.951,-0.012,0.014,-0.012,4.690,3.162,3.359,0.612,0.354,0.000,5.613,0.020,17,*0B
$PSIWMPOS,000108.800,4910.30947,N,12304.12426,W,7.96,5.95,M,5.63,0,8,0,2,0,*6C
$PSIWMATT,000108.800,360.0,T,5.9,-0.7,180.0,*5C
$PSIWMVEL,000108.800,360.0,T,0.0,K,-0.00,M,*74
$PSIWMVSD,000108.800,0.00,0.00,0.00,2,0.00,0.00,0.00,2,*0E
$GPGGA,212618.000,4910.30948,N,12304.12437,W,1,18,0.7,005.64,M,-16.8,M,,*56
$GPRMC,212618.000,A,4910.30948,N,12304.12437,W,0.1,0.0,161018,,,A*71
$GNGSA,A,3,10,32,20,08,27,18,14,24,11,01,,,1.2,0.7,1.0*2D
$GNGSA,A,3,81,65,66,88,74,82,72,75,,,,,1.2,0.7,1.0*2D
$PSIWMPVT,69.320,249996.000,3,49.1718247,-123.0687396,5.643,-0.022,0.040,-0.016,4.690,3.082,2.867,0.612,0.354,0.000,4.531,0.086,18,*0C
$PSIWMPOS,000109.800,4910.30948,N,12304.12437,W,7.96,5.64,M,5.63,0,8,0,2,0,*6C
$PSIWMATT,000109.800,360.0,T,5.9,-0.8,180.0,*52
$PSIWMVEL,000109.800,360.0,T,0.0,K,-0.00,M,*75
$PSIWMVSD,000109.800,0.00,0.00,0.00,2,0.00,0.00,0.00,2,*0F
$GPGGA,212619.000,4910.30951,N,12304.12441,W,1,18,0.7,005.43,M,-16.8,M,,*5B
$GPRMC,212619.000,A,4910.30951,N,12304.12441,W,0.1,0.0,161018,,,A*79
$GNGSA,A,3,10,32,20,08,27,18,14,24,11,01,,,1.2,0.7,1.0*2D
$GNGSA,A,3,81,65,66,88,74,82,72,75,,,,,1.2,0.7,1.0*2D
$PSIWMPVT,70.270,249997.000,3,49.1718251,-123.0687401,5.433,-0.023,0.012,-0.016,4.690,3.162,2.730,0.612,0.354,0.000,4.063,0.156,18,*00
$PSIWMPOS,000110.800,4910.30951,N,12304.12441,W,7.96,5.43,M,5.63,0,8,0,2,0,*68
$PSIWMATT,000110.800,360.0,T,6.0,-0.8,180.0,*50
$PSIWMVEL,000110.800,360.0,T,0.0,K,-0.00,M,*7D
$PSIWMVSD,000110.800,0.00,0.00,0.00,2,0.00,0.00,0.00,2,*07
$GPGGA,212620.000,4910.30941,N,12304.12454,W,1,18,0.7,005.38,M,-16.8,M,,*58
$GPRMC,212620.000,A,4910.30941,N,12304.12454,W,0.1,0.0,161018,,,A*76
$GNGSA,A,3,10,32,20,08,27,18,14,24,11,01,,,1.2,0.7,1.0*2D
$GNGSA,A,3,81,65,66,88,74,82,72,75,,,,,1.2,0.7,1.0*2D
$PSIWMPVT,71.280,249998.000,3,49.1718235,-123.0687423,5.384,-0.021,0.016,-0.018,4.690,3.162,2.941,0.612,0.354,0.000,4.485,0.113,18,*05
$PSIWMPOS,000111.800,4910.30941,N,12304.12454,W,7.96,5.38,M,5.63,0,8,0,2,0,*60
$PSIWMATT,000111.800,360.0,T,6.0,-0.8,180.0,*51
$PSIWMVEL,000111.800,360.0,T,0.0,K,-0.00,M,*7C
$PSIWMVSD,000111.800,0.00,0.00,0.00,2,0.00,0.00,0.00,2,*06
$GPGGA,212621.000,4910.30937,N,12304.12467,W,1,17,0.8,005.42,M,-16.8,M,,*55
$GPRMC,212621.000,A,4910.30937,N,12304.12467,W,0.0,0.0,161018,,,A*77
$GNGSA,A,3,10,32,20,08,27,18,14,24,11,01,,,1.4,0.8,1.2*26
$GNGSA,A,3,81,65,66,88,74,82,72,,,,,,1.4,0.8,1.2*24
$PSIWMPVT,72.270,249999.000,3,49.1718228,-123.0687445,5.417,-0.005,0.004,-0.010,4.690,3.162,3.039,0.612,0.354,0.000,4.014,0.016,17,*04
$PSIWMPOS,000112.800,4910.30937,N,12304.12467,W,7.96,5.42,M,5.63,0,8,0,2,0,*6F
$PSIWMATT,000112.800,360.0,T,6.0,-0.8,180.0,*52
$PSIWMVEL,000112.800,360.0,T,0.0,K,-0.00,M,*7F
$PSIWMVSD,000112.800,0.00,0.00,0.00,2,0.00,0.00,0.00,2,*05
$GPGGA,212622.000,4910.30943,N,12304.12475,W,1,17,0.8,005.65,M,-16.8,M,,*53
$GPRMC,212622.000,A,4910.30943,N,12304.12475,W,0.0,0.0,161018,,,A*74
$GNGSA,A,3,10,32,20,08,27,18,14,24,11,01,,,1.4,0.8,1.2*26
$GNGSA,A,3,81,65,66,88,74,82,72,,,,,,1.4,0.8,1.2*24
$PSIWMPVT,73.270,249999.999,3,49.1718238,-123.0687458,5.648,0.001,0.015,-0.007,4.690,3.162,3.359,0.612,0.354,0.000,4.437,0.016,17,*26
$PSIWMPOS,000113.800,4910.30943,N,12304.12475,W,7.96,5.65,M,5.63,0,8,0,2,0,*6B
$PSIWMATT,000113.800,360.0,T,6.0,-0.8,180.0,*53
$PSIWMVEL,000113.800,360.0,T,0.0,K,-0.00,M,*7E
$PSIWMVSD,000113.800,0.00,0.00,0.00,2,0.00,0.00,0.00,2,*04
$GPGGA,212623.000,4910.30953,N,12304.12478,W,1,18,0.7,005.87,M,-16.8,M,,*52
$GPRMC,212623.000,A,4910.30953,N,12304.12478,W,0.0,0.0,161018,,,A*79
$GNGSA,A,3,10,32,20,08,27,18,14,24,11,01,,,1.2,0.7,1.0*2D
$GNGSA,A,3,81,65,66,88,74,82,72,75,,,,,1.2,0.7,1.0*2D
$PSIWMPVT,74.280,250001.000,3,49.1718254,-123.0687463,5.870,-0.002,0.022,-0.006,4.690,3.162,4.672,0.612,0.354,0.000,8.403,0.074,18,*00
$PSIWMPOS,000114.800,4910.30953,N,12304.12478,W,7.96,5.87,M,5.63,0,8,0,2,0,*6C
$PSIWMATT,000114.800,360.0,T,6.0,-0.8,180.0,*54
$PSIWMVEL,000114.800,360.0,T,0.0,K,-0.00,M,*79
$PSIWMVSD,000114.800,0.00,0.00,0.00,2,0.00,0.00,0.00,2,*03
$GPGGA,212624.000,4910.30956,N,12304.12480,W,1,18,0.7,005.91,M,-16.8,M,,*50
$GPRMC,212624.000,A,4910.30956,N,12304.12480,W,0.0,0.0,161018,,,A*7C
$GNGSA,A,3,10,32,20,08,27,18,14,24,11,01,,,1.2,0.7,1.0*2D
$GNGSA,A,3,81,65,66,88,74,82,72,75,,,,,1.2,0.7,1.0*2D
$PSIWMPVT,75.280,250001.999,3,49.1718261,-123.0687466,5.913,-0.014,0.016,-0.001,4.690,3.162,4.074,0.612,0.354,0.000,7.365,0.070,18,*04
$PSIWMPOS,000115.800,4910.30956,N,12304.12480,W,7.96,5.91,M,5.63,0,8,0,2,0,*68
$PSIWMATT,000115.800,360.0,T,6.0,-0.8,180.0,*55
$PSIWMVEL,000115.800,360.0,T,0.0,K,-0.00,M,*78
$PSIWMVSD,000115.800,0.00,0.00,0.00,2,0.00,0.00,0.00,2,*02
$GPGGA,212625.000,4910.30962,N,12304.12458,W,1,18,0.6,005.94,M,-16.8,M,,*57
$GPRMC,212625.000,A,4910.30962,N,12304.12458,W,0.0,0.0,161018,,,A*7F
$GNGSA,A,3,10,32,20,08,27,18,14,24,11,21,01,,1.1,0.6,1.0*2C
$GNGSA,A,3,81,65,66,88,74,82,72,,,,,,1.1,0.6,1.0*2D
$PSIWMPVT,76.280,250002.999,3,49.1718271,-123.0687430,5.940,-0.012,0.017,-0.001,4.690,3.162,4.246,0.612,0.354,0.000,8.325,0.188,18,*09
$PSIWMPOS,000116.800,4910.30962,N,12304.12458,W,7.96,5.94,M,5.63,0,8,0,2,0,*6C
$PSIWMATT,000116.800,360.0,T,6.0,-0.8,180.0,*56
$PSIWMVEL,000116.800,360.0,T,0.0,K,-0.00,M,*7B
$PSIWMVSD,000116.800,0.00,0.00,0.00,2,0.00,0.00,0.00,2,*01
$GPGGA,212626.000,4910.30972,N,12304.12448,W,1,18,0.6,005.84,M,-16.8,M,,*55
$GPRMC,212626.000,A,4910.30972,N,12304.12448,W,0.0,0.0,161018,,,A*7C
$GNGSA,A,3,10,32,20,08,27,18,14,24,11,21,01,,1.1,0.6,1.0*2C
$GNGSA,A,3,81,65,66,88,74,82,72,,,,,,1.1,0.6,1.0*2D
$PSIWMPVT,77.280,250003.999,3,49.1718287,-123.0687414,5.840,-0.004,0.015,0.003,4.690,3.162,3.863,0.612,0.354,0.000,7.705,0.152,18,*29
$PSIWMPOS,000117.800,4910.30972,N,12304.12448,W,7.96,5.84,M,5.63,0,8,0,2,0,*6C
$PSIWMATT,000117.800,360.0,T,6.0,-0.8,180.0,*57
$PSIWMVEL,000117.800,360.0,T,0.0,K,-0.00,M,*7A
$PSIWMVSD,000117.800,0.00,0.00,0.00,2,0.00,0.00,0.00,2,*00
$GPGGA,212627.000,4910.30978,N,12304.12440,W,1,18,0.6,005.54,M,-16.8,M,,*5B
$GPRMC,212627.000,A,4910.30978,N,12304.12440,W,0.0,0.0,161018,,,A*7F
$GNGSA,A,3,10,32,20,08,27,18,14,24,11,21,01,,1.1,0.6,1.0*2C
$GNGSA,A,3,81,65,66,88,74,82,72,,,,,,1.1,0.6,1.0*2D
$PSIWMPVT,78.280,250005.000,3,49.1718296,-123.0687400,5.544,-0.011,0.010,0.002,4.690,3.162,4.156,0.612,0.354,0.000,7.550,0.055,18,*29
$PSIWMPOS,000118.800,4910.30978,N,12304.12440,W,7.96,5.54,M,5.63,0,8,0,2,0,*6C
$PSIWMATT,000118.800,360.0,T,6.0,-0.8,180.0,*58
$PSIWMVEL,000118.800,360.0,T,0.0,K,-0.00,M,*75
$PSIWMVSD,000118.800,0.00,0.00,0.00,2,0.00,0.00,0.00,2,*0F
$GPGGA,212628.000,4910.30993,N,12304.12421,W,1,18,0.6,005.23,M,-16.8,M,,*56
$GPRMC,212628.000,A,4910.30993,N,12304.12421,W,0.0,0.0,161018,,,A*72
$GNGSA,A,3,10,32,20,08,27,18,14,24,11,21,01,,1.1,0.6,1.0*2C
$GNGSA,A,3,81,65,66,88,74,82,72,,,,,,1.1,0.6,1.0*2D
$PSIWMPVT,79.280,250005.999,3,49.1718321,-123.0687369,5.231,-0.005,0.008,0.007,4.690,3.162,4.805,0.612,0.354,0.000,8.913,0.051,18,*27
$PSIWMPOS,000119.800,4910.30993,N,12304.12421,W,7.96,5.23,M,5.63,0,8,0,2,0,*6F
$PSIWMATT,000119.800,360.0,T,6.0,-0.8,180.0,*59
$PSIWMVEL,000119.800,360.0,T,0.0,K,-0.00,M,*74
$PSIWMVSD,000119.800,0.00,0.00,0.00,2,0.00,0.00,0.00,2,*0E
$GPGGA,212629.000,4910.31000,N,12304.12421,W,1,18,0.6,005.13,M,-16.8,M,,*56
$GPRMC,212629.000,A,4910.31000,N,12304.12421,W,0.0,0.0,161018,,,A*71
$GNGSA,A,3,10,32,20,08,27,18,14,24,11,21,01,,1.1,0.6,1.0*2C
$GNGSA,A,3,81,65,66,88,74,82,72,,,,,,1.1,0.6,1.0*2D
$PSIWMPVT,80.280,250006.999,3,49.1718334,-123.0687368,5.128,-0.006,0.008,0.011,4.690,3.162,4.504,0.612,0.354,0.000,8.369,0.043,18,*20
$PSIWMPOS,000120.800,4910.31000,N,12304.12421,W,7.96,5.13,M,5.63,0,8,0,2,0,*64
$PSIWMATT,000120.800,360.0,T,6.0,-0.8,180.0,*53
$PSIWMVEL,000120.800,360.0,T,0.0,K,-0.00,M,*7E
$PSIWMVSD,000120.800,0.00,0.00,0.00,2,0.00,0.00,0.00,2,*04
$GPGGA,212630.000,4910.31012,N,12304.12413,W,1,18,0.6,004.85,M,-16.8,M,,*52
$GPRMC,212630.000,A,4910.31012,N,12304.12413,W,0.0,0.0,161018,,,A*7B
$GNGSA,A,3,10,32,20,08,27,18,14,24,11,21,01,,1.1,0.6,1.0*2C
$GNGSA,A,3,81,65,66,88,74,82,72,,,,,,1.1,0.6,1.0*2D
$PSIWMPVT,81.280,250007.999,3,49.1718354,-123.0687354,4.855,-0.008,0.004,0.008,4.690,3.162,5.727,0.612,0.354,0.000,9.949,0.047,18,*2E
$PSIWMPOS,000121.800,4910.31012,N,12304.12413,W,7.96,4.85,M,5.63,0,8,0,2,0,*69
$PSIWMATT,000121.800,360.0,T,6.0,-0.8,180.0,*52
$PSIWMVEL,000121.800,360.0,T,0.0,K,-0.00,M,*7F
$PSIWMVSD,000121.800,0.00,0.00,0.00,2,0.00,0.00,0.00,2,*05
$GPGGA,212631.000,4910.31022,N,12304.12399,W,1,18,0.6,004.67,M,-16.8,M,,*59
$GPRMC,212631.000,A,4910.31022,N,12304.12399,W,0.1,0.0,161018,,,A*7D
$GNGSA,A,3,10,32,20,08,27,18,14,24,11,21,01,,1.1,0.6,1.0*2C
$GNGSA,A,3,81,65,66,88,74,82,72,,,,,,1.1,0.6,1.0*2D
$PSIWMPVT,82.280,250009.000,3,49.1718370,-123.0687331,4.665,-0.021,0.023,0.005,4.690,3.162,4.824,0.612,0.354,0.000,8.962,0.051,18,*23
$PSIWMPOS,000122.800,4910.31022,N,12304.12399,W,7.96,4.67,M,5.63,0,8,0,2,0,*60
$PSIWMATT,000122.800,360.0,T,6.0,-0.8,180.0,*51
$PSIWMVEL,000122.800,360.0,T,0.0,K,-0.00,M,*7C
$PSIWMVSD,000122.800,0.00,0.00,0.00,2,0.00,0.00,0.00,2,*06
$GPGGA,212632.000,4910.31032,N,12304.12385,W,1,17,0.6,004.75,M,-16.8,M,,*5A
$GPRMC,212632.000,A,4910.31032,N,12304.12385,W,0.0,0.0,161018,,,A*73
$GNGSA,A,3,10,32,20,08,27,18,14,24,11,01,,,1.1,0.6,1.0*2F
$GNGSA,A,3,81,65,66,88,74,82,72,,,,,,1.1,0.6,1.0*2D
$PSIWMPVT,83.280,250010.000,3,49.1718387,-123.0687308,4.751,-0.018,0.006,0.004,4.690,3.162,5.348,0.612,0.354,0.000,9.180,0.020,17,*2E
$PSIWMPOS,000123.800,4910.31032,N,12304.12385,W,7.96,4.75,M,5.63,0,8,0,2,0,*6E
$PSIWMATT,000123.800,360.0,T,6.0,-0.8,180.0,*50
$PSIWMVEL,000123.800,360.0,T,0.0,K,-0.00,M,*7D
$PSIWMVSD,000123.800,0.00,0.00,0.00,2,0.00,0.00,0.00,2,*07
$GPGGA,212633.000,4910.31040,N,12304.12385,W,1,17,0.6,004.73,M,-16.8,M,,*58
$GPRMC,212633.000,A,4910.31040,N,12304.12385,W,0.0,0.0,161018,,,A*77
$GNGSA,A,3,10,32,20,08,27,18,14,24,11,01,,,1.1,0.6,1.0*2F
$GNGSA,A,3,81,65,66,88,74,82,72,,,,,,1.1,0.6,1.0*2D
$PSIWMPVT,84.280,250010.999,3,49.1718400,-123.0687308,4.731,-0.013,0.014,0.001,4.690,3.162,4.855,0.612,0.354,0.000,8.331,0.016,17,*29
$PSIWMPOS,000124.800,4910.31040,N,12304.12385,W,7.96,4.73,M,5.63,0,8,0,2,0,*6A
$PSIWMATT,000124.800,360.0,T,6.0,-0.8,180.0,*57
$PSIWMVEL,000124.800,360.0,T,0.0,K,-0.00,M,*7A
$PSIWMVSD,000124.800,0.00,0.00,0.00,2,0.00,0.00,0.00,2,*00
$GPGGA,212634.000,4910.31046,N,12304.12367,W,1,17,0.6,004.65,M,-16.8,M,,*52
$GPRMC,212634.000,A,4910.31046,N,12304.12367,W,0.0,0.0,161018,,,A*7A
$GNGSA,A,3,10,32,20,08,27,18,14,24,11,01,,,1.1,0.6,1.0*2F
$GNGSA,A,3,81,65,66,88,74,82,72,,,,,,1.1,0.6,1.0*2D
$PSIWMPVT,85.280,250011.999,3,49.1718410,-123.0687278,4.649,-0.006,-0.011,-0.001,4.743,3.162,5.309,0.612,0.354,0.000,9.097,0.012,17,*27
$PSIWMPOS,000125.800,4910.31046,N,12304.12367,W,8.05,4.65,M,5.69,0,8,0,2,0,*69
$PSIWMATT,000125.800,360.0,T,6.1,-0.7,180.0,*58
$PSIWMVEL,000125.800,360.0,T,0.0,K,-0.00,M,*7B
$PSIWMVSD,000125.800,0.00,0.00,0.00,2,0.00,0.00,0.00,2,*01
$GPGGA,212635.000,4910.31048,N,12304.12377,W,1,17,0.6,004.84,M,-16.8,M,,*53
$GPRMC,212635.000,A,4910.31048,N,12304.12377,W,0.0,0.0,161018,,,A*74
$GNGSA,A,3,10,32,20,08,27,18,14,24,11,01,,,1.1,0.6,1.0*2F
$GNGSA,A,3,81,65,66,88,74,82,72,,,,,,1.1,0.6,1.0*2D
$PSIWMPVT,86.280,250013.000,3,49.1718414,-123.0687295,4.837,-0.017,-0.000,-0.003,4.743,3.162,4.961,0.612,0.354,0.000,8.473,0.012,17,*27
$PSIWMPOS,000126.800,4910.31048,N,12304.12377,W,8.05,4.84,M,5.69,0,8,0,2,0,*6A
$PSIWMATT,000126.800,360.0,T,6.0,-0.7,180.0,*5A
$PSIWMVEL,000126.800,360.0,T,0.0,K,-0.00,M,*78
$PSIWMVSD,000126.800,0.00,0.00,0.00,2,0.00,0.00,0.00,2,*02
$GPGGA,212636.000,4910.31053,N,12304.12383,W,1,17,0.6,005.09,M,-16.8,M,,*55
$GPRMC,212636.000,A,4910.31053,N,12304.12383,W,0.1,0.0,161018,,,A*77
$GNGSA,A,3,10,32,20,08,27,18,14,24,11,01,,,1.1,0.6,1.0*2F
$GNGSA,A,3,81,65,66,88,74,82,72,,,,,,1.1,0.6,1.0*2D
$PSIWMPVT,87.280,250014.000,3,49.1718421,-123.0687305,5.089,-0.027,0.016,-0.005,4.743,3.162,5.133,0.612,0.354,0.000,8.530,0.039,17,*0D
$PSIWMPOS,000127.800,4910.31053,N,12304.12383,W,8.05,5.09,M,5.69,0,8,0,2,0,*6E
$PSIWMATT,000127.800,360.0,T,6.0,-0.8,180.0,*54
$PSIWMVEL,000127.800,360.0,T,0.0,K,-0.00,M,*79
$PSIWMVSD,000127.800,0.00,0.00,0.00,2,0.00,0.00,0.00,2,*03
$GPGGA,212637.000,4910.31048,N,12304.12396,W,1,17,0.6,005.13,M,-16.8,M,,*51
$GPRMC,212637.000,A,4910.31048,N,12304.12396,W,0.0,0.0,161018,,,A*79
$GNGSA,A,3,10,32,20,08,27,18,14,24,11,01,,,1.1,0.6,1.0*2F
$GNGSA,A,3,81,65,66,88,74,82,72,,,,,,1.1,0.6,1.0*2D
$PSIWMPVT,88.280,250014.999,3,49.1718414,-123.0687327,5.127,-0.011,-0.012,-0.006,4.796,3.240,4.238,0.612,0.354,0.000,7.007,0.016,17,*26
$PSIWMPOS,000128.800,4910.31048,N,12304.12396,W,8.14,5.13,M,5.75,0,8,0,2,0,*69
$PSIWMATT,000128.800,360.0,T,6.0,-0.7,180.0,*54
$PSIWMVEL,000128.800,360.0,T,0.0,K,-0.00,M,*76
$PSIWMVSD,000128.800,0.00,0.00,0.00,2,0.00,0.00,0.00,2,*0C
$GPGGA,212638.000,4910.31054,N,12304.12414,W,1,18,0.6,005.33,M,-16.8,M,,*53
$GPRMC,212638.000,A,4910.31054,N,12304.12414,W,0.0,0.0,161018,,,A*76
$GNGSA,A,3,10,32,20,08,27,18,14,24,11,01,,,1.1,0.6,1.0*2F
$GNGSA,A,3,81,65,66,88,74,82,72,75,,,,,1.1,0.6,1.0*2F
$PSIWMPVT,89.280,250015.999,3,49.1718423,-123.0687357,5.330,-0.008,-0.004,-0.006,4.743,3.162,3.922,0.612,0.354,0.000,6.443,0.020,18,*2D
$PSIWMPOS,000129.800,4910.31054,N,12304.12414,W,8.05,5.33,M,5.69,0,8,0,2,0,*67
$PSIWMATT,000129.800,360.0,T,6.0,-0.7,180.0,*55
$PSIWMVEL,000129.800,360.0,T,0.0,K,-0.00,M,*77
$PSIWMVSD,000129.800,0.00,0.00,0.00,2,0.00,0.00,0.00,2,*0D
$GPGGA,212639.000,4910.31047,N,12304.12431,W,1,17,0.6,005.39,M,-16.8,M,,*52
$GPRMC,212639.000,A,4910.31047,N,12304.12431,W,0.0,0.0,161018,,,A*72
$GNGSA,A,3,10,32,20,08,27,18,14,24,11,01,,,1.1,0.6,1.0*2F
$GNGSA,A,3,81,65,66,88,74,82,72,,,,,,1.1,0.6,1.0*2D
$PSIWMPVT,90.280,250017.000,3,49.1718412,-123.0687384,5.386,-0.004,-0.014,-0.003,4.743,3.162,4.422,0.612,0.354,0.000,7.215,0.012,17,*27
$PSIWMPOS,000130.800,4910.31047,N,12304.12431,W,8.05,5.39,M,5.69,0,8,0,2,0,*60
$PSIWMATT,000130.800,360.0,T,6.0,-0.7,180.0,*5D
$PSIWMVEL,000130.800,360.0,T,0.0,K,-0.00,M,*7F
$PSIWMVSD,000130.800,0.00,0.00,0.00,2,0.00,0.00,0.00,2,*05
$GPGGA,212640.000,4910.31047,N,12304.12444,W,1,17,0.6,005.41,M,-16.8,M,,*51
$GPRMC,212640.000,A,4910.31047,N,12304.12444,W,0.0,0.0,161018,,,A*7E
$GNGSA,A,3,10,32,20,08,27,18,14,24,11,01,,,1.1,0.6,1.0*2F
$GNGSA,A,3,81,65,66,88,74,82,72,,,,,,1.1,0.6,1.0*2D
$PSIWMPVT,91.280,250018.000,3,49.1718411,-123.0687407,5.410,-0.020,0.003,-0.005,4.743,3.162,4.711,0.612,0.354,0.000,7.690,0.023,17,*0D
$PSIWMPOS,000131.800,4910.31047,N,12304.12444,W,8.05,5.41,M,5.69,0,8,0,2,0,*6C
$PSIWMATT,000131.800,360.0,T,6.0,-0.8,180.0,*53
$PSIWMVEL,000131.800,360.0,T,0.0,K,-0.00,M,*7E
$PSIWMVSD,000131.800,0.00,0.00,0.00,2,0.00,0.00,0.00,2,*04
$GPGGA,212641.000,4910.31041,N,12304.12467,W,1,16,0.6,005.41,M,-16.8,M,,*56
$GPRMC,212641.000,A,4910.31041,N,12304.12467,W,0.0,0.0,161018,,,A*78
$GNGSA,A,3,10,32,20,08,27,18,14,24,11,01,,,1.1,0.6,1.0*2F
$GNGSA,A,3,81,65,66,88,74,82,,,,,,,1.1,0.6,1.0*28
$PSIWMPVT,92.280,250019.000,3,49.1718402,-123.0687445,5.406,-0.003,0.016,-0.005,4.743,3.162,4.762,0.612,0.354,0.000,7.764,0.020,16,*05
$PSIWMPOS,000132.800,4910.31041,N,12304.12467,W,8.05,5.41,M,5.69,0,8,0,2,0,*68
$PSIWMATT,000132.800,360.0,T,6.0,-0.8,180.0,*50
$PSIWMVEL,000132.800,360.0,T,0.0,K,-0.00,M,*7D
$PSIWMVSD,000132.800,0.00,0.00,0.00,2,0.00,0.00,0.00,2,*07
$GPGGA,212642.000,4910.31035,N,12304.12492,W,1,16,0.6,005.19,M,-16.8,M,,*51
$GPRMC,212642.000,A,4910.31035,N,12304.12492,W,0.0,0.0,161018,,,A*72
$GNGSA,A,3,10,32,20,08,27,18,14,24,11,01,,,1.1,0.6,1.0*2F
$GNGSA,A,3,81,65,66,88,74,82,,,,,,,1.1,0.6,1.0*28
$PSIWMPVT,93.280,250019.999,3,49.1718392,-123.0687486,5.190,-0.001,-0.010,-0.001,4.743,3.162,5.594,0.612,0.354,0.000,9.089,0.047,16,*2A
$PSIWMPOS,000133.800,4910.31035,N,12304.12492,W,8.05,5.19,M,5.69,0,8,0,2,0,*6D
$PSIWMATT,000133.800,360.0,T,6.0,-0.8,180.0,*51
$PSIWMVEL,000133.800,360.0,T,0.0,K,-0.00,M,*7C
$PSIWMVSD,000133.800,0.00,0.00,0.00,2,0.00,0.00,0.00,2,*06
$GPGGA,212643.000,4910.31029,N,12304.12498,W,1,16,0.6,004.98,M,-16.8,M,,*5F
$GPRMC,212643.000,A,4910.31029,N,12304.12498,W,0.0,0.0,161018,,,A*74
$GNGSA,A,3,10,32,20,08,27,18,14,24,11,01,,,1.1,0.6,1.0*2F
$GNGSA,A,3,81,65,66,88,74,82,,,,,,,1.1,0.6,1.0*28
$PSIWMPVT,94.280,250021.000,3,49.1718382,-123.0687497,4.981,-0.008,-0.007,-0.002,4.743,3.162,5.621,0.612,0.354,0.000,9.155,0.020,16,*27
$PSIWMPOS,000134.800,4910.31029,N,12304.12498,W,8.05,4.98,M,5.69,0,8,0,2,0,*65
$PSIWMATT,000134.800,360.0,T,5.9,-0.7,180.0,*53
$PSIWMVEL,000134.800,360.0,T,0.0,K,-0.00,M,*7B
$PSIWMVSD,000134.800,0.00,0.00,0.00,2,0.00,0.00,0.00,2,*01
$GPGGA,212644.000,4910.31008,N,12304.12478,W,1,17,0.6,004.86,M,-16.8,M,,*5B
$GPRMC,212644.000,A,4910.31008,N,12304.12478,W,0.5,358.4,161018,,,A*71
$GNGSA,A,3,10,32,20,08,27,18,14,24,11,01,,,1.1,0.6,0.9*27
$GNGSA,A,3,81,65,66,88,74,82,75,,,,,,1.1,0.6,0.9*22
$PSIWMPVT,95.280,250022.000,3,49.1718347,-123.0687463,4.860,-0.007,0.245,-0.007,4.690,3.162,5.613,0.612,0.354,0.000,16.279,0.145,17,*34
$PSIWMPOS,000135.800,4910.31008,N,12304.12478,W,7.96,4.86,M,5.63,0,8,0,2,0,*69
$PSIWMATT,000135.800,360.0,T,5.3,-0.7,180.0,*58
$PSIWMVEL,000135.800,360.0,T,0.9,K,0.01,M,*5F
$PSIWMVSD,000135.800,0.00,0.00,0.00,2,0.00,0.00,0.00,2,*00
$GPGGA,212645.000,4910.31020,N,12304.12418,W,1,18,0.6,004.79,M,-16.8,M,,*59
$GPRMC,212645.000,A,4910.31020,N,12304.12418,W,1.1,359.0,161018,,,A*7C
$GNGSA,A,3,10,32,20,08,27,18,14,24,11,01,,,1.1,0.6,0.9*27
$GNGSA,A,3,81,65,66,88,74,82,72,75,,,,,1.1,0.6,0.9*27
$PSIWMPVT,96.280,250023.000,3,49.1718367,-123.0687363,4.794,-0.010,0.568,-0.004,4.743,3.162,4.281,0.612,0.354,0.000,13.020,0.312,18,*3F
$PSIWMPOS,000136.800,4910.31020,N,12304.12418,W,8.05,4.79,M,5.69,0,8,0,2,0,*69
$PSIWMATT,000136.800,360.0,T,4.8,-0.8,180.0,*5E
$PSIWMVEL,000136.800,360.0,T,2.0,K,0.00,M,*56
$PSIWMVSD,000136.800,0.00,0.00,0.00,2,0.00,0.00,0.00,2,*03
$GPGGA,212646.000,4910.31065,N,12304.12375,W,1,18,0.6,005.00,M,-16.8,M,,*58
$GPRMC,212646.000,A,4910.31065,N,12304.12375,W,1.1,0.2,161018,,,A*7F
$GNGSA,A,3,10,32,20,08,27,18,14,24,11,01,,,1.1,0.6,0.9*27
$GNGSA,A,3,81,65,66,88,74,82,72,75,,,,,1.1,0.6,0.9*27
$PSIWMPVT,97.280,250023.999,3,49.1718441,-123.0687292,5.001,0.001,0.544,0.001,4.690,3.162,4.219,0.612,0.354,0.000,12.094,0.191,18,*33
$PSIWMPOS,000137.800,4910.31065,N,12304.12375,W,7.96,5.00,M,5.63,0,8,0,2,0,*65
$PSIWMATT,000137.800,360.0,T,5.0,-0.6,180.0,*58
$PSIWMVEL,000137.800,360.0,T,2.0,K,-0.00,M,*7A
$PSIWMVSD,000137.800,0.00,0.00,0.00,2,0.00,0.00,0.00,2,*02
$GPGGA,212647.000,4910.31094,N,12304.12343,W,1,18,0.6,005.08,M,-16.8,M,,*5A
$GPRMC,212647.000,A,4910.31094,N,12304.12343,W,1.0,9.5,161018,,,A*7A
$GNGSA,A,3,10,32,20,08,27,18,14,24,11,01,,,1.1,0.6,0.9*27
$GNGSA,A,3,81,65,66,88,74,82,72,75,,,,,1.1,0.6,0.9*27
$PSIWMPVT,98.280,250025.000,3,49.1718490,-123.0687238,5.083,0.088,0.528,0.007,4.690,3.162,4.973,0.612,0.354,0.000,12.866,0.242,18,*37
$PSIWMPOS,000138.800,4910.31094,N,12304.12343,W,7.96,5.08,M,5.63,0,8,0,2,0,*69
$PSIWMATT,000138.800,360.0,T,4.8,-0.5,180.0,*5D
$PSIWMVEL,000138.800,360.0,T,1.9,K,-0.01,M,*7E
$PSIWMVSD,000138.800,0.00,0.00,0.00,2,0.00,0.00,0.00,2,*0D
$GPGGA,212648.000,4910.31124,N,12304.12335,W,1,17,0.6,005.22,M,-16.8,M,,*59
$GPRMC,212648.000,A,4910.31124,N,12304.12335,W,1.1,18.1,161018,,,A*4B
$GNGSA,A,3,10,32,20,08,27,18,14,24,11,01,,,1.1,0.6,0.9*27
$GNGSA,A,3,81,65,66,88,74,72,75,,,,,,1.1,0.6,0.9*2D
$PSIWMPVT,99.280,250026.000,3,49.1718539,-123.0687226,5.224,0.181,0.551,0.003,4.690,3.162,5.301,0.612,0.354,0.000,13.012,0.316,17,*3E
$PSIWMPOS,000139.800,4910.31124,N,12304.12335,W,7.96,5.22,M,5.63,0,8,0,2,0,*6B
$PSIWMATT,000139.800,360.0,T,4.6,-0.6,180.0,*51
$PSIWMVEL,000139.800,360.0,T,2.1,K,-0.00,M,*75
$PSIWMVSD,000139.800,0.00,0.00,0.00,2,0.00,0.00,0.00,2,*0C
$GPGGA,212649.000,4910.31156,N,12304.12330,W,1,17,0.6,005.21,M,-16.8,M,,*5B
$GPRMC,212649.000,A,4910.31156,N,12304.12330,W,0.9,35.0,161018,,,A*4D
$GNGSA,A,3,10,32,20,08,27,18,14,24,11,01,,,1.1,0.6,0.9*27
$GNGSA,A,3,81,65,66,88,74,72,75,,,,,,1.1,0.6,0.9*2D
$PSIWMPVT,100.280,250027.000,3,49.1718593,-123.0687216,5.205,0.265,0.378,-0.003,4.690,3.162,5.086,0.612,0.354,0.000,11.452,0.238,17,*24
$PSIWMPOS,000140.800,4910.31156,N,12304.12330,W,7.96,5.21,M,5.63,0,8,0,2,0,*66
$PSIWMATT,000140.800,360.0,T,4.1,-0.6,180.0,*58
$PSIWMVEL,000140.800,360.0,T,1.7,K,0.00,M,*53
$PSIWMVSD,000140.800,0.00,0.00,0.00,2,0.00,0.00,0.00,2,*02
$GPGGA,212650.000,4910.31186,N,12304.12324,W,1,17,0.6,004.96,M,-16.8,M,,*56
$GPRMC,212650.000,A,4910.31186,N,12304.12324,W,0.9,37.1,161018,,,A*4E
$GNGSA,A,3,10,32,20,08,27,18,14,24,11,01,,,1.1,0.6,0.9*27
$GNGSA,A,3,81,65,66,88,74,72,75,,,,,,1.1,0.6,0.9*2D
$PSIWMPVT,101.280,250028.000,3,49.1718644,-123.0687206,4.962,0.292,0.386,-0.014,4.690,3.162,4.578,0.612,0.354,0.000,10.362,0.176,17,*2F
$PSIWMPOS,000141.800,4910.31186,N,12304.12324,W,7.96,4.96,M,5.63,0,8,0,2,0,*62
$PSIWMATT,000141.800,360.0,T,4.3,-0.9,180.0,*54
$PSIWMVEL,000141.800,360.0,T,1.7,K,0.01,M,*53
$PSIWMVSD,000141.800,0.00,0.00,0.00,2,0.00,0.00,0.00,2,*03
$GPGGA,212651.000,4910.31220,N,12304.12302,W,1,18,0.6,004.68,M,-16.8,M,,*52
$GPRMC,212651.000,A,4910.31220,N,12304.12302,W,0.7,42.1,161018,,,A*48
$GNGSA,A,3,10,32,20,08,27,18,14,24,11,01,,,1.1,0.6,0.9*27
$GNGSA,A,3,81,65,66,88,74,82,72,75,,,,,1.1,0.6,0.9*27
$PSIWMPVT,102.280,250029.000,3,49.1718701,-123.0687170,4.679,0.225,0.249,-0.007,4.690,3.162,4.375,0.612,0.354,0.000,9.630,0.117,18,*1F
$PSIWMPOS,000142.800,4910.31220,N,12304.12302,W,7.96,4.68,M,5.63,0,8,0,2,0,*6B
$PSIWMATT,000142.800,360.0,T,4.2,-0.7,180.0,*58
$PSIWMVEL,000142.800,360.0,T,1.2,K,0.01,M,*55
$PSIWMVSD,000142.800,0.00,0.00,0.00,2,0.00,0.00,0.00,2,*00
$GPGGA,212652.000,4910.31233,N,12304.12302,W,1,18,0.6,004.66,M,-16.8,M,,*5D
$GPRMC,212652.000,A,4910.31233,N,12304.12302,W,0.6,42.8,161018,,,A*41
$GNGSA,A,3,10,32,20,08,27,18,14,24,11,01,,,1.1,0.6,0.9*27
$GNGSA,A,3,81,65,66,88,74,82,72,75,,,,,1.1,0.6,0.9*27
$PSIWMPVT,103.280,250030.000,3,49.1718722,-123.0687169,4.660,0.206,0.223,-0.006,4.690,3.240,4.477,0.612,0.354,0.000,9.836,0.086,18,*1C
$PSIWMPOS,000143.800,4910.31233,N,12304.12302,W,7.96,4.66,M,5.63,0,8,0,2,0,*66
$PSIWMATT,000143.800,360.0,T,4.5,-0.6,180.0,*5F
$PSIWMVEL,000143.800,360.0,T,1.1,K,0.01,M,*57
$PSIWMVSD,000143.800,0.00,0.00,0.00,2,0.00,0.00,0.00,2,*01
$GPGGA,212653.000,4910.31233,N,12304.12302,W,1,18,0.6,004.66,M,-16.8,M,,*5C
$GPRMC,212653.000,A,4910.31233,N,12304.12302,W,0.3,52.4,161018,,,A*48
$GNGSA,A,3,10,32,20,08,27,18,14,24,11,01,,,1.1,0.6,0.9*27
$GNGSA,A,3,81,65,66,88,74,82,72,75,,,,,1.1,0.6,0.9*27
$PSIWMPVT,104.280,250031.000,3,49.1718722,-123.0687169,4.660,0.135,0.104,0.001,4.743,3.240,4.098,0.612,0.354,0.000,7.802,0.066,18,*38
$PSIWMPOS,000144.800,4910.31233,N,12304.12302,W,8.05,4.66,M,5.69,0,8,0,2,0,*6E
$PSIWMATT,000144.800,360.0,T,4.8,-0.6,180.0,*55
$PSIWMVEL,000144.800,360.0,T,0.6,K,-0.00,M,*7A
$PSIWMVSD,000144.800,0.00,0.00,0.00,2,0.00,0.00,0.00,2,*06
$GPGGA,212654.000,4910.31233,N,12304.12302,W,1,18,0.6,004.66,M,-16.8,M,,*5B
$GPRMC,212654.000,A,4910.31233,N,12304.12302,W,0.3,52.5,161018,,,A*4E
$GNGSA,A,3,10,32,20,08,27,18,14,24,11,01,,,1.1,0.6,0.9*27
$GNGSA,A,3,81,65,66,88,74,82,72,75,,,,,1.1,0.6,0.9*27
$PSIWMPVT,105.280,250032.000,3,49.1718722,-123.0687169,4.660,0.111,0.085,-0.003,4.743,3.240,4.531,0.612,0.354,0.000,7.981,0.086,18,*19
$PSIWMPOS,000145.800,4910.31233,N,12304.12302,W,8.05,4.66,M,5.69,0,8,0,2,0,*6F
$PSIWMATT,000145.800,360.0,T,4.9,-0.6,180.0,*55
$PSIWMVEL,000145.800,360.0,T,0.5,K,0.00,M,*55
$PSIWMVSD,000145.800,0.00,0.00,0.00,2,0.00,0.00,0.00,2,*07
$GPGGA,212655.000,4910.31233,N,12304.12302,W,1,18,0.6,004.66,M,-16.8,M,,*5A
$GPRMC,212655.000,A,4910.31233,N,12304.12302,W,0.0,0.0,161018,,,A*7E
$GNGSA,A,3,10,32,20,08,27,18,14,24,11,01,,,1.1,0.6,0.9*27
$GNGSA,A,3,81,65,66,88,74,82,72,75,,,,,1.1,0.6,0.9*27
$PSIWMPVT,106.280,250032.999,3,49.1718722,-123.0687169,4.660,-0.017,-0.004,-0.004,4.743,3.240,4.465,0.612,0.354,0.000,7.739,0.047,18,*1A
$PSIWMPOS,000146.800,4910.31233,N,12304.12302,W,8.05,4.66,M,5.69,0,8,0,2,0,*6C
$PSIWMATT,000146.800,360.0,T,5.1,-0.7,180.0,*5E
$PSIWMVEL,000146.800,360.0,T,0.0,K,-0.00,M,*7E
$PSIWMVSD,000146.800,0.00,0.00,0.00,2,0.00,0.00,0.00,2,*04
$GPGGA,212656.000,4910.31233,N,12304.12302,W,1,17,0.6,004.66,M,-16.8,M,,*56
$GPRMC,212656.000,A,4910.31233,N,12304.12302,W,0.0,0.0,161018,,,A*7D
$GNGSA,A,3,10,32,20,08,27,18,14,24,11,01,,,1.1,0.6,0.9*27
$GNGSA,A,3,81,65,66,88,82,72,75,,,,,,1.1,0.6,0.9*24
$PSIWMPVT,107.280,250033.999,3,49.1718722,-123.0687169,4.660,0.005,0.001,-0.004,4.743,3.317,4.570,0.612,0.354,0.000,8.146,0.020,17,*15
$PSIWMPOS,000147.800,4910.31233,N,12304.12302,W,8.05,4.66,M,5.69,0,8,0,2,0,*6D
$PSIWMATT,000147.800,360.0,T,5.1,-0.8,180.0,*50
$PSIWMVEL,000147.800,360.0,T,0.0,K,-0.00,M,*7F
$PSIWMVSD,000147.800,0.00,0.00,0.00,2,0.00,0.00,0.00,2,*05
$GPGGA,212657.000,4910.31233,N,12304.12302,W,1,18,0.6,004.66,M,-16.8,M,,*58
$GPRMC,212657.000,A,4910.31233,N,12304.12302,W,0.0,0.0,161018,,,A*7C
$GNGSA,A,3,10,32,20,08,27,18,14,24,11,01,,,1.0,0.6,0.8*27
$GNGSA,A,3,81,65,66,88,74,82,72,75,,,,,1.0,0.6,0.8*27
$PSIWMPVT,108.280,250034.999,3,49.1718722,-123.0687169,4.660,-0.003,0.002,-0.008,4.743,3.317,4.172,0.612,0.354,0.000,10.620,0.090,18,*05
$PSIWMPOS,000148.800,4910.31233,N,12304.12302,W,8.05,4.66,M,5.69,0,8,0,2,0,*62
$PSIWMATT,000148.800,360.0,T,5.1,-0.8,180.0,*5F
$PSIWMVEL,000148.800,360.0,T,0.0,K,-0.00,M,*70
$PSIWMVSD,000148.800,0.00,0.00,0.00,2,0.00,0.00,0.00,2,*0A
$GPGGA,212658.000,4910.31233,N,12304.12302,W,1,18,0.6,004.66,M,-16.8,M,,*57
$GPRMC,212658.000,A,4910.31233,N,12304.12302,W,0.0,0.0,161018,,,A*73
$GNGSA,A,3,10,32,20,08,27,18,14,24,11,01,,,1.0,0.6,0.8*27
$GNGSA,A,3,81,65,66,88,74,82,72,75,,,,,1.0,0.6,0.8*27
$PSIWMPVT,109.280,250036.000,3,49.1718722,-123.0687169,4.660,-0.004,0.005,-0.012,4.796,3.317,4.605,0.612,0.354,0.000,12.109,0.082,18,*06
$PSIWMPOS,000149.800,4910.31233,N,12304.12302,W,8.14,4.66,M,5.75,0,8,0,2,0,*6E
$PSIWMATT,000149.800,360.0,T,5.1,-0.9,180.0,*5F
$PSIWMVEL,000149.800,360.0,T,0.0,K,-0.00,M,*71
$PSIWMVSD,000149.800,0.00,0.00,0.00,2,0.00,0.00,0.00,2,*0B
$GPGGA,212659.000,4910.31233,N,12304.12302,W,1,18,0.6,004.66,M,-16.8,M,,*56
$GPRMC,212659.000,A,4910.31233,N,12304.12302,W,0.0,0.0,161018,,,A*72
$GNGSA,A,3,10,32,20,08,27,18,14,24,11,01,,,1.0,0.6,0.8*27
$GNGSA,A,3,81,65,66,88,74,82,72,75,,,,,1.0,0.6,0.8*27
$PSIWMPVT,110.280,250036.999,3,49.1718722,-123.0687169,4.660,-0.008,-0.015,-0.010,4.796,3.317,5.152,0.612,0.354,0.000,12.423,0.070,18,*21
$PSIWMPOS,000150.800,4910.31233,N,12304.12302,W,8.14,4.66,M,5.75,0,8,0,2,0,*66
$PSIWMATT,000150.800,360.0,T,5.1,-0.9,180.0,*57
$PSIWMVEL,000150.800,360.0,T,0.0,K,-0.00,M,*79
$PSIWMVSD,000150.800,0.00,0.00,0.00,2,0.00,0.00,0.00,2,*03
$GPGGA,212700.000,4910.31233,N,12304.12302,W,1,18,0.6,004.66,M,-16.8,M,,*5B
$GPRMC,212700.000,A,4910.31233,N,12304.12302,W,0.0,0.0,161018,,,A*7F
$GNGSA,A,3,10,32,20,08,27,18,14,24,11,01,,,1.0,0.6,0.8*27
$GNGSA,A,3,81,65,66,88,74,82,72,75,,,,,1.0,0.6,0.8*27
$PSIWMPVT,111.280,250037.999,3,49.1718722,-123.0687169,4.660,-0.014,0.000,-0.008,4.796,3.317,4.887,0.612,0.354,0.000,11.043,0.074,18,*09
$PSIWMPOS,000151.800,4910.31233,N,12304.12302,W,8.14,4.66,M,5.75,0,8,0,2,0,*67
$PSIWMATT,000151.800,360.0,T,5.1,-0.9,180.0,*56
$PSIWMVEL,000151.800,360.0,T,0.0,K,-0.00,M,*78
$PSIWMVSD,000151.800,0.00,0.00,0.00,2,0.00,0.00,0.00,2,*02
$GPGGA,212701.000,4910.31233,N,12304.12302,W,1,18,0.6,004.66,M,-16.8,M,,*5A
$GPRMC,212701.000,A,4910.31233,N,12304.12302,W,0.0,0.0,161018,,,A*7E
$GNGSA,A,3,10,32,20,08,27,18,14,24,11,01,,,1.0,0.6,0.8*27
$GNGSA,A,3,81,65,66,88,74,82,72,75,,,,,1.0,0.6,0.8*27
$PSIWMPVT,112.280,250038.999,3,49.1718722,-123.0687169,4.660,-0.007,0.011,-0.013,4.796,3.391,5.730,0.612,0.354,0.000,12.410,0.090,18,*0A
$PSIWMPOS,000152.800,4910.31233,N,12304.12302,W,8.14,4.66,M,5.75,0,8,0,2,0,*64
$PSIWMATT,000152.800,360.0,T,5.0,-0.9,180.0,*54
$PSIWMVEL,000152.800,360.0,T,0.0,K,-0.00,M,*7B
$PSIWMVSD,000152.800,0.00,0.00,0.00,2,0.00,0.00,0.00,2,*01
$GPGGA,212702.000,4910.31233,N,12304.12302,W,1,18,0.6,004.66,M,-16.8,M,,*59
$GPRMC,212702.000,A,4910.31233,N,12304.12302,W,0.0,0.0,161018,,,A*7D
$GNGSA,A,3,10,32,20,08,27,18,14,24,11,01,,,1.0,0.6,0.8*27
$GNGSA,A,3,81,65,66,88,74,82,72,75,,,,,1.0,0.6,0.8*27
$PSIWMPVT,113.280,250040.000,3,49.1718722,-123.0687169,4.660,-0.007,-0.003,-0.016,4.796,3.391,5.812,0.612,0.354,0.000,12.726,0.094,18,*2B
$PSIWMPOS,000153.800,4910.31233,N,12304.12302,W,8.14,4.66,M,5.75,0,8,0,2,0,*65
$PSIWMATT,000153.800,360.0,T,5.0,-0.9,180.0,*55
$PSIWMVEL,000153.800,360.0,T,0.0,K,-0.00,M,*7A
$PSIWMVSD,000153.800,0.00,0.00,0.00,2,0.00,0.00,0.00,2,*00
$GPGGA,212703.000,4910.31233,N,12304.12302,W,1,18,0.6,004.66,M,-16.8,M,,*58
$GPRMC,212703.000,A,4910.31233,N,12304.12302,W,0.0,0.0,161018,,,A*7C
$GNGSA,A,3,10,32,20,08,27,18,14,24,11,01,,,1.0,0.6,0.8*27
$GNGSA,A,3,81,65,66,88,74,82,72,75,,,,,1.0,0.6,0.8*27
$PSIWMPVT,114.280,250040.999,3,49.1718722,-123.0687169,4.660,-0.002,-0.005,-0.021,4.848,3.391,5.691,0.612,0.354,0.000,12.424,0.195,18,*2A
$PSIWMPOS,000154.800,4910.31233,N,12304.12302,W,8.23,4.66,M,5.82,0,8,0,2,0,*6E
$PSIWMATT,000154.800,360.0,T,5.0,-1.0,180.0,*5A
$PSIWMVEL,000154.800,360.0,T,0.0,K,-0.00,M,*7D
$PSIWMVSD,000154.800,0.00,0.00,0.00,2,0.00,0.00,0.00,2,*07
$GPGGA,212704.000,4910.31233,N,12304.12302,W,1,18,0.6,004.66,M,-16.8,M,,*5F
$GPRMC,212704.000,A,4910.31233,N,12304.12302,W,0.0,0.0,161018,,,A*7B
$GNGSA,A,3,10,32,20,08,27,18,14,24,11,01,,,1.0,0.6,0.8*27
$GNGSA,A,3,81,65,66,88,74,82,72,75,,,,,1.0,0.6,0.8*27
$PSIWMPVT,115.280,250041.999,3,49.1718722,-123.0687169,4.660,-0.009,0.000,-0.018,4.848,3.391,5.898,0.612,0.354,0.000,13.307,0.074,18,*0D
$PSIWMPOS,000155.800,4910.31233,N,12304.12302,W,8.23,4.66,M,5.82,0,8,0,2,0,*6F
$PSIWMATT,000155.800,360.0,T,5.0,-1.0,180.0,*5B
$PSIWMVEL,000155.800,360.0,T,0.0,K,-0.00,M,*7C
$PSIWMVSD,000155.800,0.00,0.00,0.00,2,0.00,0.00,0.00,2,*06
$GPGGA,212705.000,4910.31233,N,12304.12302,W,1,18,0.6,004.66,M,-16.8,M,,*5E
$GPRMC,212705.000,A,4910.31233,N,12304.12302,W,0.0,0.0,161018,,,A*7A
$GNGSA,A,3,10,32,20,08,27,18,14,24,11,01,,,1.0,0.6,0.8*27
$GNGSA,A,3,81,65,66,88,74,82,72,75,,,,,1.0,0.6,0.8*27
$PSIWMPVT,116.280,250042.999,3,49.1718722,-123.0687169,4.660,0.004,0.008,-0.013,4.848,3.391,5.914,0.612,0.354,0.000,13.284,0.117,18,*25
$PSIWMPOS,000156.800,4910.31233,N,12304.12302,W,8.23,4.66,M,5.82,0,8,0,2,0,*6C
$PSIWMATT,000156.800,360.0,T,5.0,-1.0,180.0,*58
$PSIWMVEL,000156.800,360.0,T,0.0,K,-0.00,M,*7F
$PSIWMVSD,000156.800,0.00,0.00,0.00,2,0.00,0.00,0.00,2,*05
$GPGGA,212706.000,4910.31233,N,12304.12302,W,1,18,0.6,004.66,M,-16.8,M,,*5D
$GPRMC,212706.000,A,4910.31233,N,12304.12302,W,0.0,0.0,161018,,,A*79
$GNGSA,A,3,10,32,20,08,27,18,14,24,11,01,,,1.0,0.6,0.8*27
$GNGSA,A,3,81,65,66,88,74,82,72,75,,,,,1.0,0.6,0.8*27
$PSIWMPVT,117.280,250044.000,3,49.1718722,-123.0687169,4.660,-0.018,0.010,-0.014,4.848,3.464,5.637,0.612,0.354,0.000,12.662,0.039,18,*06
$PSIWMPOS,000157.800,4910.31233,N,12304.12302,W,8.23,4.66,M,5.82,0,8,0,2,0,*6D
$PSIWMATT,000157.800,360.0,T,5.0,-1.0,180.0,*59
$PSIWMVEL,000157.800,360.0,T,0.0,K,-0.00,M,*7E
$PSIWMVSD,000157.800,0.00,0.00,0.00,2,0.00,0.00,0.00,2,*04
$GPGGA,212707.000,4910.31233,N,12304.12302,W,1,18,0.6,004.66,M,-16.8,M,,*5C
$GPRMC,212707.000,A,4910.31233,N,12304.12302,W,0.0,0.0,161018,,,A*78
$GNGSA,A,3,10,32,20,08,27,18,14,24,11,01,,,1.0,0.6,0.8*27
$GNGSA,A,3,81,65,66,88,74,82,72,75,,,,,1.0,0.6,0.8*27
$PSIWMPVT,118.280,250045.000,3,49.1718722,-123.0687169,4.660,-0.011,0.011,-0.015,4.848,3.464,5.277,0.612,0.354,0.000,11.669,0.129,18,*09
$PSIWMPOS,000158.800,4910.31233,N,12304.12302,W,8.23,4.66,M,5.82,0,8,0,2,0,*62
$PSIWMATT,000158.800,360.0,T,5.0,-1.0,180.0,*56
$PSIWMVEL,000158.800,360.0,T,0.0,K,-0.00,M,*71
$PSIWMVSD,000158.800,0.00,0.00,0.00,2,0.00,0.00,0.00,2,*0B
$GPGGA,212708.000,4910.31233,N,12304.12302,W,1,18,0.6,004.66,M,-16.8,M,,*53
$GPRMC,212708.000,A,4910.31233,N,12304.12302,W,0.0,0.0,161018,,,A*77
$GNGSA,A,3,10,32,20,08,27,18,14,24,11,01,,,1.0,0.6,0.8*27
$GNGSA,A,3,81,65,66,88,74,82,72,75,,,,,1.0,0.6,0.8*27
$PSIWMPVT,119.280,250045.999,3,49.1718722,-123.0687169,4.660,-0.007,-0.007,-0.007,4.899,3.464,5.641,0.612,0.354,0.000,12.593,0.090,18,*24
$PSIWMPOS,000159.800,4910.31233,N,12304.12302,W,8.31,4.66,M,5.88,0,8,0,2,0,*6A
$PSIWMATT,000159.800,360.0,T,5.0,-1.0,180.0,*57
$PSIWMVEL,000159.800,360.0,T,0.0,K,-0.00,M,*70
$PSIWMVSD,000159.800,0.00,0.00,0.00,2,0.00,0.00,0.00,2,*0A
$GPGGA,212709.000,4910.31233,N,12304.12302,W,1,18,0.6,004.66,M,-16.8,M,,*52
$GPRMC,212709.000,A,4910.31233,N,12304.12302,W,0.0,0.0,161018,,,A*76
$GNGSA,A,3,10,32,20,08,27,18,14,24,11,01,,,1.0,0.6,0.8*27
$GNGSA,A,3,81,65,66,88,74,82,72,75,,,,,1.0,0.6,0.8*27
$PSIWMPVT,120.280,250046.999,3,49.1718722,-123.0687169,4.660,-0.014,0.005,-0.007,4.899,3.464,6.902,0.612,0.354,0.000,15.553,0.062,18,*0D
$PSIWMPOS,000200.800,4910.31233,N,12304.12302,W,8.31,4.66,M,5.88,0,8,0,2,0,*65
$PSIWMATT,000200.800,360.0,T,5.0,-1.0,180.0,*58
$PSIWMVEL,000200.800,360.0,T,0.0,K,-0.00,M,*7F
$PSIWMVSD,000200.800,0.00,0.00,0.00,2,0.00,0.00,0.00,2,*05
$GPGGA,212710.000,4910.31233,N,12304.12302,W,1,18,0.6,004.66,M,-16.8,M,,*5A
$GPRMC,212710.000,A,4910.31233,N,12304.12302,W,0.0,0.0,161018,,,A*7E
$GNGSA,A,3,10,32,20,08,27,18,14,24,11,01,,,1.0,0.6,0.8*27
$GNGSA,A,3,81,65,66,88,74,82,72,75,,,,,1.0,0.6,0.8*27
$PSIWMPVT,121.280,250048.000,3,49.1718722,-123.0687169,4.660,-0.009,0.012,-0.013,4.899,3.464,7.012,0.612,0.354,0.000,15.706,0.113,18,*08
$PSIWMPOS,000201.800,4910.31233,N,12304.12302,W,8.31,4.66,M,5.88,0,8,0,2,0,*64
$PSIWMATT,000201.800,360.0,T,5.0,-1.0,180.0,*59
$PSIWMVEL,000201.800,360.0,T,0.0,K,-0.00,M,*7E
$PSIWMVSD,000201.800,0.00,0.00,0.00,2,0.00,0.00,0.00,2,*04
$GPGGA,212711.000,4910.31233,N,12304.12302,W,1,18,0.6,004.66,M,-16.8,M,,*5B
$GPRMC,212711.000,A,4910.31233,N,12304.12302,W,0.0,0.0,161018,,,A*7F
$GNGSA,A,3,10,32,20,08,27,18,14,24,11,01,,,1.0,0.6,0.8*27
$GNGSA,A,3,81,65,66,88,74,82,72,75,,,,,1.0,0.6,0.8*27
$PSIWMPVT,122.280,250049.000,3,49.1718722,-123.0687169,4.660,-0.012,-0.002,-0.017,4.899,3.536,6.898,0.612,0.354,0.000,15.275,0.109,18,*2F
$PSIWMPOS,000202.800,4910.31233,N,12304.12302,W,8.31,4.66,M,5.88,0,8,0,2,0,*67
$PSIWMATT,000202.800,360.0,T,5.0,-1.0,180.0,*5A
$PSIWMVEL,000202.800,360.0,T,0.0,K,-0.00,M,*7D
$PSIWMVSD,000202.800,0.00,0.00,0.00,2,0.00,0.00,0.00,2,*07
$GPGGA,212712.000,4910.31233,N,12304.12302,W,1,18,0.6,004.66,M,-16.8,M,,*58
$GPRMC,212712.000,A,4910.31233,N,12304.12302,W,0.0,0.0,161018,,,A*7C
$GNGSA,A,3,10,32,20,08,27,18,14,24,11,01,,,1.0,0.6,0.8*27
$GNGSA,A,3,81,65,66,88,74,82,72,75,,,,,1.0,0.6,0.8*27
$PSIWMPVT,123.280,250049.999,3,49.1718722,-123.0687169,4.660,-0.007,0.018,-0.016,4.899,3.536,7.164,0.612,0.354,0.000,15.917,0.129,18,*02
$PSIWMPOS,000203.800,4910.31233,N,12304.12302,W,8.31,4.66,M,5.88,0,8,0,2,0,*66
$PSIWMATT,000203.800,360.0,T,5.0,-1.1,180.0,*5A
$PSIWMVEL,000203.800,360.0,T,0.0,K,-0.00,M,*7C
$PSIWMVSD,000203.800,0.00,0.00,0.00,2,0.00,0.00,0.00,2,*06
$GPGGA,212713.000,4910.31233,N,12304.12302,W,1,18,0.6,004.66,M,-16.8,M,,*59
$GPRMC,212713.000,A,4910.31233,N,12304.12302,W,0.1,0.0,161018,,,A*7C
$GNGSA,A,3,10,32,20,08,27,18,14,24,11,01,,,1.0,0.6,0.8*27
$GNGSA,A,3,81,65,66,88,74,82,72,75,,,,,1.0,0.6,0.8*27
$PSIWMPVT,124.280,250050.999,3,49.1718722,-123.0687169,4.660,-0.026,0.022,-0.020,4.950,3.536,6.719,0.612,0.354,0.000,15.120,0.035,18,*0B
