$PSIWMPVT,49.550,348899.999,1,49.1720922,-123.0701098,10.091,0.000,0.000,0.000,0.000,0.000,0.000,0.000,0.000,0.000,0.000,0.000,0,*0F
$GPGGA,005443.000,4910.32553,N,12304.20659,W,0,00,99.0,010.09,M,-16.8,M,,*61
$GNGSA,A,1,,,,,,,,,,,,,99.0,99.0,99.0*1E
$GNGSA,A,1,,,,,,,,,,,,,99.0,99.0,99.0*1E
$PSIWMPVT,50.550,348901.000,1,49.1720922,-123.0701098,10.091,0.000,0.000,0.000,0.000,0.000,0.000,0.000,0.000,0.000,0.000,0.000,0,*0E
$GPGGA,005444.000,4910.32553,N,12304.20659,W,0,00,99.0,010.09,M,-16.8,M,,*66
$GNGSA,A,1,,,,,,,,,,,,,99.0,99.0,99.0*1E
$GNGSA,A,1,,,,,,,,,,,,,99.0,99.0,99.0*1E
$PSIWMPVT,51.550,348902.000,1,49.1720922,-123.0701098,10.091,0.000,0.000,0.000,0.000,0.000,0.000,0.000,0.000,0.000,0.000,0.000,0,*0C
$PSIWMPDR,0.000,0.0000000,0.0000000,0.000,-1010101.125000000,-1010101.125000000,0,0.000000000,0.000000000,0.000000000,0.00,0.000000000,0.000000000,0.000000000,0.000000000,-1010101.125000000,24,*15
$GPGGA,005445.000,4910.32553,N,12304.20659,W,0,00,99.0,010.09,M,-16.8,M,,*67
$GNGSA,A,1,,,,,,,,,,,,,99.0,99.0,99.0*1E
$GNGSA,A,1,,,,,,,,,,,,,99.0,99.0,99.0*1E
$PSIWMPVT,52.550,348903.000,1,49.1720922,-123.0701098,10.091,0.000,0.000,0.000,0.000,0.000,0.000,0.000,0.000,0.000,0.000,0.000,0,*0E
$GPGGA,005446.000,4910.32553,N,12304.20659,W,0,00,99.0,010.09,M,-16.8,M,,*64
$GNGSA,A,1,,,,,,,,,,,,,99.0,99.0,99.0*1E
$GNGSA,A,1,,,,,,,,,,,,,99.0,99.0,99.0*1E
$PSIWMPVT,53.550,348903.999,1,49.1720922,-123.0701098,10.091,0.000,0.000,0.000,0.000,0.000,0.000,0.000,0.000,0.000,0.000,0.000,0,*06
$GPGGA,005447.000,4910.32553,N,12304.20659,W,0,00,99.0,010.09,M,-16.8,M,,*65
$GNGSA,A,1,,,,,,,,,,,,,99.0,99.0,99.0*1E
$GNGSA,A,1,,,,,,,,,,,,,99.0,99.0,99.0*1E
$PSIWMPVT,54.550,348905.000,1,49.1720922,-123.0701098,10.091,0.000,0.000,0.000,0.000,0.000,0.000,0.000,0.000,0.000,0.000,0.000,0,*0E
$GPGGA,005448.000,4910.32553,N,12304.20659,W,0,00,99.0,010.09,M,-16.8,M,,*6A
$GNGSA,A,1,,,,,,,,,,,,,99.0,99.0,99.0*1E
$GNGSA,A,1,,,,,,,,,,,,,99.0,99.0,99.0*1E
$PSIWMPVT,55.550,348906.000,1,49.1720922,-123.0701098,10.091,0.000,0.000,0.000,0.000,0.000,0.000,0.000,0.000,0.000,0.000,0.000,0,*0C
$GPGGA,005449.000,4910.32553,N,12304.20659,W,0,00,99.0,010.09,M,-16.8,M,,*6B
$GNGSA,A,1,,,,,,,,,,,,,99.0,99.0,99.0*1E
$GNGSA,A,1,,,,,,,,,,,,,99.0,99.0,99.0*1E
$PSIWMPVT,56.560,348907.000,1,49.1720922,-123.0701098,10.091,0.000,0.000,0.000,0.000,0.000,0.000,0.000,0.000,0.000,0.000,0.000,0,*0D
$GPGGA,005450.000,4910.32553,N,12304.20659,W,0,00,99.0,010.09,M,-16.8,M,,*63
$GNGSA,A,1,,,,,,,,,,,,,99.0,99.0,99.0*1E
$GNGSA,A,1,,,,,,,,,,,,,99.0,99.0,99.0*1E
$PSIWMPVT,57.550,348908.000,1,49.1720922,-123.0701098,10.091,0.000,0.000,0.000,0.000,0.000,0.000,0.000,0.000,0.000,0.000,0.000,0,*00
$GPGGA,005451.000,4910.32553,N,12304.20659,W,0,00,99.0,010.09,M,-16.8,M,,*62
$GNGSA,A,1,,,,,,,,,,,,,99.0,99.0,99.0*1E
$GNGSA,A,1,,,,,,,,,,,,,99.0,99.0,99.0*1E
$PSIWMPVT,58.550,348909.000,1,49.1720922,-123.0701098,10.091,0.000,0.000,0.000,0.000,0.000,0.000,0.000,0.000,0.000,0.000,0.000,0,*0E
$GPGGA,005452.000,4910.32553,N,12304.20659,W,0,00,99.0,010.09,M,-16.8,M,,*61
$GNGSA,A,1,,,,,,,,,,,,,99.0,99.0,99.0*1E
$GNGSA,A,1,,,,,,,,,,,,,99.0,99.0,99.0*1E
$PSIWMPVT,59.550,348910.000,1,49.1720922,-123.0701098,10.091,0.000,0.000,0.000,0.000,0.000,0.000,0.000,0.000,0.000,0.000,0.000,0,*07
$GPGGA,005453.000,4910.32553,N,12304.20659,W,0,00,99.0,010.09,M,-16.8,M,,*60
$GNGSA,A,1,,,,,,,,,,,,,99.0,99.0,99.0*1E
$GNGSA,A,1,,,,,,,,,,,,,99.0,99.0,99.0*1E
$PSIWMPVT,60.550,348911.000,1,49.1720922,-123.0701098,10.091,0.000,0.000,0.000,0.000,0.000,0.000,0.000,0.000,0.000,0.000,0.000,0,*0C
$GPGGA,005454.000,4910.32553,N,12304.20659,W,0,00,99.0,010.09,M,-16.8,M,,*67
$GNGSA,A,1,,,,,,,,,,,,,99.0,99.0,99.0*1E
$GNGSA,A,1,,,,,,,,,,,,,99.0,99.0,99.0*1E
$PSIWMPVT,61.550,348912.000,1,49.1720922,-123.0701098,10.091,0.000,0.000,0.000,0.000,0.000,0.000,0.000,0.000,0.000,0.000,0.000,0,*0E
$GPGGA,005455.000,4910.32553,N,12304.20659,W,0,00,99.0,010.09,M,-16.8,M,,*66
$GNGSA,A,1,,,,,,,,,,,,,99.0,99.0,99.0*1E
$GNGSA,A,1,,,,,,,,,,,,,99.0,99.0,99.0*1E
$PSIWMPVT,62.550,348912.999,1,49.1720922,-123.0701098,10.091,0.000,0.000,0.000,0.000,0.000,0.000,0.000,0.000,0.000,0.000,0.000,0,*04
$GPGGA,005456.000,4910.32553,N,12304.20659,W,0,00,99.0,010.09,M,-16.8,M,,*65
$GNGSA,A,1,,,,,,,,,,,,,99.0,99.0,99.0*1E
$GNGSA,A,1,,,,,,,,,,,,,99.0,99.0,99.0*1E
$PSIWMPVT,63.550,348913.999,1,49.1720922,-123.0701098,10.091,0.000,0.000,0.000,0.000,0.000,0.000,0.000,0.000,0.000,0.000,0.000,0,*04
$GPGGA,005457.000,4910.32553,N,12304.20659,W,0,00,99.0,010.09,M,-16.8,M,,*64
$GNGSA,A,1,,,,,,,,,,,,,99.0,99.0,99.0*1E
$GNGSA,A,1,,,,,,,,,,,,,99.0,99.0,99.0*1E
$PSIWMPVT,64.550,348914.999,1,49.1720922,-123.0701098,10.091,0.000,0.000,0.000,0.000,0.000,0.000,0.000,0.000,0.000,0.000,0.000,0,*04
$GPGGA,005458.000,4910.32553,N,12304.20659,W,0,00,99.0,010.09,M,-16.8,M,,*6B
$GNGSA,A,1,,,,,,,,,,,,,99.0,99.0,99.0*1E
$GNGSA,A,1,,,,,,,,,,,,,99.0,99.0,99.0*1E
$PSIWMPVT,65.550,348916.000,1,49.1720922,-123.0701098,10.091,0.000,0.000,0.000,0.000,0.000,0.000,0.000,0.000,0.000,0.000,0.000,0,*0E
$GPGGA,005459.000,4910.32553,N,12304.20659,W,0,00,99.0,010.09,M,-16.8,M,,*6A
$GNGSA,A,1,,,,,,,,,,,,,99.0,99.0,99.0*1E
$GNGSA,A,1,,,,,,,,,,,,,99.0,99.0,99.0*1E
$PSIWMPVT,66.550,348916.999,1,49.1720922,-123.0701098,10.091,0.000,0.000,0.000,0.000,0.000,0.000,0.000,0.000,0.000,0.000,0.000,0,*04
$GPGGA,005500.000,4910.32553,N,12304.20659,W,0,00,99.0,010.09,M,-16.8,M,,*67
$GNGSA,A,1,,,,,,,,,,,,,99.0,99.0,99.0*1E
$GNGSA,A,1,,,,,,,,,,,,,99.0,99.0,99.0*1E
$PSIWMPVT,67.560,348917.999,1,49.1720922,-123.0701098,10.091,0.000,0.000,0.000,0.000,0.000,0.000,0.000,0.000,0.000,0.000,0.000,0,*07
$GPGGA,005501.000,4910.32553,N,12304.20659,W,0,00,99.0,010.09,M,-16.8,M,,*66
$GNGSA,A,1,,,,,,,,,,,,,99.0,99.0,99.0*1E
$GNGSA,A,1,,,,,,,,,,,,,99.0,99.0,99.0*1E
$PSIWMPVT,68.550,348918.999,1,49.1720922,-123.0701098,10.091,0.000,0.000,0.000,0.000,0.000,0.000,0.000,0.000,0.000,0.000,0.000,0,*04
$GPGGA,005502.000,4910.32553,N,12304.20659,W,0,00,99.0,010.09,M,-16.8,M,,*65
$GNGSA,A,1,,,,,,,,,,,,,99.0,99.0,99.0*1E
$GNGSA,A,1,,,,,,,,,,,,,99.0,99.0,99.0*1E
$PSIWMPVT,69.550,348920.000,1,49.1720922,-123.0701098,10.091,0.000,0.000,0.000,0.000,0.000,0.000,0.000,0.000,0.000,0.000,0.000,0,*07
$GPGGA,005503.000,4910.32553,N,12304.20659,W,0,00,99.0,010.09,M,-16.8,M,,*64
$GNGSA,A,1,,,,,,,,,,,,,99.0,99.0,99.0*1E
$GNGSA,A,1,,,,,,,,,,,,,99.0,99.0,99.0*1E
$PSIWMPVT,70.550,348920.999,1,49.1720922,-123.0701098,10.091,0.000,0.000,0.000,0.000,0.000,0.000,0.000,0.000,0.000,0.000,0.000,0,*06
$GPGGA,005504.000,4910.32553,N,12304.20659,W,0,00,99.0,010.09,M,-16.8,M,,*63
$GNGSA,A,1,,,,,,,,,,,,,99.0,99.0,99.0*1E
$GNGSA,A,1,,,,,,,,,,,,,99.0,99.0,99.0*1E
$PSIWMPVT,71.550,348921.999,1,49.1720922,-123.0701098,10.091,0.000,0.000,0.000,0.000,0.000,0.000,0.000,0.000,0.000,0.000,0.000,0,*06
$GPGGA,005505.000,4910.32553,N,12304.20659,W,0,00,99.0,010.09,M,-16.8,M,,*62
$GNGSA,A,1,,,,,,,,,,,,,99.0,99.0,99.0*1E
$GNGSA,A,1,,,,,,,,,,,,,99.0,99.0,99.0*1E
$PSIWMPVT,72.550,348922.999,1,49.1720922,-123.0701098,10.091,0.000,0.000,0.000,0.000,0.000,0.000,0.000,0.000,0.000,0.000,0.000,0,*06
$GPGGA,005506.000,4910.32553,N,12304.20659,W,0,00,99.0,010.09,M,-16.8,M,,*61
$GNGSA,A,1,,,,,,,,,,,,,99.0,99.0,99.0*1E
$GNGSA,A,1,,,,,,,,,,,,,99.0,99.0,99.0*1E
$PSIWMPVT,73.550,348924.000,1,49.1720922,-123.0701098,10.091,0.000,0.000,0.000,0.000,0.000,0.000,0.000,0.000,0.000,0.000,0.000,0,*08
$GPGGA,005507.000,4910.32553,N,12304.20659,W,0,00,99.0,010.09,M,-16.8,M,,*60
$GNGSA,A,1,,,,,,,,,,,,,99.0,99.0,99.0*1E
$GNGSA,A,1,,,,,,,,,,,,,99.0,99.0,99.0*1E
$PSIWMPVT,74.550,348925.000,1,49.1720922,-123.0701098,10.091,0.000,0.000,0.000,0.000,0.000,0.000,0.000,0.000,0.000,0.000,0.000,0,*0E
$GPGGA,005508.000,4910.32553,N,12304.20659,W,0,00,99.0,010.09,M,-16.8,M,,*6F
$GNGSA,A,1,,,,,,,,,,,,,99.0,99.0,99.0*1E
$GNGSA,A,1,,,,,,,,,,,,,99.0,99.0,99.0*1E
$PSIWMPVT,75.580,348925.999,1,49.1720922,-123.0701098,10.091,0.000,0.000,0.000,0.000,0.000,0.000,0.000,0.000,0.000,0.000,0.000,0,*0B
$GPGGA,005509.000,4910.32553,N,12304.20659,W,0,00,99.0,010.09,M,-16.8,M,,*6E
$GNGSA,A,1,,,,,,,,,,,,,99.0,99.0,99.0*1E
$GNGSA,A,1,,,,,,,,,,,,,99.0,99.0,99.0*1E
$PSIWMPVT,76.550,348926.999,1,49.1720922,-123.0701098,10.091,0.000,0.000,0.000,0.000,0.000,0.000,0.000,0.000,0.000,0.000,0.000,0,*06
$GPGGA,005510.000,4910.32553,N,12304.20659,W,0,00,99.0,010.09,M,-16.8,M,,*66
$GNGSA,A,1,,,,,,,,,,,,,99.0,99.0,99.0*1E
$GNGSA,A,1,,,,,,,,,,,,,99.0,99.0,99.0*1E
$PSIWMPVT,77.550,348928.000,1,49.1720922,-123.0701098,10.091,0.000,0.000,0.000,0.000,0.000,0.000,0.000,0.000,0.000,0.000,0.000,0,*00
$GPGGA,005511.000,4910.32553,N,12304.20659,W,0,00,99.0,010.09,M,-16.8,M,,*67
$GNGSA,A,1,,,,,,,,,,,,,99.0,99.0,99.0*1E
$GNGSA,A,1,,,,,,,,,,,,,99.0,99.0,99.0*1E
$PSIWMPVT,78.550,348929.000,1,49.1720922,-123.0701098,10.091,0.000,0.000,0.000,0.000,0.000,0.000,0.000,0.000,0.000,0.000,0.000,0,*0E
$GPGGA,005512.000,4910.32553,N,12304.20659,W,0,00,99.0,010.09,M,-16.8,M,,*64
$GNGSA,A,1,,,,,,,,,,,,,99.0,99.0,99.0*1E
$GNGSA,A,1,,,,,,,,,,,,,99.0,99.0,99.0*1E
$PSIWMPVT,79.550,348929.999,1,49.1720922,-123.0701098,10.091,0.000,0.000,0.000,0.000,0.000,0.000,0.000,0.000,0.000,0.000,0.000,0,*06
$GPGGA,005513.000,4910.32553,N,12304.20659,W,0,00,99.0,010.09,M,-16.8,M,,*65
$GNGSA,A,1,,,,,,,,,,,,,99.0,99.0,99.0*1E
$GNGSA,A,1,,,,,,,,,,,,,99.0,99.0,99.0*1E
$PSIWMPVT,80.550,348930.999,1,49.1720922,-123.0701098,10.091,0.000,0.000,0.000,0.000,0.000,0.000,0.000,0.000,0.000,0.000,0.000,0,*08
$GPGGA,005514.000,4910.32553,N,12304.20659,W,0,00,99.0,010.09,M,-16.8,M,,*62
$GNGSA,A,1,,,,,,,,,,,,,99.0,99.0,99.0*1E
$GNGSA,A,1,,,,,,,,,,,,,99.0,99.0,99.0*1E
$PSIWMPVT,81.550,348932.000,1,49.1720922,-123.0701098,10.091,0.000,0.000,0.000,0.000,0.000,0.000,0.000,0.000,0.000,0.000,0.000,0,*02
$GPGGA,005515.000,4910.32553,N,12304.20659,W,0,00,99.0,010.09,M,-16.8,M,,*63
$GNGSA,A,1,,,,,,,,,,,,,99.0,99.0,99.0*1E
$GNGSA,A,1,,,,,,,,,,,,,99.0,99.0,99.0*1E
$PSIWMPVT,82.550,348933.000,1,49.1720922,-123.0701098,10.091,0.000,0.000,0.000,0.000,0.000,0.000,0.000,0.000,0.000,0.000,0.000,0,*00
$GPGGA,005516.000,4910.32553,N,12304.20659,W,0,00,99.0,010.09,M,-16.8,M,,*60
$GNGSA,A,1,,,,,,,,,,,,,99.0,99.0,99.0*1E
$GNGSA,A,1,,,,,,,,,,,,,99.0,99.0,99.0*1E
$PSIWMPVT,83.550,348934.000,1,49.1720922,-123.0701098,10.091,0.000,0.000,0.000,0.000,0.000,0.000,0.000,0.000,0.000,0.000,0.000,0,*06
$GPGGA,005517.000,4910.32553,N,12304.20659,W,0,00,99.0,010.09,M,-16.8,M,,*61
$GNGSA,A,1,,,,,,,,,,,,,99.0,99.0,99.0*1E
$GNGSA,A,1,,,,,,,,,,,,,99.0,99.0,99.0*1E
$PSIWMPVT,84.550,348934.999,1,49.1720922,-123.0701098,10.091,0.000,0.000,0.000,0.000,0.000,0.000,0.000,0.000,0.000,0.000,0.000,0,*08
$GPGGA,005518.000,4910.32553,N,12304.20659,W,0,00,99.0,010.09,M,-16.8,M,,*6E
$GNGSA,A,1,,,,,,,,,,,,,99.0,99.0,99.0*1E
$GNGSA,A,1,,,,,,,,,,,,,99.0,99.0,99.0*1E
$PSIWMPVT,85.550,348936.000,1,49.1720922,-123.0701098,10.091,0.000,0.000,0.000,0.000,0.000,0.000,0.000,0.000,0.000,0.000,0.000,0,*02
$GPGGA,005519.000,4910.32553,N,12304.20659,W,0,00,99.0,010.09,M,-16.8,M,,*6F
$GNGSA,A,1,,,,,,,,,,,,,99.0,99.0,99.0*1E
$GNGSA,A,1,,,,,,,,,,,,,99.0,99.0,99.0*1E
$PSIWMPVT,86.550,348937.000,1,49.1720922,-123.0701098,10.091,0.000,0.000,0.000,0.000,0.000,0.000,0.000,0.000,0.000,0.000,0.000,0,*00
$GPGGA,005520.000,4910.32553,N,12304.20659,W,0,00,99.0,010.09,M,-16.8,M,,*65
$GNGSA,A,1,,,,,,,,,,,,,99.0,99.0,99.0*1E
$GNGSA,A,1,,,,,,,,,,,,,99.0,99.0,99.0*1E
$PSIWMPVT,87.550,348938.000,1,49.1720922,-123.0701098,10.091,0.000,0.000,0.000,0.000,0.000,0.000,0.000,0.000,0.000,0.000,0.000,0,*0E
$GPGGA,005521.000,4910.32553,N,12304.20659,W,0,00,99.0,010.09,M,-16.8,M,,*64
$GNGSA,A,1,,,,,,,,,,,,,99.0,99.0,99.0*1E
$GNGSA,A,1,,,,,,,,,,,,,99.0,99.0,99.0*1E
$PSIWMPVT,88.590,348938.999,1,49.1720922,-123.0701098,10.091,0.000,0.000,0.000,0.000,0.000,0.000,0.000,0.000,0.000,0.000,0.000,0,*04
$GPGGA,005522.000,4910.32553,N,12304.20659,W,0,00,99.0,010.09,M,-16.8,M,,*67
$GNGSA,A,1,,,,,,,,,,,,,99.0,99.0,99.0*1E
$GNGSA,A,1,,,,,,,,,,,,,99.0,99.0,99.0*1E
$PSIWMPVT,89.550,348940.000,1,49.1720922,-123.0701098,10.091,0.000,0.000,0.000,0.000,0.000,0.000,0.000,0.000,0.000,0.000,0.000,0,*0F
$GPGGA,005523.000,4910.32553,N,12304.20659,W,0,00,99.0,010.09,M,-16.8,M,,*66
$GNGSA,A,1,,,,,,,,,,,,,99.0,99.0,99.0*1E
$GNGSA,A,1,,,,,,,,,,,,,99.0,99.0,99.0*1E
$PSIWMPVT,90.550,348941.000,1,49.1720922,-123.0701098,10.091,0.000,0.000,0.000,0.000,0.000,0.000,0.000,0.000,0.000,0.000,0.000,0,*06
$GPGGA,005524.000,4910.32553,N,12304.20659,W,0,00,99.0,010.09,M,-16.8,M,,*61
$GNGSA,A,1,,,,,,,,,,,,,99.0,99.0,99.0*1E
$GNGSA,A,1,,,,,,,,,,,,,99.0,99.0,99.0*1E
$PSIWMPVT,91.550,348942.000,1,49.1720922,-123.0701098,10.091,0.000,0.000,0.000,0.000,0.000,0.000,0.000,0.000,0.000,0.000,0.000,0,*04
$GPGGA,005525.000,4910.32553,N,12304.20659,W,0,00,99.0,010.09,M,-16.8,M,,*60
$GNGSA,A,1,,,,,,,,,,,,,99.0,99.0,99.0*1E
$GNGSA,A,1,,,,,,,,,,,,,99.0,99.0,99.0*1E
$PSIWMPVT,92.550,348943.000,1,49.1720922,-123.0701098,10.091,0.000,0.000,0.000,0.000,0.000,0.000,0.000,0.000,0.000,0.000,0.000,0,*06
$GPGGA,005526.000,4910.32553,N,12304.20659,W,0,00,99.0,010.09,M,-16.8,M,,*63
$GNGSA,A,1,,,,,,,,,,,,,99.0,99.0,99.0*1E
$GNGSA,A,1,,,,,,,,,,,,,99.0,99.0,99.0*1E
$PSIWMPVT,93.550,348944.000,1,49.1720922,-123.0701098,10.091,0.000,0.000,0.000,0.000,0.000,0.000,0.000,0.000,0.000,0.000,0.000,0,*00
$GPGGA,005527.000,4910.32553,N,12304.20659,W,0,00,99.0,010.09,M,-16.8,M,,*62
$GNGSA,A,1,,,,,,,,,,,,,99.0,99.0,99.0*1E
$GNGSA,A,1,,,,,,,,,,,,,99.0,99.0,99.0*1E
$PSIWMPVT,94.550,348945.000,1,49.1720922,-123.0701098,10.091,0.000,0.000,0.000,0.000,0.000,0.000,0.000,0.000,0.000,0.000,0.000,0,*06
$GPGGA,005528.000,4910.32553,N,12304.20659,W,0,00,99.0,010.09,M,-16.8,M,,*6D
$GNGSA,A,1,,,,,,,,,,,,,99.0,99.0,99.0*1E
$GNGSA,A,1,,,,,,,,,,,,,99.0,99.0,99.0*1E
$PSIWMPVT,95.550,348945.999,1,49.1720922,-123.0701098,10.091,0.000,0.000,0.000,0.000,0.000,0.000,0.000,0.000,0.000,0.000,0.000,0,*0E
$GPGGA,005529.000,4910.32553,N,12304.20659,W,0,00,99.0,010.09,M,-16.8,M,,*6C
$GNGSA,A,1,,,,,,,,,,,,,99.0,99.0,99.0*1E
$GNGSA,A,1,,,,,,,,,,,,,99.0,99.0,99.0*1E
$PSIWMPVT,96.560,348946.999,1,49.1720922,-123.0701098,10.091,0.000,0.000,0.000,0.000,0.000,0.000,0.000,0.000,0.000,0.000,0.000,0,*0D
$GPGGA,005530.000,4910.32553,N,12304.20659,W,0,00,99.0,010.09,M,-16.8,M,,*64
$GNGSA,A,1,,,,,,,,,,,,,99.0,99.0,99.0*1E
$GNGSA,A,1,,,,,,,,,,,,,99.0,99.0,99.0*1E
$PSIWMPVT,97.560,348947.999,1,49.1720922,-123.0701098,10.091,0.000,0.000,0.000,0.000,0.000,0.000,0.000,0.000,0.000,0.000,0.000,0,*0D
$GPGGA,005531.000,4910.32553,N,12304.20659,W,0,00,99.0,010.09,M,-16.8,M,,*65
$GNGSA,A,1,,,,,,,,,,,,,99.0,99.0,99.0*1E
$GNGSA,A,1,,,,,,,,,,,,,99.0,99.0,99.0*1E
$PSIWMPVT,98.550,348948.999,1,49.1720922,-123.0701098,10.091,0.000,0.000,0.000,0.000,0.000,0.000,0.000,0.000,0.000,0.000,0.000,0,*0E
$GPGGA,005532.000,4910.32553,N,12304.20659,W,0,00,99.0,010.09,M,-16.8,M,,*66
$GNGSA,A,1,,,,,,,,,,,,,99.0,99.0,99.0*1E
$GNGSA,A,1,,,,,,,,,,,,,99.0,99.0,99.0*1E
$PSIWMPVT,99.550,348949.999,1,49.1720922,-123.0701098,10.091,0.000,0.000,0.000,0.000,0.000,0.000,0.000,0.000,0.000,0.000,0.000,0,*0E
$GPGGA,005533.000,4910.32553,N,12304.20659,W,0,00,99.0,010.09,M,-16.8,M,,*67
$GNGSA,A,1,,,,,,,,,,,,,99.0,99.0,99.0*1E
$GNGSA,A,1,,,,,,,,,,,,,99.0,99.0,99.0*1E
$PSIWMPVT,100.550,348951.000,1,49.1720922,-123.0701098,10.091,0.000,0.000,0.000,0.000,0.000,0.000,0.000,0.000,0.000,0.000,0.000,0,*3F
$GPGGA,005534.000,4910.32553,N,12304.20659,W,0,00,99.0,010.09,M,-16.8,M,,*60
$GNGSA,A,1,,,,,,,,,,,,,99.0,99.0,99.0*1E
$GNGSA,A,1,,,,,,,,,,,,,99.0,99.0,99.0*1E
$PSIWMPVT,101.550,348951.999,1,49.1720922,-123.0701098,10.091,0.000,0.000,0.000,0.000,0.000,0.000,0.000,0.000,0.000,0.000,0.000,0,*37
$GPGGA,005535.000,4910.32553,N,12304.20659,W,0,00,99.0,010.09,M,-16.8,M,,*61
$GNGSA,A,1,,,,,,,,,,,,,99.0,99.0,99.0*1E
$GNGSA,A,1,,,,,,,,,,,,,99.0,99.0,99.0*1E
$PSIWMPVT,102.550,348952.999,1,49.1720922,-123.0701098,10.091,0.000,0.000,0.000,0.000,0.000,0.000,0.000,0.000,0.000,0.000,0.000,0,*37
$GPGGA,005536.000,4910.32553,N,12304.20659,W,0,00,99.0,010.09,M,-16.8,M,,*62
$GNGSA,A,1,,,,,,,,,,,,,99.0,99.0,99.0*1E
$GNGSA,A,1,,,,,,,,,,,,,99.0,99.0,99.0*1E
$PSIWMPVT,103.550,348953.999,1,49.1720922,-123.0701098,10.091,0.000,0.000,0.000,0.000,0.000,0.000,0.000,0.000,0.000,0.000,0.000,0,*37
$GPGGA,005537.000,4910.32553,N,12304.20659,W,0,00,99.0,010.09,M,-16.8,M,,*63
$GNGSA,A,1,,,,,,,,,,,,,99.0,99.0,99.0*1E
$GNGSA,A,1,,,,,,,,,,,,,99.0,99.0,99.0*1E
$PSIWMPVT,104.550,348955.000,1,49.1720922,-123.0701098,10.091,0.000,0.000,0.000,0.000,0.000,0.000,0.000,0.000,0.000,0.000,0.000,0,*3F
$GPGGA,005538.000,4910.32553,N,12304.20659,W,0,00,99.0,010.09,M,-16.8,M,,*6C
$GNGSA,A,1,,,,,,,,,,,,,99.0,99.0,99.0*1E
$GNGSA,A,1,,,,,,,,,,,,,99.0,99.0,99.0*1E
$PSIWMPVT,105.550,348955.999,1,49.1720922,-123.0701098,10.091,0.000,0.000,0.000,0.000,0.000,0.000,0.000,0.000,0.000,0.000,0.000,0,*37
$GPGGA,005539.000,4910.32553,N,12304.20659,W,0,00,99.0,010.09,M,-16.8,M,,*6D
$GNGSA,A,1,,,,,,,,,,,,,99.0,99.0,99.0*1E
$GNGSA,A,1,,,,,,,,,,,,,99.0,99.0,99.0*1E
$PSIWMPVT,106.550,348956.999,1,49.1720922,-123.0701098,10.091,0.000,0.000,0.000,0.000,0.000,0.000,0.000,0.000,0.000,0.000,0.000,0,*37
$GPGGA,005540.000,4910.32553,N,12304.20659,W,0,00,99.0,010.09,M,-16.8,M,,*63
$GNGSA,A,1,,,,,,,,,,,,,99.0,99.0,99.0*1E
$GNGSA,A,1,,,,,,,,,,,,,99.0,99.0,99.0*1E
$PSIWMPVT,107.550,348957.999,1,49.1720922,-123.0701098,10.091,0.000,0.000,0.000,0.000,0.000,0.000,0.000,0.000,0.000,0.000,0.000,0,*37
$GPGGA,005541.000,4910.32553,N,12304.20659,W,0,00,99.0,010.09,M,-16.8,M,,*62
$GNGSA,A,1,,,,,,,,,,,,,99.0,99.0,99.0*1E
$GNGSA,A,1,,,,,,,,,,,,,99.0,99.0,99.0*1E
$PSIWMPVT,108.550,348959.000,1,49.1720922,-123.0701098,10.091,0.000,0.000,0.000,0.000,0.000,0.000,0.000,0.000,0.000,0.000,0.000,0,*3F
$GPGGA,005542.000,4910.32553,N,12304.20659,W,0,00,99.0,010.09,M,-16.8,M,,*61
$GNGSA,A,1,,,,,,,,,,,,,99.0,99.0,99.0*1E
$GNGSA,A,1,,,,,,,,,,,,,99.0,99.0,99.0*1E
$PSIWMPVT,109.550,348960.000,1,49.1720922,-123.0701098,10.091,0.000,0.000,0.000,0.000,0.000,0.000,0.000,0.000,0.000,0.000,0.000,0,*34
$GPGGA,005543.000,4910.32553,N,12304.20659,W,0,00,99.0,010.09,M,-16.8,M,,*60
$GNGSA,A,1,,,,,,,,,,,,,99.0,99.0,99.0*1E
$GNGSA,A,1,,,,,,,,,,,,,99.0,99.0,99.0*1E
$PSIWMPVT,110.550,348960.999,1,49.1720922,-123.0701098,10.091,0.000,0.000,0.000,0.000,0.000,0.000,0.000,0.000,0.000,0.000,0.000,0,*35
$GPGGA,005544.000,4910.32553,N,12304.20659,W,0,00,99.0,010.09,M,-16.8,M,,*67
$GNGSA,A,1,,,,,,,,,,,,,99.0,99.0,99.0*1E
$GNGSA,A,1,,,,,,,,,,,,,99.0,99.0,99.0*1E
$PSIWMPVT,111.550,348961.999,1,49.1720922,-123.0701098,10.091,0.000,0.000,0.000,0.000,0.000,0.000,0.000,0.000,0.000,0.000,0.000,0,*35
$GPGGA,005545.000,4910.32553,N,12304.20659,W,0,00,99.0,010.09,M,-16.8,M,,*66
$GNGSA,A,1,,,,,,,,,,,,,99.0,99.0,99.0*1E
$GNGSA,A,1,,,,,,,,,,,,,99.0,99.0,99.0*1E
$PSIWMPVT,112.550,348963.000,1,49.1720922,-123.0701098,10.091,0.000,0.000,0.000,0.000,0.000,0.000,0.000,0.000,0.000,0.000,0.000,0,*3D
$GPGGA,005546.000,4910.32553,N,12304.20659,W,0,00,99.0,010.09,M,-16.8,M,,*65
$GNGSA,A,1,,,,,,,,,,,,,99.0,99.0,99.0*1E
$GNGSA,A,1,,,,,,,,,,,,,99.0,99.0,99.0*1E
$PSIWMPVT,113.550,348964.000,1,49.1720922,-123.0701098,10.091,0.000,0.000,0.000,0.000,0.000,0.000,0.000,0.000,0.000,0.000,0.000,0,*3B
$GPGGA,005547.000,4910.32553,N,12304.20659,W,0,00,99.0,010.09,M,-16.8,M,,*64
$GNGSA,A,1,,,,,,,,,,,,,99.0,99.0,99.0*1E
$GNGSA,A,1,,,,,,,,,,,,,99.0,99.0,99.0*1E
$PSIWMPVT,114.550,348964.999,1,49.1720922,-123.0701098,10.091,0.000,0.000,0.000,0.000,0.000,0.000,0.000,0.000,0.000,0.000,0.000,0,*35
$GPGGA,005548.000,4910.32553,N,12304.20659,W,0,00,99.0,010.09,M,-16.8,M,,*6B
$GNGSA,A,1,,,,,,,,,,,,,99.0,99.0,99.0*1E
$GNGSA,A,1,,,,,,,,,,,,,99.0,99.0,99.0*1E
$PSIWMPVT,115.550,348965.999,1,49.1720922,-123.0701098,10.091,0.000,0.000,0.000,0.000,0.000,0.000,0.000,0.000,0.000,0.000,0.000,0,*35
$GPGGA,005549.000,4910.32553,N,12304.20659,W,0,00,99.0,010.09,M,-16.8,M,,*6A
$GNGSA,A,1,,,,,,,,,,,,,99.0,99.0,99.0*1E
$GNGSA,A,1,,,,,,,,,,,,,99.0,99.0,99.0*1E
$PSIWMPVT,116.550,348967.000,1,49.1720922,-123.0701098,10.091,0.000,0.000,0.000,0.000,0.000,0.000,0.000,0.000,0.000,0.000,0.000,0,*3D
$GPGGA,005550.000,4910.32553,N,12304.20659,W,0,00,99.0,010.09,M,-16.8,M,,*62
$GNGSA,A,1,,,,,,,,,,,,,99.0,99.0,99.0*1E
$GNGSA,A,1,,,,,,,,,,,,,99.0,99.0,99.0*1E
$PSIWMPVT,117.550,348968.000,1,49.1720922,-123.0701098,10.091,0.000,0.000,0.000,0.000,0.000,0.000,0.000,0.000,0.000,0.000,0.000,0,*33
$GPGGA,005551.000,4910.32553,N,12304.20659,W,0,00,99.0,010.09,M,-16.8,M,,*63
$GNGSA,A,1,,,,,,,,,,,,,99.0,99.0,99.0*1E
$GNGSA,A,1,,,,,,,,,,,,,99.0,99.0,99.0*1E
$PSIWMPVT,118.550,348969.000,1,49.1720922,-123.0701098,10.091,0.000,0.000,0.000,0.000,0.000,0.000,0.000,0.000,0.000,0.000,0.000,0,*3D
$GPGGA,005552.000,4910.32553,N,12304.20659,W,0,00,99.0,010.09,M,-16.8,M,,*60
$GNGSA,A,1,,,,,,,,,,,,,99.0,99.0,99.0*1E
$GNGSA,A,1,,,,,,,,,,,,,99.0,99.0,99.0*1E
$PSIWMPVT,119.550,348970.000,1,49.1720922,-123.0701098,10.091,0.000,0.000,0.000,0.000,0.000,0.000,0.000,0.000,0.000,0.000,0.000,0,*34
$GPGGA,005553.000,4910.32553,N,12304.20659,W,0,00,99.0,010.09,M,-16.8,M,,*61
$GNGSA,A,1,,,,,,,,,,,,,99.0,99.0,99.0*1E
$GNGSA,A,1,,,,,,,,,,,,,99.0,99.0,99.0*1E
$PSIWMPVT,120.560,348971.000,1,49.1720922,-123.0701098,10.091,0.000,0.000,0.000,0.000,0.000,0.000,0.000,0.000,0.000,0.000,0.000,0,*3C
$GPGGA,005554.000,4910.32553,N,12304.20659,W,0,00,99.0,010.09,M,-16.8,M,,*66
$GNGSA,A,1,,,,,,,,,,,,,99.0,99.0,99.0*1E
$GNGSA,A,1,,,,,,,,,,,,,99.0,99.0,99.0*1E
$PSIWMPVT,121.560,348972.000,1,49.1720922,-123.0701098,10.091,0.000,0.000,0.000,0.000,0.000,0.000,0.000,0.000,0.000,0.000,0.000,0,*3E
$GPGGA,005555.000,4910.32553,N,12304.20659,W,0,00,99.0,010.09,M,-16.8,M,,*67
$GNGSA,A,1,,,,,,,,,,,,,99.0,99.0,99.0*1E
$GNGSA,A,1,,,,,,,,,,,,,99.0,99.0,99.0*1E
$PSIWMPVT,122.560,348973.000,1,49.1720922,-123.0701098,10.091,0.000,0.000,0.000,0.000,0.000,0.000,0.000,0.000,0.000,0.000,0.000,0,*3C
$GPGGA,005556.000,4910.32553,N,12304.20659,W,0,00,99.0,010.09,M,-16.8,M,,*64
$GNGSA,A,1,,,,,,,,,,,,,99.0,99.0,99.0*1E
$GNGSA,A,1,,,,,,,,,,,,,99.0,99.0,99.0*1E
$PSIWMPVT,123.570,348974.000,1,49.1720922,-123.0701098,10.091,0.000,0.000,0.000,0.000,0.000,0.000,0.000,0.000,0.000,0.000,0.000,0,*3B
$GPGGA,005557.000,4910.32553,N,12304.20659,W,0,00,99.0,010.09,M,-16.8,M,,*65
$GNGSA,A,1,,,,,,,,,,,,,99.0,99.0,99.0*1E
$GNGSA,A,1,,,,,,,,,,,,,99.0,99.0,99.0*1E
$PSIWMPVT,124.570,348975.000,1,49.1720922,-123.0701098,10.091,0.000,0.000,0.000,0.000,0.000,0.000,0.000,0.000,0.000,0.000,0.000,0,*3D
$GPGGA,005558.000,4910.32553,N,12304.20659,W,0,00,99.0,010.09,M,-16.8,M,,*6A
$GNGSA,A,1,,,,,,,,,,,,,99.0,99.0,99.0*1E
$GNGSA,A,1,,,,,,,,,,,,,99.0,99.0,99.0*1E
$PSIWMPVT,125.570,348976.000,1,49.1720922,-123.0701098,10.091,0.000,0.000,0.000,0.000,0.000,0.000,0.000,0.000,0.000,0.000,0.000,0,*3F
$GPGGA,005559.000,4910.32553,N,12304.20659,W,0,00,99.0,010.09,M,-16.8,M,,*6B
$GNGSA,A,1,,,,,,,,,,,,,99.0,99.0,99.0*1E
$GNGSA,A,1,,,,,,,,,,,,,99.0,99.0,99.0*1E
$PSIWMPVT,126.560,348977.000,1,49.1720922,-123.0701098,10.091,0.000,0.000,0.000,0.000,0.000,0.000,0.000,0.000,0.000,0.000,0.000,0,*3C
$GPGGA,005600.000,4910.32553,N,12304.20659,W,0,00,99.0,010.09,M,-16.8,M,,*64
$GNGSA,A,1,,,,,,,,,,,,,99.0,99.0,99.0*1E
$GNGSA,A,1,,,,,,,,,,,,,99.0,99.0,99.0*1E
$PSIWMPVT,127.560,348978.000,1,49.1720922,-123.0701098,10.091,0.000,0.000,0.000,0.000,0.000,0.000,0.000,0.000,0.000,0.000,0.000,0,*32
$GPGGA,005627.840,4910.32197,N,12304.21454,W,1,05,3.4,023.91,M,-16.8,M,,*5D
$GPRMC,005627.840,A,4910.32197,N,12304.21454,W,0.6,179.2,181018,,,A*7C
$GNGSA,A,3,03,31,23,17,14,,,,,,,,4.1,3.4,2.2*2D
$GNGSA,A,3,,,,,,,,,,,,,4.1,3.4,2.2*2E
$PSIWMPVT,128.600,349005.838,3,49.1720329,-123.0702424,23.908,0.005,-0.325,-0.075,0.000,0.000,0.000,0.000,0.000,0.000,0.000,0.000,5,*35
$GPGGA,005628.000,4910.32337,N,12304.21585,W,1,05,4.0,023.10,M,-16.8,M,,*51
$GPRMC,005628.000,A,4910.32337,N,12304.21585,W,0.8,186.4,181018,,,A*72
$GNGSA,A,3,03,31,23,22,14,,,,,,,,4.7,4.0,2.6*2A
$GNGSA,A,3,,,,,,,,,,,,,4.7,4.0,2.6*2F
$PSIWMPVT,128.780,349005.996,3,49.1720561,-123.0702642,23.101,-0.046,-0.416,-0.084,49.815,19.987,1.254,1.936,0.000,2.784,3.359,0.051,5,*12
$GPGGA,005629.000,4910.32713,N,12304.21318,W,1,12,0.7,024.37,M,-16.8,M,,*57
$GPRMC,005629.000,A,4910.32713,N,12304.21318,W,0.3,185.9,181018,,,A*76
$GNGSA,A,3,03,31,18,23,22,14,01,32,26,25,11,19,1.2,0.7,1.0*2E
$GNGSA,A,3,,,,,,,,,,,,,1.2,0.7,1.0*29
$PSIWMPVT,129.800,349006.999,3,49.1721189,-123.0702196,24.366,-0.015,-0.145,-0.102,26.029,11.811,1.094,1.581,0.000,1.118,9.983,0.141,12,*2C
$PSIWMPOS,000210.500,4910.32713,N,12304.21318,W,36.81,24.37,M,26.03,0,8,0,2,0,*54
$PSIWMATT,000210.500,360.0,T,0.1,-0.1,180.0,*50
$PSIWMVEL,000210.500,360.0,T,0.5,K,0.10,M,*5A
$PSIWMVSD,000210.500,0.00,0.00,0.00,2,0.00,0.00,0.00,2,*09
$GPGGA,005630.000,4910.32749,N,12304.21209,W,1,12,0.7,023.16,M,-16.8,M,,*55
$GPRMC,005630.000,A,4910.32749,N,12304.21209,W,0.1,0.0,181018,,,A*77
$GNGSA,A,3,03,31,18,23,22,14,01,32,26,25,11,19,1.2,0.7,1.0*2E
$GNGSA,A,3,,,,,,,,,,,,,1.2,0.7,1.0*29
$PSIWMPVT,130.820,349007.999,3,49.1721248,-123.0702014,23.163,-0.005,-0.051,-0.046,18.412,8.832,1.727,1.061,0.000,0.791,9.317,0.039,12,*15
$PSIWMPOS,000211.500,4910.32749,N,12304.21209,W,26.04,23.16,M,18.41,0,8,0,2,0,*58
$PSIWMATT,000211.500,360.0,T,0.1,-0.1,180.0,*51
$PSIWMVEL,000211.500,360.0,T,0.0,K,-0.00,M,*72
$PSIWMVSD,000211.500,0.00,0.00,0.00,2,0.00,0.00,0.00,2,*08
$GPGGA,005631.000,4910.32784,N,12304.21113,W,1,12,0.7,021.67,M,-16.8,M,,*59
$GPRMC,005631.000,A,4910.32784,N,12304.21113,W,0.1,0.0,181018,,,A*7F
$GNGSA,A,3,03,31,18,23,22,14,01,32,26,25,11,19,1.2,0.7,1.0*2E
$GNGSA,A,3,,,,,,,,,,,,,1.2,0.7,1.0*29
$PSIWMPVT,131.830,349008.999,3,49.1721306,-123.0701856,21.670,-0.007,-0.038,-0.017,14.124,7.071,3.406,0.866,0.000,0.707,8.843,0.031,12,*1E
$PSIWMPOS,000212.500,4910.32784,N,12304.21113,W,19.97,21.67,M,14.12,0,8,0,2,0,*5A
$PSIWMATT,000212.500,360.0,T,0.1,-0.1,180.0,*52
$PSIWMVEL,000212.500,360.0,T,0.0,K,-0.00,M,*71
$PSIWMVSD,000212.500,0.00,0.00,0.00,2,0.00,0.00,0.00,2,*0B
$GPGGA,005632.000,4910.32931,N,12304.21145,W,1,11,0.7,021.99,M,-16.8,M,,*5B
$GPRMC,005632.000,A,4910.32931,N,12304.21145,W,0.1,0.0,181018,,,A*7F
$GNGSA,A,3,03,31,18,23,22,14,01,32,25,11,19,,1.2,0.7,1.0*2A
$GNGSA,A,3,,,,,,,,,,,,,1.2,0.7,1.0*29
$PSIWMPVT,132.830,349010.000,3,49.1721552,-123.0701908,21.993,-0.013,-0.043,-0.002,11.180,6.000,5.590,0.791,0.000,0.612,8.920,0.027,11,*19
$PSIWMPOS,000213.500,4910.32931,N,12304.21145,W,18.97,21.99,M,13.42,0,8,0,2,0,*5A
$PSIWMATT,000213.500,360.0,T,0.2,-0.1,180.0,*50
$PSIWMVEL,000213.500,360.0,T,0.0,K,-0.00,M,*70
$PSIWMVSD,000213.500,0.00,0.00,0.00,2,0.00,0.00,0.00,2,*0A
$GPGGA,005633.000,4910.33007,N,12304.21193,W,1,11,0.7,021.96,M,-16.8,M,,*53
$GPRMC,005633.000,A,4910.33007,N,12304.21193,W,0.0,0.0,181018,,,A*79
$GNGSA,A,3,03,31,18,23,22,14,01,32,25,11,19,,1.2,0.7,1.0*2A
$GNGSA,A,3,,,,,,,,,,,,,1.2,0.7,1.0*29
$PSIWMPVT,133.830,349011.000,3,49.1721678,-123.0701988,21.965,-0.011,-0.020,0.004,9.566,5.385,7.152,0.707,0.000,0.612,9.740,0.016,11,*0B
$PSIWMPOS,000214.500,4910.33007,N,12304.21193,W,16.23,21.96,M,11.48,0,8,0,2,0,*5D
$PSIWMATT,000214.500,360.0,T,-0.0,-0.1,180.0,*78
$PSIWMVEL,000214.500,360.0,T,0.0,K,-0.00,M,*77
$PSIWMVSD,000214.500,0.00,0.00,0.00,2,0.00,0.00,0.00,2,*0D
$GPGGA,005634.020,4910.32807,N,12304.20956,W,1,11,0.7,017.77,M,-16.8,M,,*55
$GPRMC,005634.020,A,4910.32807,N,12304.20956,W,0.1,0.0,181018,,,A*74
$GNGSA,A,3,03,31,18,23,22,14,01,26,25,11,19,,1.2,0.7,1.0*2F
$GNGSA,A,3,,,,,,,,,,,,,1.2,0.7,1.0*29
$PSIWMPVT,134.830,349012.019,3,49.1721346,-123.0701594,17.774,-0.008,-0.053,0.017,7.937,4.359,4.422,0.707,0.000,0.612,6.022,0.031,11,*05
$PSIWMPOS,000215.500,4910.32807,N,12304.20956,W,13.47,17.77,M,9.52,0,8,0,2,0,*6A
$PSIWMATT,000215.500,360.0,T,0.1,-0.1,180.0,*55
$PSIWMVEL,000215.500,360.0,T,0.0,K,-0.00,M,*76
$PSIWMVSD,000215.500,0.00,0.00,0.00,2,0.00,0.00,0.00,2,*0C
$GPGGA,005635.000,4910.32732,N,12304.20857,W,1,11,0.7,016.17,M,-16.8,M,,*58
$GPRMC,005635.000,A,4910.32732,N,12304.20857,W,0.1,0.0,181018,,,A*7E
$GNGSA,A,3,03,31,18,23,22,14,01,26,25,11,19,,1.2,0.7,1.0*2F
$GNGSA,A,3,,,,,,,,,,,,,1.2,0.7,1.0*29
$PSIWMPVT,135.820,349013.000,3,49.1721220,-123.0701428,16.172,-0.018,-0.024,0.024,6.928,3.873,3.629,0.612,0.000,0.612,4.945,0.023,11,*02
$PSIWMPOS,000216.500,4910.32732,N,12304.20857,W,11.76,16.17,M,8.31,0,8,0,2,0,*63
$PSIWMATT,000216.500,360.0,T,0.0,-0.1,180.0,*57
$PSIWMVEL,000216.500,360.0,T,0.0,K,-0.00,M,*75
$PSIWMVSD,000216.500,0.00,0.00,0.00,2,0.00,0.00,0.00,2,*0F
$GPGGA,005636.000,4910.32713,N,12304.20814,W,1,11,0.7,015.59,M,-16.8,M,,*56
$GPRMC,005636.000,A,4910.32713,N,12304.20814,W,0.0,0.0,181018,,,A*78
$GNGSA,A,3,03,31,18,23,22,14,01,26,25,11,19,,1.2,0.7,1.0*2F
$GNGSA,A,3,,,,,,,,,,,,,1.2,0.7,1.0*29
$PSIWMPVT,136.820,349013.999,3,49.1721188,-123.0701356,15.587,-0.002,-0.020,0.023,6.595,3.937,3.707,0.612,0.000,0.612,5.051,0.016,11,*0F
$PSIWMPOS,000217.500,4910.32713,N,12304.20814,W,11.19,15.59,M,7.91,0,8,0,2,0,*63
$PSIWMATT,000217.500,360.0,T,0.1,-0.1,180.0,*57
$PSIWMVEL,000217.500,360.0,T,0.0,K,-0.00,M,*74
$PSIWMVSD,000217.500,0.00,0.00,0.00,2,0.00,0.00,0.00,2,*0E
$GPGGA,005637.000,4910.32693,N,12304.20755,W,1,11,0.7,015.18,M,-16.8,M,,*51
$GPRMC,005637.000,A,4910.32693,N,12304.20755,W,0.0,0.0,181018,,,A*7A
$GNGSA,A,3,03,31,18,23,22,14,01,26,25,11,19,,1.2,0.7,1.0*2F
$GNGSA,A,3,,,,,,,,,,,,,1.2,0.7,1.0*29
$PSIWMPVT,137.820,349015.000,3,49.1721155,-123.0701258,15.184,-0.004,-0.021,0.023,5.958,3.536,2.863,0.612,0.000,0.500,3.899,0.020,11,*0E
$PSIWMPOS,000218.500,4910.32693,N,12304.20755,W,10.11,15.18,M,7.15,0,8,0,2,0,*6F
$PSIWMATT,000218.500,360.0,T,0.1,-0.1,180.0,*58
$PSIWMVEL,000218.500,360.0,T,0.0,K,-0.00,M,*7B
$PSIWMVSD,000218.500,0.00,0.00,0.00,2,0.00,0.00,0.00,2,*01
$GPGGA,005638.000,4910.32672,N,12304.20703,W,1,12,0.7,014.76,M,-16.8,M,,*58
$GPRMC,005638.000,A,4910.32672,N,12304.20703,W,0.1,0.0,181018,,,A*78
$GNGSA,A,3,03,31,18,23,22,14,01,32,26,25,11,19,1.2,0.7,1.0*2E
$GNGSA,A,3,,,,,,,,,,,,,1.2,0.7,1.0*29
$PSIWMPVT,138.820,349016.000,3,49.1721120,-123.0701171,14.762,0.002,-0.026,0.025,5.477,3.317,2.457,0.612,0.000,0.500,3.346,0.020,12,*29
$PSIWMPOS,000219.500,4910.32672,N,12304.20703,W,9.30,14.76,M,6.57,0,8,0,2,0,*57
$PSIWMATT,000219.500,360.0,T,0.1,-0.1,180.0,*59
$PSIWMVEL,000219.500,360.0,T,0.0,K,-0.00,M,*7A
$PSIWMVSD,000219.500,0.00,0.00,0.00,2,0.00,0.00,0.00,2,*00
$GPGGA,005639.000,4910.32653,N,12304.20683,W,1,12,0.7,014.34,M,-16.8,M,,*55
$GPRMC,005639.000,A,4910.32653,N,12304.20683,W,0.1,0.0,181018,,,A*73
$GNGSA,A,3,03,31,18,23,22,14,01,32,26,25,11,19,1.2,0.7,1.0*2E
$GNGSA,A,3,,,,,,,,,,,,,1.2,0.7,1.0*29
$PSIWMPVT,139.820,349017.000,3,49.1721088,-123.0701138,14.345,-0.015,-0.038,0.028,5.148,3.162,2.457,0.612,0.000,0.500,3.347,0.027,12,*00
$PSIWMPOS,000220.500,4910.32653,N,12304.20683,W,8.74,14.34,M,6.18,0,8,0,2,0,*5B
$PSIWMATT,000220.500,360.0,T,0.1,-0.1,180.0,*53
$PSIWMVEL,000220.500,360.0,T,0.0,K,-0.00,M,*70
$PSIWMVSD,000220.500,0.00,0.00,0.00,2,0.00,0.00,0.00,2,*0A
$GPGGA,005640.000,4910.32630,N,12304.20650,W,1,12,0.7,013.98,M,-16.8,M,,*51
$GPRMC,005640.000,A,4910.32630,N,12304.20650,W,0.1,0.0,181018,,,A*76
$GNGSA,A,3,03,31,18,23,22,14,01,32,26,25,11,19,1.2,0.7,1.0*2E
$GNGSA,A,3,,,,,,,,,,,,,1.2,0.7,1.0*29
$PSIWMPVT,140.820,349017.999,3,49.1721050,-123.0701083,13.980,-0.004,-0.026,0.032,4.899,3.162,2.484,0.612,0.000,0.500,3.384,0.023,12,*02
$PSIWMPOS,000221.500,4910.32630,N,12304.20650,W,8.31,13.98,M,5.88,0,8,0,2,0,*5B
$PSIWMATT,000221.500,360.0,T,0.1,-0.1,180.0,*52
$PSIWMVEL,000221.500,360.0,T,0.0,K,-0.00,M,*71
$PSIWMVSD,000221.500,0.00,0.00,0.00,2,0.00,0.00,0.00,2,*0B
$GPGGA,005641.000,4910.32627,N,12304.20640,W,1,12,0.7,013.66,M,-16.8,M,,*56
$GPRMC,005641.000,A,4910.32627,N,12304.20640,W,0.0,0.0,181018,,,A*71
$GNGSA,A,3,03,31,18,23,22,14,01,32,26,25,11,19,1.2,0.7,1.0*2E
$GNGSA,A,3,,,,,,,,,,,,,1.2,0.7,1.0*29
$PSIWMPVT,141.820,349019.000,3,49.1721045,-123.0701067,13.655,0.009,0.023,0.025,4.690,3.162,1.992,0.612,0.000,0.500,2.717,0.023,12,*02
$PSIWMPOS,000222.500,4910.32627,N,12304.20640,W,7.96,13.66,M,5.63,0,8,0,2,0,*59
$PSIWMATT,000222.500,360.0,T,0.1,-0.1,180.0,*51
$PSIWMVEL,000222.500,360.0,T,0.0,K,-0.00,M,*72
$PSIWMVSD,000222.500,0.00,0.00,0.00,2,0.00,0.00,0.00,2,*08
$GPGGA,005642.000,4910.32615,N,12304.20639,W,1,12,0.7,013.20,M,-16.8,M,,*58
$GPRMC,005642.000,A,4910.32615,N,12304.20639,W,0.0,0.0,181018,,,A*7D
$GNGSA,A,3,03,31,18,23,22,14,01,32,26,25,11,19,1.2,0.7,1.0*2E
$GNGSA,A,3,,,,,,,,,,,,,1.2,0.7,1.0*29
$PSIWMPVT,142.820,349020.000,3,49.1721026,-123.0701064,13.200,-0.010,-0.001,0.024,4.583,3.162,1.770,0.707,0.500,1.118,2.411,0.016,12,*0C
$PSIWMPOS,000223.500,4910.32615,N,12304.20639,W,7.78,13.20,M,5.50,0,8,0,2,0,*55
$PSIWMATT,000223.500,360.0,T,0.1,-0.1,180.0,*50
$PSIWMVEL,000223.500,360.0,T,0.0,K,-0.00,M,*73
$PSIWMVSD,000223.500,0.00,0.00,0.00,2,0.00,0.00,0.00,2,*09
$GPGGA,005643.000,4910.32605,N,12304.20629,W,1,12,0.7,012.62,M,-16.8,M,,*5E
$GPRMC,005643.000,A,4910.32605,N,12304.20629,W,0.1,0.0,181018,,,A*7D
$GNGSA,A,3,03,31,18,23,22,14,01,32,26,25,11,19,1.2,0.7,1.0*2E
$GNGSA,A,3,,,,,,,,,,,,,1.2,0.7,1.0*29
$PSIWMPVT,143.820,349021.000,3,49.1721008,-123.0701049,12.623,-0.009,-0.038,0.030,4.472,3.162,2.105,0.612,0.000,0.500,2.871,0.027,12,*00
$PSIWMPOS,000224.500,4910.32605,N,12304.20629,W,7.59,12.62,M,5.37,0,8,0,2,0,*57
$PSIWMATT,000224.500,360.0,T,0.1,-0.1,180.0,*57
$PSIWMVEL,000224.500,360.0,T,0.0,K,-0.00,M,*74
$PSIWMVSD,000224.500,0.00,0.00,0.00,2,0.00,0.00,0.00,2,*0E
$GPGGA,005644.000,4910.32602,N,12304.20640,W,1,12,0.7,012.30,M,-16.8,M,,*56
$GPRMC,005644.000,A,4910.32602,N,12304.20640,W,0.1,0.0,181018,,,A*72
$GNGSA,A,3,03,31,18,23,22,14,01,32,26,25,11,19,1.2,0.7,1.0*2E
$GNGSA,A,3,,,,,,,,,,,,,1.2,0.7,1.0*29
$PSIWMPVT,144.820,349022.000,3,49.1721003,-123.0701067,12.304,0.011,-0.060,0.033,4.359,3.082,1.977,0.612,0.000,0.500,2.692,0.035,12,*26
$PSIWMPOS,000225.500,4910.32602,N,12304.20640,W,7.40,12.30,M,5.23,0,8,0,2,0,*54
$PSIWMATT,000225.500,360.0,T,0.2,-0.1,180.0,*55
$PSIWMVEL,000225.500,360.0,T,0.0,K,-0.00,M,*75
$PSIWMVSD,000225.500,0.00,0.00,0.00,2,0.00,0.00,0.00,2,*0F
$GPGGA,005645.000,4910.32600,N,12304.20647,W,1,12,0.7,012.05,M,-16.8,M,,*54
$GPRMC,005645.000,A,4910.32600,N,12304.20647,W,0.1,0.0,181018,,,A*76
$GNGSA,A,3,03,31,18,23,22,14,01,32,26,25,11,19,1.2,0.7,1.0*2E
$GNGSA,A,3,,,,,,,,,,,,,1.2,0.7,1.0*29
$PSIWMPVT,145.820,349023.000,3,49.1721000,-123.0701079,12.049,-0.009,-0.046,0.036,4.359,3.082,1.801,0.612,0.000,0.500,2.456,0.027,12,*0C
$PSIWMPOS,000226.500,4910.32600,N,12304.20647,W,7.40,12.05,M,5.23,0,8,0,2,0,*54
$PSIWMATT,000226.500,360.0,T,0.2,-0.2,180.0,*55
$PSIWMVEL,000226.500,360.0,T,0.0,K,-0.00,M,*76
$PSIWMVSD,000226.500,0.00,0.00,0.00,2,0.00,0.00,0.00,2,*0C
$GPGGA,005646.000,4910.32598,N,12304.20650,W,1,12,0.7,011.77,M,-16.8,M,,*55
$GPRMC,005646.000,A,4910.32598,N,12304.20650,W,0.1,0.0,181018,,,A*71
$GNGSA,A,3,03,31,18,23,22,14,01,32,26,25,11,19,1.2,0.7,1.0*2E
$GNGSA,A,3,,,,,,,,,,,,,1.2,0.7,1.0*29
$PSIWMPVT,146.820,349024.000,3,49.1720996,-123.0701083,11.774,-0.010,-0.025,0.035,4.301,3.082,1.781,0.612,0.000,0.500,2.426,0.023,12,*07
$PSIWMPOS,000227.500,4910.32598,N,12304.20650,W,7.30,11.77,M,5.16,0,8,0,2,0,*56
$PSIWMATT,000227.500,360.0,T,0.2,-0.2,180.0,*54
$PSIWMVEL,000227.500,360.0,T,0.0,K,-0.00,M,*77
$PSIWMVSD,000227.500,0.00,0.00,0.00,2,0.00,0.00,0.00,2,*0D
$GPGGA,005647.000,4910.32591,N,12304.20647,W,1,12,0.7,011.38,M,-16.8,M,,*50
$GPRMC,005647.000,A,4910.32591,N,12304.20647,W,0.1,0.0,181018,,,A*7F
$GNGSA,A,3,03,31,18,23,22,14,01,32,26,25,11,19,1.2,0.7,1.0*2E
$GNGSA,A,3,,,,,,,,,,,,,1.2,0.7,1.0*29
$PSIWMPVT,147.820,349025.000,3,49.1720985,-123.0701078,11.377,0.000,-0.074,0.043,4.243,3.082,1.723,0.612,0.000,0.500,2.351,0.043,12,*21
$PSIWMPOS,000228.500,4910.32591,N,12304.20647,W,7.20,11.38,M,5.09,0,8,0,2,0,*52
$PSIWMATT,000228.500,360.0,T,0.2,-0.1,180.0,*58
$PSIWMVEL,000228.500,360.0,T,0.0,K,-0.00,M,*78
$PSIWMVSD,000228.500,0.00,0.00,0.00,2,0.00,0.00,0.00,2,*02
$GPGGA,005648.000,4910.32593,N,12304.20651,W,1,12,0.7,010.39,M,-16.8,M,,*5A
$GPRMC,005648.000,A,4910.32593,N,12304.20651,W,0.1,0.0,181018,,,A*75
$GNGSA,A,3,03,31,18,23,22,14,01,32,26,25,11,19,1.2,0.7,1.0*2E
$GNGSA,A,3,,,,,,,,,,,,,1.2,0.7,1.0*29
$PSIWMPVT,148.820,349026.000,3,49.1720989,-123.0701085,10.392,-0.013,-0.032,0.044,4.243,3.082,1.887,0.612,0.000,0.500,2.572,0.027,12,*07
$PSIWMPOS,000229.500,4910.32593,N,12304.20651,W,7.20,10.39,M,5.09,0,8,0,2,0,*56
$PSIWMATT,000229.500,360.0,T,0.2,-0.2,180.0,*5A
$PSIWMVEL,000229.500,360.0,T,0.0,K,-0.00,M,*79
$PSIWMVSD,000229.500,0.00,0.00,0.00,2,0.00,0.00,0.00,2,*03
$GPGGA,005649.000,4910.32602,N,12304.20653,W,1,12,0.7,010.08,M,-16.8,M,,*50
$GPRMC,005649.000,A,4910.32602,N,12304.20653,W,0.1,0.0,181018,,,A*7D
$GNGSA,A,3,03,31,18,23,22,14,01,32,26,25,11,19,1.2,0.7,1.0*2E
$GNGSA,A,3,,,,,,,,,,,,,1.2,0.7,1.0*29
$PSIWMPVT,149.820,349027.000,3,49.1721003,-123.0701088,10.079,-0.001,-0.040,0.046,4.243,3.082,1.754,0.612,0.000,0.500,2.393,0.031,12,*0D
$PSIWMPOS,000230.500,4910.32602,N,12304.20653,W,7.20,10.08,M,5.09,0,8,0,2,0,*55
$PSIWMATT,000230.500,360.0,T,0.2,-0.1,180.0,*51
$PSIWMVEL,000230.500,360.0,T,0.0,K,-0.00,M,*71
$PSIWMVSD,000230.500,0.00,0.00,0.00,2,0.00,0.00,0.00,2,*0B
$GPGGA,005650.000,4910.32601,N,12304.20653,W,1,12,0.7,010.00,M,-16.8,M,,*53
$GPRMC,005650.000,A,4910.32601,N,12304.20653,W,0.0,0.0,181018,,,A*77
$GNGSA,A,3,03,31,18,23,22,14,01,32,26,25,11,19,1.2,0.7,1.0*2E
$GNGSA,A,3,,,,,,,,,,,,,1.2,0.7,1.0*29
$PSIWMPVT,150.820,349027.999,3,49.1721002,-123.0701088,10.001,-0.010,-0.022,0.043,4.243,3.082,1.754,0.612,0.000,0.500,2.393,0.031,12,*03
$PSIWMPOS,000231.500,4910.32601,N,12304.20653,W,7.20,10.00,M,5.09,0,8,0,2,0,*5F
$PSIWMATT,000231.500,360.0,T,0.1,-0.2,180.0,*50
$PSIWMVEL,000231.500,360.0,T,0.0,K,-0.00,M,*70
$PSIWMVSD,000231.500,0.00,0.00,0.00,2,0.00,0.00,0.00,2,*0A
$GPGGA,005651.000,4910.32598,N,12304.20660,W,1,12,0.7,010.22,M,-16.8,M,,*51
$GPRMC,005651.000,A,4910.32598,N,12304.20660,W,0.1,0.0,181018,,,A*74
$GNGSA,A,3,03,31,18,23,22,14,01,32,26,25,11,19,1.2,0.7,1.0*2E
$GNGSA,A,3,,,,,,,,,,,,,1.2,0.7,1.0*29
$PSIWMPVT,151.820,349028.999,3,49.1720997,-123.0701100,10.221,-0.001,-0.059,0.041,4.183,3.082,1.852,0.612,0.000,0.500,2.526,0.043,12,*0D
$PSIWMPOS,000232.500,4910.32598,N,12304.20660,W,7.10,10.22,M,5.02,0,8,0,2,0,*57
$PSIWMATT,000232.500,360.0,T,0.2,-0.1,180.0,*53
$PSIWMVEL,000232.500,360.0,T,0.0,K,-0.00,M,*73
$PSIWMVSD,000232.500,0.00,0.00,0.00,2,0.00,0.00,0.00,2,*09
$GPGGA,005652.000,4910.32592,N,12304.20669,W,1,12,0.7,010.51,M,-16.8,M,,*55
$GPRMC,005652.000,A,4910.32592,N,12304.20669,W,0.0,0.0,181018,,,A*75
$GNGSA,A,3,03,31,18,23,22,14,01,32,26,25,11,19,1.2,0.7,1.0*2E
$GNGSA,A,3,,,,,,,,,,,,,1.2,0.7,1.0*29
$PSIWMPVT,152.820,349029.999,3,49.1720986,-123.0701116,10.510,-0.004,-0.007,0.038,4.123,3.162,2.141,0.612,0.000,0.500,2.916,0.016,12,*0F
$PSIWMPOS,000233.500,4910.32592,N,12304.20669,W,7.00,10.51,M,4.95,0,8,0,2,0,*5F
$PSIWMATT,000233.500,360.0,T,0.1,-0.2,180.0,*52
$PSIWMVEL,000233.500,360.0,T,0.0,K,-0.00,M,*72
$PSIWMVSD,000233.500,0.00,0.00,0.00,2,0.00,0.00,0.00,2,*08
$GPGGA,005653.000,4910.32591,N,12304.20679,W,1,12,0.7,010.78,M,-16.8,M,,*5D
$GPRMC,005653.000,A,4910.32591,N,12304.20679,W,0.1,0.0,181018,,,A*77
$GNGSA,A,3,03,31,18,23,22,14,01,32,26,25,11,19,1.2,0.7,1.0*2E
$GNGSA,A,3,,,,,,,,,,,,,1.2,0.7,1.0*29
$PSIWMPVT,153.820,349030.999,3,49.1720985,-123.0701131,10.782,0.000,-0.073,0.044,4.123,3.162,1.828,0.612,0.000,0.500,2.492,0.047,12,*28
$PSIWMPOS,000234.500,4910.32591,N,12304.20679,W,7.00,10.78,M,4.95,0,8,0,2,0,*51
$PSIWMATT,000234.500,360.0,T,0.2,-0.1,180.0,*55
$PSIWMVEL,000234.500,360.0,T,0.0,K,-0.00,M,*75
$PSIWMVSD,000234.500,0.00,0.00,0.00,2,0.00,0.00,0.00,2,*0F
$GPGGA,005654.000,4910.32600,N,12304.20684,W,1,12,0.7,010.91,M,-16.8,M,,*54
$GPRMC,005654.000,A,4910.32600,N,12304.20684,W,0.1,0.0,181018,,,A*79
$GNGSA,A,3,03,31,18,23,22,14,01,32,26,25,11,19,1.2,0.7,1.0*2E
$GNGSA,A,3,,,,,,,,,,,,,1.2,0.7,1.0*29
$PSIWMPVT,154.820,349031.999,3,49.1721000,-123.0701140,10.907,-0.014,-0.026,0.045,4.183,3.162,2.055,0.612,0.000,0.500,2.802,0.027,12,*0F
$PSIWMPOS,000235.500,4910.32600,N,12304.20684,W,7.10,10.91,M,5.02,0,8,0,2,0,*50
$PSIWMATT,000235.500,360.0,T,0.1,-0.1,180.0,*57
$PSIWMVEL,000235.500,360.0,T,0.0,K,-0.00,M,*74
$PSIWMVSD,000235.500,0.00,0.00,0.00,2,0.00,0.00,0.00,2,*0E
$GPGGA,005655.000,4910.32598,N,12304.20681,W,1,12,0.7,010.82,M,-16.8,M,,*50
$GPRMC,005655.000,A,4910.32598,N,12304.20681,W,0.1,0.0,181018,,,A*7F
$GNGSA,A,3,03,31,18,23,22,14,01,32,26,25,11,19,1.2,0.7,1.0*2E
$GNGSA,A,3,,,,,,,,,,,,,1.2,0.7,1.0*29
$PSIWMPVT,155.820,349032.999,3,49.1720997,-123.0701136,10.817,-0.000,-0.073,0.053,4.359,3.391,2.406,0.612,0.000,0.500,3.279,0.039,12,*09
$PSIWMPOS,000236.500,4910.32598,N,12304.20681,W,7.40,10.82,M,5.23,0,8,0,2,0,*50
$PSIWMATT,000236.500,360.0,T,0.2,-0.1,180.0,*57
$PSIWMVEL,000236.500,360.0,T,0.0,K,-0.00,M,*77
$PSIWMVSD,000236.500,0.00,0.00,0.00,2,0.00,0.00,0.00,2,*0D
$GPGGA,005656.000,4910.32617,N,12304.20680,W,1,12,0.7,010.56,M,-16.8,M,,*5F
$GPRMC,005656.000,A,4910.32617,N,12304.20680,W,0.2,0.0,181018,,,A*7A
$GNGSA,A,3,03,31,18,23,22,14,01,32,26,25,11,19,1.2,0.7,1.0*2E
$GNGSA,A,3,,,,,,,,,,,,,1.2,0.7,1.0*29
$PSIWMPVT,156.820,349034.000,3,49.1721029,-123.0701133,10.560,-0.005,-0.081,0.059,4.243,3.240,2.348,0.612,0.000,0.500,3.199,0.043,12,*08
$PSIWMPOS,000237.500,4910.32617,N,12304.20680,W,7.20,10.56,M,5.09,0,8,0,2,0,*53
$PSIWMATT,000237.500,360.0,T,0.2,-0.2,180.0,*55
$PSIWMVEL,000237.500,360.0,T,0.0,K,-0.00,M,*76
$PSIWMVSD,000237.500,0.00,0.00,0.00,2,0.00,0.00,0.00,2,*0C
$GPGGA,005657.000,4910.32637,N,12304.20686,W,1,12,0.7,010.38,M,-16.8,M,,*52
$GPRMC,005657.000,A,4910.32637,N,12304.20686,W,0.1,0.0,181018,,,A*7C
$GNGSA,A,3,03,31,18,23,22,14,01,32,26,25,11,19,1.2,0.7,1.0*2E
$GNGSA,A,3,,,,,,,,,,,,,1.2,0.7,1.0*29
$PSIWMPVT,157.820,349034.999,3,49.1721062,-123.0701143,10.378,-0.005,-0.071,0.062,4.301,3.162,2.270,0.612,0.000,0.500,3.092,0.051,12,*07
$PSIWMPOS,000238.500,4910.32637,N,12304.20686,W,7.30,10.38,M,5.16,0,8,0,2,0,*5F
$PSIWMATT,000238.500,360.0,T,0.1,-0.1,180.0,*5A
$PSIWMVEL,000238.500,360.0,T,0.0,K,-0.00,M,*79
$PSIWMVSD,000238.500,0.00,0.00,0.00,2,0.00,0.00,0.00,2,*03
$GPGGA,005658.000,4910.32645,N,12304.20691,W,1,12,0.7,010.32,M,-16.8,M,,*54
$GPRMC,005658.000,A,4910.32645,N,12304.20691,W,0.1,0.0,181018,,,A*70
$GNGSA,A,3,03,31,18,23,22,14,01,32,26,25,11,19,1.2,0.7,1.0*2E
$GNGSA,A,3,,,,,,,,,,,,,1.2,0.7,1.0*29
$PSIWMPVT,158.820,349035.999,3,49.1721074,-123.0701151,10.322,-0.000,-0.056,0.060,4.416,3.391,2.613,0.612,0.000,0.500,3.561,0.043,12,*04
$PSIWMPOS,000239.500,4910.32645,N,12304.20691,W,7.49,10.32,M,5.30,0,8,0,2,0,*5D
$PSIWMATT,000239.500,360.0,T,0.1,-0.1,180.0,*5B
$PSIWMVEL,000239.500,360.0,T,0.0,K,-0.00,M,*78
$PSIWMVSD,000239.500,0.00,0.00,0.00,2,0.00,0.00,0.00,2,*02
$GPGGA,005659.000,4910.32655,N,12304.20695,W,1,12,0.7,010.59,M,-16.8,M,,*5D
$GPRMC,005659.000,A,4910.32655,N,12304.20695,W,0.1,0.0,181018,,,A*74
$GNGSA,A,3,03,31,18,23,22,14,01,32,26,25,11,19,1.2,0.7,1.0*2E
$GNGSA,A,3,,,,,,,,,,,,,1.2,0.7,1.0*29
$PSIWMPVT,159.820,349036.999,3,49.1721091,-123.0701158,10.589,-0.014,-0.055,0.063,4.359,3.240,2.398,0.612,0.000,0.500,3.270,0.043,12,*06
$PSIWMPOS,000240.500,4910.32655,N,12304.20695,W,7.40,10.59,M,5.23,0,8,0,2,0,*50
$PSIWMATT,000240.500,360.0,T,0.1,-0.1,180.0,*55
$PSIWMVEL,000240.500,360.0,T,0.0,K,-0.00,M,*76
$PSIWMVSD,000240.500,0.00,0.00,0.00,2,0.00,0.00,0.00,2,*0C
$GPGGA,005700.000,4910.32652,N,12304.20699,W,1,12,0.7,010.85,M,-16.8,M,,*5A
$GPRMC,005700.000,A,4910.32652,N,12304.20699,W,0.1,0.0,181018,,,A*72
$GNGSA,A,3,03,31,18,23,22,14,01,32,26,25,11,19,1.2,0.7,1.0*2E
$GNGSA,A,3,,,,,,,,,,,,,1.2,0.7,1.0*29
$PSIWMPVT,160.820,349038.000,3,49.1721087,-123.0701165,10.848,-0.004,-0.059,0.066,4.301,3.162,2.488,0.612,0.000,0.500,3.389,0.047,12,*01
$PSIWMPOS,000241.500,4910.32652,N,12304.20699,W,7.30,10.85,M,5.16,0,8,0,2,0,*5A
$PSIWMATT,000241.500,360.0,T,0.1,-0.1,180.0,*54
$PSIWMVEL,000241.500,360.0,T,0.0,K,-0.00,M,*77
$PSIWMVSD,000241.500,0.00,0.00,0.00,2,0.00,0.00,0.00,2,*0D
$GPGGA,005701.000,4910.32647,N,12304.20697,W,1,12,0.7,010.80,M,-16.8,M,,*54
$GPRMC,005701.000,A,4910.32647,N,12304.20697,W,0.2,0.0,181018,,,A*7A
$GNGSA,A,3,03,31,18,23,22,14,01,32,26,25,11,19,1.2,0.7,1.0*2E
$GNGSA,A,3,,,,,,,,,,,,,1.2,0.7,1.0*29
$PSIWMPVT,161.820,349039.000,3,49.1721079,-123.0701162,10.795,-0.007,-0.095,0.074,4.416,3.317,2.602,0.612,0.000,0.500,3.543,0.062,12,*0E
$PSIWMPOS,000242.500,4910.32647,N,12304.20697,W,7.49,10.80,M,5.30,0,8,0,2,0,*5C
$PSIWMATT,000242.500,360.0,T,0.1,-0.1,180.0,*57
$PSIWMVEL,000242.500,360.0,T,0.0,K,-0.00,M,*74
$PSIWMVSD,000242.500,0.00,0.00,0.00,2,0.00,0.00,0.00,2,*0E
$GPGGA,005702.000,4910.32639,N,12304.20696,W,1,12,0.7,010.88,M,-16.8,M,,*57
$GPRMC,005702.000,A,4910.32639,N,12304.20696,W,0.2,0.0,181018,,,A*71
$GNGSA,A,3,03,31,18,23,22,14,01,32,26,25,11,19,1.2,0.7,1.0*2E
$GNGSA,A,3,,,,,,,,,,,,,1.2,0.7,1.0*29
$PSIWMPVT,162.820,349039.999,3,49.1721065,-123.0701160,10.883,-0.006,-0.091,0.079,4.472,3.464,2.793,0.612,0.000,0.500,3.805,0.055,12,*08
$PSIWMPOS,000243.500,4910.32639,N,12304.20696,W,7.59,10.88,M,5.37,0,8,0,2,0,*5B
$PSIWMATT,000243.500,360.0,T,0.1,-0.1,180.0,*56
$PSIWMVEL,000243.500,360.0,T,0.0,K,-0.00,M,*75
$PSIWMVSD,000243.500,0.00,0.00,0.00,2,0.00,0.00,0.00,2,*0F
$GPGGA,005703.000,4910.32635,N,12304.20691,W,1,12,0.7,010.74,M,-16.8,M,,*5E
$GPRMC,005703.000,A,4910.32635,N,12304.20691,W,0.1,0.0,181018,,,A*78
$GNGSA,A,3,03,31,18,23,22,14,01,32,26,25,11,19,1.2,0.7,1.0*2E
$GNGSA,A,3,,,,,,,,,,,,,1.2,0.7,1.0*29
$PSIWMPVT,163.820,349040.999,3,49.1721059,-123.0701152,10.743,-0.017,-0.069,0.082,4.528,3.536,3.016,0.612,0.000,0.500,4.111,0.047,12,*02
$PSIWMPOS,000244.500,4910.32635,N,12304.20691,W,7.68,10.74,M,5.43,0,8,0,2,0,*55
$PSIWMATT,000244.500,360.0,T,0.1,-0.1,180.0,*51
$PSIWMVEL,000244.500,360.0,T,0.0,K,-0.00,M,*72
$PSIWMVSD,000244.500,0.00,0.00,0.00,2,0.00,0.00,0.00,2,*08
$GPGGA,005704.000,4910.32634,N,12304.20689,W,1,12,0.7,010.79,M,-16.8,M,,*5C
$GPRMC,005704.000,A,4910.32634,N,12304.20689,W,0.2,178.0,181018,,,A*7A
$GNGSA,A,3,03,31,18,23,22,14,01,32,26,25,11,19,1.2,0.7,1.0*2E
$GNGSA,A,3,,,,,,,,,,,,,1.2,0.7,1.0*29
$PSIWMPVT,164.820,349042.000,3,49.1721057,-123.0701148,10.787,0.004,-0.108,0.090,4.583,3.606,2.848,0.612,0.000,0.500,3.881,0.062,12,*2A
$PSIWMPOS,000245.500,4910.32634,N,12304.20689,W,7.78,10.79,M,5.50,0,8,0,2,0,*52
$PSIWMATT,000245.500,360.0,T,0.1,-0.1,180.0,*50
$PSIWMVEL,000245.500,360.0,T,0.0,K,-0.00,M,*73
$PSIWMVSD,000245.500,0.00,0.00,0.00,2,0.00,0.00,0.00,2,*09
$GPGGA,005705.000,4910.32637,N,12304.20678,W,1,12,0.7,010.67,M,-16.8,M,,*5F
$GPRMC,005705.000,A,4910.32637,N,12304.20678,W,0.1,0.0,181018,,,A*7B
$GNGSA,A,3,03,31,18,23,22,14,01,32,26,25,11,19,1.2,0.7,1.0*2E
$GNGSA,A,3,,,,,,,,,,,,,1.2,0.7,1.0*29
$PSIWMPVT,165.820,349043.000,3,49.1721062,-123.0701130,10.669,-0.012,-0.058,0.088,4.583,3.674,2.738,0.612,0.000,0.500,3.730,0.047,12,*0A
$PSIWMPOS,000246.500,4910.32637,N,12304.20678,W,7.78,10.67,M,5.50,0,8,0,2,0,*53
$PSIWMATT,000246.500,360.0,T,0.1,-0.1,180.0,*53
$PSIWMVEL,000246.500,360.0,T,0.0,K,-0.00,M,*70
$PSIWMVSD,000246.500,0.00,0.00,0.00,2,0.00,0.00,0.00,2,*0A
$GPGGA,005706.000,4910.32641,N,12304.20667,W,1,12,0.7,010.35,M,-16.8,M,,*54
$GPRMC,005706.000,A,4910.32641,N,12304.20667,W,0.2,0.0,181018,,,A*74
$GNGSA,A,3,03,31,18,23,22,14,01,32,26,25,11,19,1.2,0.7,1.0*2E
$GNGSA,A,3,,,,,,,,,,,,,1.2,0.7,1.0*29
$PSIWMPVT,166.820,349043.999,3,49.1721069,-123.0701111,10.349,-0.016,-0.087,0.093,4.637,3.674,2.840,0.612,0.000,0.500,3.871,0.051,12,*02
$PSIWMPOS,000247.500,4910.32641,N,12304.20667,W,7.87,10.35,M,5.56,0,8,0,2,0,*5C
$PSIWMATT,000247.500,360.0,T,0.1,-0.1,180.0,*52
$PSIWMVEL,000247.500,360.0,T,0.0,K,-0.00,M,*71
$PSIWMVSD,000247.500,0.00,0.00,0.00,2,0.00,0.00,0.00,2,*0B
$GPGGA,005707.000,4910.32632,N,12304.20662,W,1,12,0.7,010.13,M,-16.8,M,,*50
$GPRMC,005707.000,A,4910.32632,N,12304.20662,W,0.2,0.0,181018,,,A*74
$GNGSA,A,3,03,31,18,23,22,14,01,32,26,25,11,19,1.2,0.7,1.0*2E
$GNGSA,A,3,,,,,,,,,,,,,1.2,0.7,1.0*29
$PSIWMPVT,167.830,349044.999,3,49.1721053,-123.0701103,10.134,-0.007,-0.087,0.095,4.690,3.742,2.797,0.612,0.000,0.500,3.810,0.059,12,*02
$PSIWMPOS,000248.500,4910.32632,N,12304.20662,W,7.96,10.13,M,5.63,0,8,0,2,0,*50
$PSIWMATT,000248.500,360.0,T,0.1,-0.1,180.0,*5D
$PSIWMVEL,000248.500,360.0,T,0.0,K,-0.00,M,*7E
$PSIWMVSD,000248.500,0.00,0.00,0.00,2,0.00,0.00,0.00,2,*04
$GPGGA,005708.000,4910.32635,N,12304.20669,W,1,12,0.7,009.81,M,-16.8,M,,*50
$GPRMC,005708.000,A,4910.32635,N,12304.20669,W,0.0,0.0,181018,,,A*75
$GNGSA,A,3,03,31,18,23,22,14,01,32,26,25,11,19,1.2,0.7,1.0*2E
$GNGSA,A,3,,,,,,,,,,,,,1.2,0.7,1.0*29
$PSIWMPVT,168.820,349046.000,3,49.1721058,-123.0701115,9.811,-0.011,-0.010,0.087,4.743,3.808,3.109,0.612,0.000,0.500,4.236,0.055,12,*3C
$PSIWMPOS,000249.500,4910.32635,N,12304.20669,W,8.05,9.81,M,5.69,0,8,0,2,0,*61
$PSIWMATT,000249.500,360.0,T,0.0,-0.1,180.0,*5D
$PSIWMVEL,000249.500,360.0,T,0.0,K,-0.00,M,*7F
$PSIWMVSD,000249.500,0.00,0.00,0.00,2,0.00,0.00,0.00,2,*05
$GPGGA,005709.000,4910.32633,N,12304.20664,W,1,12,0.7,010.21,M,-16.8,M,,*58
$GPRMC,005709.000,A,4910.32633,N,12304.20664,W,0.0,0.0,181018,,,A*7F
$GNGSA,A,3,03,31,18,23,22,14,01,32,26,25,11,19,1.2,0.7,1.0*2E
$GNGSA,A,3,,,,,,,,,,,,,1.2,0.7,1.0*29
$PSIWMPVT,169.820,349047.000,3,49.1721054,-123.0701106,10.214,-0.004,0.007,0.073,4.796,3.808,2.945,0.612,0.000,0.500,4.015,0.027,12,*2E
$PSIWMPOS,000250.500,4910.32633,N,12304.20664,W,8.14,10.21,M,5.75,0,8,0,2,0,*5D
$PSIWMATT,000250.500,360.0,T,-0.0,-0.0,180.0,*79
$PSIWMVEL,000250.500,360.0,T,0.0,K,-0.00,M,*77
$PSIWMVSD,000250.500,0.00,0.00,0.00,2,0.00,0.00,0.00,2,*0D
$GPGGA,005710.000,4910.32631,N,12304.20662,W,1,12,0.7,011.09,M,-16.8,M,,*5F
$GPRMC,005710.000,A,4910.32631,N,12304.20662,W,0.0,0.0,181018,,,A*73
$GNGSA,A,3,03,31,18,23,22,14,01,32,26,25,11,19,1.2,0.7,1.0*2E
$GNGSA,A,3,,,,,,,,,,,,,1.2,0.7,1.0*29
$PSIWMPVT,170.820,349048.000,3,49.1721051,-123.0701103,11.086,-0.013,-0.018,0.064,4.796,3.808,3.449,0.612,0.000,0.500,4.700,0.031,12,*06
$PSIWMPOS,000251.500,4910.32631,N,12304.20662,W,8.14,11.09,M,5.75,0,8,0,2,0,*53
$PSIWMATT,000251.500,360.0,T,0.0,-0.0,180.0,*55
$PSIWMVEL,000251.500,360.0,T,0.0,K,-0.00,M,*76
$PSIWMVSD,000251.500,0.00,0.00,0.00,2,0.00,0.00,0.00,2,*0C
$GPGGA,005711.000,4910.32622,N,12304.20659,W,1,12,0.7,011.95,M,-16.8,M,,*51
$GPRMC,005711.000,A,4910.32622,N,12304.20659,W,0.0,0.0,181018,,,A*78
$GNGSA,A,3,03,31,18,23,22,14,01,32,26,25,11,19,1.2,0.7,1.0*2E
$GNGSA,A,3,,,,,,,,,,,,,1.2,0.7,1.0*29
$PSIWMPVT,171.820,349048.999,3,49.1721037,-123.0701099,11.955,-0.007,-0.022,0.057,4.796,3.808,3.469,0.612,0.000,0.500,4.728,0.027,12,*08
$PSIWMPOS,000252.500,4910.32622,N,12304.20659,W,8.14,11.95,M,5.75,0,8,0,2,0,*5F
$PSIWMATT,000252.500,360.0,T,0.0,-0.0,180.0,*56
$PSIWMVEL,000252.500,360.0,T,0.0,K,-0.00,M,*75
$PSIWMVSD,000252.500,0.00,0.00,0.00,2,0.00,0.00,0.00,2,*0F
$GPGGA,005712.000,4910.32616,N,12304.20657,W,1,12,0.7,012.62,M,-16.8,M,,*50
$GPRMC,005712.000,A,4910.32616,N,12304.20657,W,0.1,0.0,181018,,,A*73
$GNGSA,A,3,03,31,18,23,22,14,01,32,26,25,11,19,1.2,0.7,1.0*2E
$GNGSA,A,3,,,,,,,,,,,,,1.2,0.7,1.0*29
$PSIWMPVT,172.830,349050.000,3,49.1721026,-123.0701095,12.616,-0.007,-0.030,0.050,4.796,3.808,3.059,0.612,0.000,0.500,4.168,0.023,12,*08
$PSIWMPOS,000253.500,4910.32616,N,12304.20657,W,8.14,12.62,M,5.75,0,8,0,2,0,*5C
$PSIWMATT,000253.500,360.0,T,0.1,-0.0,180.0,*56
$PSIWMVEL,000253.500,360.0,T,0.0,K,-0.00,M,*74
$PSIWMVSD,000253.500,0.00,0.00,0.00,2,0.00,0.00,0.00,2,*0E
$GPGGA,005713.000,4910.32610,N,12304.20661,W,1,12,0.7,012.99,M,-16.8,M,,*56
$GPRMC,005713.000,A,4910.32610,N,12304.20661,W,0.0,0.0,181018,,,A*70
$GNGSA,A,3,03,31,18,23,22,14,01,32,26,25,11,19,1.2,0.7,1.0*2E
$GNGSA,A,3,,,,,,,,,,,,,1.2,0.7,1.0*29
$PSIWMPVT,173.820,349051.000,3,49.1721017,-123.0701102,12.986,-0.013,-0.018,0.043,4.743,3.742,3.094,0.612,0.000,0.500,4.213,0.027,12,*0C
$PSIWMPOS,000254.500,4910.32610,N,12304.20661,W,8.05,12.99,M,5.69,0,8,0,2,0,*51
$PSIWMATT,000254.500,360.0,T,0.0,-0.1,180.0,*51
$PSIWMVEL,000254.500,360.0,T,0.0,K,-0.00,M,*73
$PSIWMVSD,000254.500,0.00,0.00,0.00,2,0.00,0.00,0.00,2,*09
$GPGGA,005714.000,4910.32610,N,12304.20671,W,1,12,0.7,012.77,M,-16.8,M,,*50
$GPRMC,005714.000,A,4910.32610,N,12304.20671,W,0.1,0.0,181018,,,A*77
$GNGSA,A,3,03,31,18,23,22,14,01,32,26,25,11,19,1.2,0.7,1.0*2E
$GNGSA,A,3,,,,,,,,,,,,,1.2,0.7,1.0*29
$PSIWMPVT,174.820,349052.000,3,49.1721016,-123.0701118,12.765,-0.006,-0.074,0.046,4.743,3.742,2.613,0.612,0.000,0.500,3.564,0.043,12,*00
$PSIWMPOS,000255.500,4910.32610,N,12304.20671,W,8.05,12.77,M,5.69,0,8,0,2,0,*51
$PSIWMATT,000255.500,360.0,T,0.1,-0.0,180.0,*50
$PSIWMVEL,000255.500,360.0,T,0.0,K,-0.00,M,*72
$PSIWMVSD,000255.500,0.00,0.00,0.00,2,0.00,0.00,0.00,2,*08
$GPGGA,005715.000,4910.32608,N,12304.20674,W,1,12,0.7,012.60,M,-16.8,M,,*5B
$GPRMC,005715.000,A,4910.32608,N,12304.20674,W,0.0,0.0,181018,,,A*7B
$GNGSA,A,3,03,31,18,23,22,14,01,32,26,25,11,19,1.2,0.7,1.0*2E
$GNGSA,A,3,,,,,,,,,,,,,1.2,0.7,1.0*29
$PSIWMPVT,175.820,349052.999,3,49.1721014,-123.0701123,12.598,-0.023,-0.005,0.038,4.743,3.742,2.340,0.612,0.000,0.500,3.190,0.027,12,*04
$PSIWMPOS,000256.500,4910.32608,N,12304.20674,W,8.05,12.60,M,5.69,0,8,0,2,0,*58
$PSIWMATT,000256.500,360.0,T,0.0,-0.1,180.0,*53
$PSIWMVEL,000256.500,360.0,T,0.0,K,-0.00,M,*71
$PSIWMVSD,000256.500,0.00,0.00,0.00,2,0.00,0.00,0.00,2,*0B
$GPGGA,005716.000,4910.32601,N,12304.20676,W,1,12,0.7,012.38,M,-16.8,M,,*5E
$GPRMC,005716.000,A,4910.32601,N,12304.20676,W,0.1,0.0,181018,,,A*72
$GNGSA,A,3,03,31,18,23,22,14,01,32,26,25,11,19,1.2,0.7,1.0*2E
$GNGSA,A,3,,,,,,,,,,,,,1.2,0.7,1.0*29
$PSIWMPVT,176.820,349054.000,3,49.1721002,-123.0701127,12.378,-0.016,-0.029,0.034,4.743,3.674,2.090,0.612,0.000,0.500,2.846,0.023,12,*0A
$PSIWMPOS,000257.500,4910.32601,N,12304.20676,W,8.05,12.38,M,5.69,0,8,0,2,0,*5F
$PSIWMATT,000257.500,360.0,T,0.0,-0.1,180.0,*52
$PSIWMVEL,000257.500,360.0,T,0.0,K,-0.00,M,*70
$PSIWMVSD,000257.500,0.00,0.00,0.00,2,0.00,0.00,0.00,2,*0A
$GPGGA,005717.000,4910.32606,N,12304.20688,W,1,12,0.7,012.28,M,-16.8,M,,*58
$GPRMC,005717.000,A,4910.32606,N,12304.20688,W,0.0,0.0,181018,,,A*74
$GNGSA,A,3,03,31,18,23,22,14,01,32,26,25,11,19,1.2,0.7,1.0*2E
$GNGSA,A,3,,,,,,,,,,,,,1.2,0.7,1.0*29
$PSIWMPVT,177.820,349055.000,3,49.1721011,-123.0701146,12.279,-0.016,-0.018,0.028,4.743,3.674,2.125,0.612,0.000,0.500,2.899,0.023,12,*0D
$PSIWMPOS,000258.500,4910.32606,N,12304.20688,W,8.05,12.28,M,5.69,0,8,0,2,0,*57
$PSIWMATT,000258.500,360.0,T,0.0,-0.1,180.0,*5D
$PSIWMVEL,000258.500,360.0,T,0.0,K,-0.00,M,*7F
$PSIWMVSD,000258.500,0.00,0.00,0.00,2,0.00,0.00,0.00,2,*05
$GPGGA,005718.000,4910.32610,N,12304.20703,W,1,12,0.7,012.34,M,-16.8,M,,*5F
$GPRMC,005718.000,A,4910.32610,N,12304.20703,W,0.1,0.0,181018,,,A*7F
$GNGSA,A,3,03,31,18,23,22,14,01,32,26,25,11,19,1.2,0.7,1.0*2E
$GNGSA,A,3,,,,,,,,,,,,,1.2,0.7,1.0*29
$PSIWMPVT,178.820,349056.000,3,49.1721017,-123.0701171,12.345,-0.016,-0.049,0.025,4.743,3.674,2.234,0.612,0.000,0.500,3.045,0.035,12,*08
$PSIWMPOS,000259.500,4910.32610,N,12304.20703,W,8.05,12.34,M,5.69,0,8,0,2,0,*5E
$PSIWMATT,000259.500,360.0,T,0.0,-0.1,180.0,*5C
$PSIWMVEL,000259.500,360.0,T,0.0,K,-0.00,M,*7E
$PSIWMVSD,000259.500,0.00,0.00,0.00,2,0.00,0.00,0.00,2,*04
$GPGGA,005719.000,4910.32623,N,12304.20736,W,1,12,0.7,012.28,M,-16.8,M,,*55
$GPRMC,005719.000,A,4910.32623,N,12304.20736,W,0.1,0.0,181018,,,A*78
$GNGSA,A,3,03,31,18,23,22,14,01,32,26,25,11,19,1.2,0.7,1.0*2E
$GNGSA,A,3,,,,,,,,,,,,,1.2,0.7,1.0*29
$PSIWMPVT,179.820,349057.000,3,49.1721038,-123.0701226,12.281,-0.028,-0.029,0.021,4.583,3.317,1.855,0.612,0.000,0.500,2.527,0.031,12,*06
$PSIWMPOS,000300.500,4910.32623,N,12304.20736,W,7.78,12.28,M,5.50,0,8,0,2,0,*57
$PSIWMATT,000300.500,360.0,T,0.0,-0.1,180.0,*51
$PSIWMVEL,000300.500,360.0,T,0.0,K,-0.00,M,*73
$PSIWMVSD,000300.500,0.00,0.00,0.00,2,0.00,0.00,0.00,2,*09
$GPGGA,005720.000,4910.32625,N,12304.20742,W,1,12,0.7,012.20,M,-16.8,M,,*52
$GPRMC,005720.000,A,4910.32625,N,12304.20742,W,0.0,0.0,181018,,,A*76
$GNGSA,A,3,03,31,18,23,22,14,01,32,26,25,11,19,1.2,0.7,1.0*2E
$GNGSA,A,3,,,,,,,,,,,,,1.2,0.7,1.0*29
$PSIWMPVT,180.820,349058.000,3,49.1721041,-123.0701237,12.199,-0.008,-0.023,0.011,4.637,3.464,2.086,0.612,0.000,0.500,2.841,0.023,12,*04
$PSIWMPOS,000301.500,4910.32625,N,12304.20742,W,7.87,12.20,M,5.56,0,8,0,2,0,*5D
$PSIWMATT,000301.500,360.0,T,0.0,-0.0,180.0,*51
$PSIWMVEL,000301.500,360.0,T,0.0,K,-0.00,M,*72
$PSIWMVSD,000301.500,0.00,0.00,0.00,2,0.00,0.00,0.00,2,*08
$GPGGA,005721.000,4910.32620,N,12304.20755,W,1,12,0.7,012.22,M,-16.8,M,,*52
$GPRMC,005721.000,A,4910.32620,N,12304.20755,W,0.1,0.0,181018,,,A*75
$GNGSA,A,3,03,31,18,23,22,14,01,32,26,25,11,19,1.2,0.7,1.0*2E
$GNGSA,A,3,,,,,,,,,,,,,1.2,0.7,1.0*29
$PSIWMPVT,181.820,349059.000,3,49.1721033,-123.0701258,12.215,-0.024,-0.036,0.009,4.690,3.536,2.430,0.612,0.000,0.500,3.309,0.031,12,*0B
$PSIWMPOS,000302.500,4910.32620,N,12304.20755,W,7.96,12.22,M,5.63,0,8,0,2,0,*59
$PSIWMATT,000302.500,360.0,T,0.0,-0.1,180.0,*53
$PSIWMVEL,000302.500,360.0,T,0.0,K,-0.00,M,*71
$PSIWMVSD,000302.500,0.00,0.00,0.00,2,0.00,0.00,0.00,2,*0B
$GPGGA,005722.000,4910.32615,N,12304.20766,W,1,12,0.7,012.25,M,-16.8,M,,*50
$GPRMC,005722.000,A,4910.32615,N,12304.20766,W,0.1,0.0,181018,,,A*70
$GNGSA,A,3,03,31,18,23,22,14,01,32,26,25,11,19,1.2,0.7,1.0*2E
$GNGSA,A,3,,,,,,,,,,,,,1.2,0.7,1.0*29
$PSIWMPVT,182.820,349060.000,3,49.1721025,-123.0701277,12.255,-0.027,0.013,0.001,4.528,3.240,2.762,0.612,0.000,0.500,3.765,0.023,12,*22
$PSIWMPOS,000303.500,4910.32615,N,12304.20766,W,7.68,12.25,M,5.43,0,8,0,2,0,*5A
$PSIWMATT,000303.500,360.0,T,0.0,-0.1,180.0,*52
$PSIWMVEL,000303.500,360.0,T,0.0,K,-0.00,M,*70
$PSIWMVSD,000303.500,0.00,0.00,0.00,2,0.00,0.00,0.00,2,*0A
$GPGGA,005723.000,4910.32634,N,12304.20797,W,1,12,0.7,012.15,M,-16.8,M,,*5F
$GPRMC,005723.000,A,4910.32634,N,12304.20797,W,0.1,0.0,181018,,,A*7C
$GNGSA,A,3,03,31,18,23,22,14,01,32,26,25,11,19,1.2,0.7,1.0*2E
$GNGSA,A,3,,,,,,,,,,,,,1.2,0.7,1.0*29
$PSIWMPVT,183.820,349060.999,3,49.1721056,-123.0701328,12.150,-0.022,-0.021,-0.004,4.416,3.082,2.297,0.612,0.000,0.500,3.132,0.023,12,*29
$PSIWMPOS,000304.500,4910.32634,N,12304.20797,W,7.49,12.15,M,5.30,0,8,0,2,0,*54
$PSIWMATT,000304.500,360.0,T,0.0,-0.1,180.0,*55
$PSIWMVEL,000304.500,360.0,T,0.0,K,-0.00,M,*77
$PSIWMVSD,000304.500,0.00,0.00,0.00,2,0.00,0.00,0.00,2,*0D
$GPGGA,005724.000,4910.32650,N,12304.20818,W,1,12,0.7,012.08,M,-16.8,M,,*5E
$GPRMC,005724.000,A,4910.32650,N,12304.20818,W,0.1,0.0,181018,,,A*71
$GNGSA,A,3,03,31,18,23,22,14,01,32,26,25,11,19,1.2,0.7,1.0*2E
$GNGSA,A,3,,,,,,,,,,,,,1.2,0.7,1.0*29
$PSIWMPVT,184.820,349061.999,3,49.1721083,-123.0701364,12.076,-0.035,-0.022,-0.007,4.359,3.000,2.297,0.612,0.000,0.500,3.132,0.027,12,*2E
$PSIWMPOS,000305.500,4910.32650,N,12304.20818,W,7.40,12.08,M,5.23,0,8,0,2,0,*58
$PSIWMATT,000305.500,360.0,T,0.0,-0.1,180.0,*54
$PSIWMVEL,000305.500,360.0,T,0.0,K,-0.00,M,*76
$PSIWMVSD,000305.500,0.00,0.00,0.00,2,0.00,0.00,0.00,2,*0C
$GPGGA,005725.000,4910.32667,N,12304.20814,W,1,12,0.7,011.95,M,-16.8,M,,*50
$GPRMC,005725.000,A,4910.32667,N,12304.20814,W,0.1,0.0,181018,,,A*78
$GNGSA,A,3,03,31,18,23,22,14,01,32,26,25,11,19,1.2,0.7,1.0*2E
$GNGSA,A,3,,,,,,,,,,,,,1.2,0.7,1.0*29
$PSIWMPVT,185.820,349062.999,3,49.1721111,-123.0701357,11.947,-0.018,-0.034,-0.010,4.301,3.000,2.523,0.612,0.000,0.500,3.437,0.027,12,*25
$PSIWMPOS,000306.500,4910.32667,N,12304.20814,W,7.30,11.95,M,5.16,0,8,0,2,0,*55
$PSIWMATT,000306.500,360.0,T,0.1,-0.1,180.0,*56
$PSIWMVEL,000306.500,360.0,T,0.0,K,-0.00,M,*75
$PSIWMVSD,000306.500,0.00,0.00,0.00,2,0.00,0.00,0.00,2,*0F
$GPGGA,005726.000,4910.32664,N,12304.20808,W,1,12,0.7,012.00,M,-16.8,M,,*52
$GPRMC,005726.000,A,4910.32664,N,12304.20808,W,0.0,0.0,181018,,,A*74
$GNGSA,A,3,03,31,18,23,22,14,01,32,26,25,11,19,1.2,0.7,1.0*2E
$GNGSA,A,3,,,,,,,,,,,,,1.2,0.7,1.0*29
$PSIWMPVT,186.820,349063.999,3,49.1721107,-123.0701346,12.002,-0.014,-0.019,-0.015,4.301,3.000,2.316,0.612,0.000,0.500,3.155,0.023,12,*28
$PSIWMPOS,000307.500,4910.32664,N,12304.20808,W,7.30,12.00,M,5.16,0,8,0,2,0,*55
$PSIWMATT,000307.500,360.0,T,0.0,-0.1,180.0,*56
$PSIWMVEL,000307.500,360.0,T,0.0,K,-0.00,M,*74
$PSIWMVSD,000307.500,0.00,0.00,0.00,2,0.00,0.00,0.00,2,*0E
$GPGGA,005727.000,4910.32666,N,12304.20789,W,1,12,0.7,011.91,M,-16.8,M,,*5C
$GPRMC,005727.000,A,4910.32666,N,12304.20789,W,0.1,0.0,181018,,,A*70
$GNGSA,A,3,03,31,18,23,22,14,01,32,26,25,11,19,1.2,0.7,1.0*2E
$GNGSA,A,3,,,,,,,,,,,,,1.2,0.7,1.0*29
$PSIWMPVT,187.820,349065.000,3,49.1721110,-123.0701314,11.912,-0.008,-0.043,-0.018,4.243,3.000,2.570,0.612,0.000,0.500,3.503,0.027,12,*21
