$GPRMC,002543.000,A,4910.32440,N,12304.20522,W,0.1,0.0,181018,,,A*72
$GNGSA,A,3,25,18,19,22,03,31,11,17,14,23,01,32,1.2,0.6,1.0*2D
$GNGSA,A,3,77,69,79,78,,,,,,,,,1.2,0.6,1.0*26
$PSIWMPVT,10.000,347160.999,3,49.1720733,-123.0700871,10.574,0.014,-0.031,-0.036,8.972,4.416,1.180,0.354,0.000,0.000,8.269,0.043,16,*31
$GPGGA,002544.000,4910.32445,N,12304.20524,W,1,16,0.6,010.81,M,-16.8,M,,*5F
$GPRMC,002544.000,A,4910.32445,N,12304.20524,W,0.1,0.0,181018,,,A*76
$GNGSA,A,3,25,18,19,22,03,31,11,17,14,23,01,32,1.2,0.6,1.0*2D
$GNGSA,A,3,77,69,79,78,,,,,,,,,1.2,0.6,1.0*26
$PSIWMPVT,10.660,347161.999,3,49.1720741,-123.0700874,10.810,0.005,-0.042,-0.032,8.093,4.062,1.562,0.354,0.000,0.000,6.606,0.023,16,*33
$GPGGA,002545.000,4910.32434,N,12304.20540,W,1,16,0.6,010.78,M,-16.8,M,,*5C
$GPRMC,002545.000,A,4910.32434,N,12304.20540,W,0.1,0.0,181018,,,A*73
$GNGSA,A,3,25,18,19,22,03,31,11,17,14,23,01,32,1.2,0.6,1.0*2D
$GNGSA,A,3,77,69,79,78,,,,,,,,,1.2,0.6,1.0*26
$PSIWMPDR,0.000,0.0000000,0.0000000,0.000,-1010101.125000000,-1010101.125000000,0,0.000000000,0.000000000,0.000000000,0.00,0.000000000,0.000000000,0.000000000,0.000000000,-1010101.125000000,24,*15
$PSIWMPVT,11.660,347162.999,3,49.1720723,-123.0700900,10.778,0.002,-0.032,-0.026,7.416,3.808,1.840,0.354,0.000,0.000,4.665,0.023,16,*3C
$GPGGA,002546.000,4910.32436,N,12304.20548,W,1,16,0.6,011.22,M,-16.8,M,,*5B
$GPRMC,002546.000,A,4910.32436,N,12304.20548,W,0.1,0.0,181018,,,A*7A
$GNGSA,A,3,25,18,19,22,03,31,11,17,14,23,01,32,1.2,0.6,1.0*2D
$GNGSA,A,3,77,69,79,78,,,,,,,,,1.2,0.6,1.0*26
$PSIWMPVT,12.650,347163.999,3,49.1720726,-123.0700913,11.219,-0.005,-0.026,-0.014,6.892,3.674,2.684,0.354,0.000,0.000,4.741,0.020,16,*12
$PSIWMPOS,000012.700,4910.32436,N,12304.20548,W,9.75,11.22,M,6.89,0,8,0,2,0,*55
$PSIWMATT,000012.700,360.0,T,0.0,0.0,180.0,*7F
$PSIWMVEL,000012.700,360.0,T,0.0,K,-0.00,M,*71
$PSIWMVSD,000012.700,0.00,0.00,0.00,2,0.00,0.00,0.00,2,*0B
$GPGGA,002547.000,4910.32439,N,12304.20549,W,1,16,0.6,011.98,M,-16.8,M,,*55
$GPRMC,002547.000,A,4910.32439,N,12304.20549,W,0.1,0.0,181018,,,A*75
$GNGSA,A,3,25,18,19,22,03,31,11,17,14,23,01,32,1.2,0.6,1.0*2D
$GNGSA,A,3,77,69,79,78,,,,,,,,,1.2,0.6,1.0*26
$PSIWMPVT,13.690,347164.999,3,49.1720731,-123.0700915,11.980,-0.004,-0.047,-0.042,6.519,3.536,2.996,0.354,0.000,0.000,4.715,0.027,16,*17
$PSIWMPOS,000013.700,4910.32439,N,12304.20549,W,9.22,11.98,M,6.52,0,8,0,2,0,*5F
$PSIWMATT,000013.700,360.0,T,1.2,0.1,180.0,*7C
$PSIWMVEL,000013.700,360.0,T,0.2,K,0.04,M,*5B
$PSIWMVSD,000013.700,0.00,0.00,0.00,2,0.00,0.00,0.00,2,*0A
$GPGGA,002548.000,4910.32424,N,12304.20560,W,1,16,0.6,011.50,M,-16.8,M,,*59
$GPRMC,002548.000,A,4910.32424,N,12304.20560,W,0.1,0.0,181018,,,A*7D
$GNGSA,A,3,25,18,19,22,03,31,11,17,14,23,01,32,1.2,0.6,1.0*2D
$GNGSA,A,3,77,69,79,78,,,,,,,,,1.2,0.6,1.0*26
$PSIWMPVT,14.690,347166.000,3,49.1720706,-123.0700933,11.504,-0.007,-0.026,-0.030,6.205,3.464,2.117,0.354,0.000,0.000,3.332,0.027,16,*11
$PSIWMPOS,000014.700,4910.32424,N,12304.20560,W,8.77,11.50,M,6.20,0,8,0,2,0,*5F
$PSIWMATT,000014.700,360.0,T,1.2,0.1,180.0,*7B
$PSIWMVEL,000014.700,360.0,T,0.0,K,-0.00,M,*77
$PSIWMVSD,000014.700,0.00,0.00,0.00,2,0.00,0.00,0.00,2,*0D
$GPGGA,002549.000,4910.32414,N,12304.20570,W,1,16,0.6,011.39,M,-16.8,M,,*55
$GPRMC,002549.000,A,4910.32414,N,12304.20570,W,0.1,0.0,181018,,,A*7E
$GNGSA,A,3,25,18,19,22,03,31,11,17,14,23,01,32,1.2,0.6,1.0*2D
$GNGSA,A,3,77,69,79,78,,,,,,,,,1.2,0.6,1.0*26
$PSIWMPOS,000015.700,4910.32424,N,12304.20560,W,8.77,11.50,M,6.20,0,8,0,2,0,*5E
$PSIWMATT,000015.700,360.0,T,1.2,0.1,180.0,*7A
$PSIWMVEL,000015.700,360.0,T,0.0,K,-0.00,M,*76
$PSIWMVSD,000015.700,0.00,0.00,0.00,2,0.00,0.00,0.00,2,*0C
$PSIWMPVT,15.720,347167.000,3,49.1720690,-123.0700950,11.387,0.008,-0.043,-0.024,5.916,3.464,2.207,0.354,0.000,0.000,3.475,0.023,16,*31
$GPGGA,002550.000,4910.32412,N,12304.20579,W,1,17,0.6,011.40,M,-16.8,M,,*5D
$GPRMC,002550.000,A,4910.32412,N,12304.20579,W,0.1,0.0,181018,,,A*79
$GNGSA,A,3,25,18,19,22,03,31,11,17,14,23,01,32,1.2,0.6,1.0*2D
$GNGSA,A,3,67,77,69,79,78,,,,,,,,1.2,0.6,1.0*27
$PSIWMPOS,000016.700,4910.32414,N,12304.20570,W,10.04,11.39,M,7.10,0,8,0,2,0,*6F
$PSIWMATT,000016.700,360.0,T,1.4,0.2,180.0,*7C
$PSIWMVEL,000016.700,360.0,T,0.0,K,-0.00,M,*75
$PSIWMVSD,000016.700,0.00,0.00,0.00,2,0.00,0.00,0.00,2,*0F
$PSIWMPVT,16.720,347167.999,3,49.1720686,-123.0700964,11.404,0.005,-0.042,-0.015,5.745,3.464,1.469,0.354,0.000,0.000,7.003,0.031,17,*3F
$GPGGA,002551.000,4910.32419,N,12304.20599,W,1,18,0.6,011.89,M,-16.8,M,,*53
$GPRMC,002551.000,A,4910.32419,N,12304.20599,W,0.0,0.0,181018,,,A*7C
$GNGSA,A,3,25,18,19,22,03,31,11,17,14,23,01,32,1.1,0.6,0.9*26
$GNGSA,A,3,67,77,69,79,68,78,,,,,,,1.1,0.6,0.9*22
$PSIWMPOS,000017.700,4910.32412,N,12304.20579,W,9.75,11.40,M,6.89,0,8,0,2,0,*50
$PSIWMATT,000017.700,360.0,T,1.1,0.2,180.0,*78
$PSIWMVEL,000017.700,360.0,T,0.0,K,-0.00,M,*74
$PSIWMVSD,000017.700,0.00,0.00,0.00,2,0.00,0.00,0.00,2,*0E
$PSIWMPVT,17.730,347168.999,3,49.1720698,-123.0700998,11.891,-0.003,-0.009,-0.006,5.568,3.464,1.770,0.354,0.000,0.000,6.207,0.020,18,*14
$GPGGA,002552.000,4910.32429,N,12304.20598,W,1,18,0.6,011.87,M,-16.8,M,,*5C
$GPRMC,002552.000,A,4910.32429,N,12304.20598,W,0.1,0.0,181018,,,A*7C
$GNGSA,A,3,25,18,19,22,03,31,11,17,14,23,01,32,1.1,0.6,0.9*26
$GNGSA,A,3,67,77,69,79,68,78,,,,,,,1.1,0.6,0.9*22
$PSIWMPOS,000018.700,4910.32419,N,12304.20599,W,9.45,11.89,M,6.68,0,8,0,2,0,*53
$PSIWMATT,000018.700,360.0,T,1.1,0.1,180.0,*74
$PSIWMVEL,000018.700,360.0,T,0.0,K,-0.00,M,*7B
$PSIWMVSD,000018.700,0.00,0.00,0.00,2,0.00,0.00,0.00,2,*01
$PSIWMPVT,18.730,347170.000,3,49.1720714,-123.0700997,11.870,0.008,-0.037,-0.038,5.431,3.464,2.055,0.354,0.000,0.000,4.469,0.055,18,*38
$GPGGA,002553.000,4910.32433,N,12304.20598,W,1,18,0.6,011.75,M,-16.8,M,,*5B
$GPRMC,002553.000,A,4910.32433,N,12304.20598,W,0.0,0.0,181018,,,A*77
$GNGSA,A,3,25,18,19,22,03,31,11,17,14,23,01,32,1.1,0.6,0.9*26
$GNGSA,A,3,67,77,69,79,68,78,,,,,,,1.1,0.6,0.9*22
$PSIWMPOS,000019.700,4910.32429,N,12304.20598,W,9.22,11.87,M,6.52,0,8,0,2,0,*56
$PSIWMATT,000019.700,360.0,T,1.2,0.2,180.0,*75
$PSIWMVEL,000019.700,360.0,T,0.0,K,-0.00,M,*7A
$PSIWMVSD,000019.700,0.00,0.00,0.00,2,0.00,0.00,0.00,2,*00
$PSIWMPVT,19.730,347171.000,3,49.1720722,-123.0700997,11.751,-0.003,-0.016,-0.016,5.339,3.464,2.820,0.354,0.000,0.000,5.536,0.023,18,*16
$GPGGA,002554.000,4910.32436,N,12304.20601,W,1,18,0.6,011.25,M,-16.8,M,,*5F
$GPRMC,002554.000,A,4910.32436,N,12304.20601,W,0.0,0.0,181018,,,A*76
$GNGSA,A,3,25,18,19,22,03,31,11,17,14,23,01,32,1.1,0.6,0.9*26
$GNGSA,A,3,67,77,69,79,68,78,,,,,,,1.1,0.6,0.9*22
$PSIWMPOS,000020.700,4910.32433,N,12304.20598,W,9.06,11.75,M,6.41,0,8,0,2,0,*5E
$PSIWMATT,000020.700,360.0,T,1.1,0.2,180.0,*7C
$PSIWMVEL,000020.700,360.0,T,0.0,K,-0.00,M,*70
$PSIWMVSD,000020.700,0.00,0.00,0.00,2,0.00,0.00,0.00,2,*0A
$PSIWMPVT,20.730,347171.999,3,49.1720727,-123.0701002,11.251,0.000,-0.018,-0.013,5.196,3.391,2.316,0.354,0.000,0.000,4.238,0.133,18,*38
$GPGGA,002555.000,4910.32430,N,12304.20591,W,1,18,0.6,009.86,M,-16.8,M,,*52
$GPRMC,002555.000,A,4910.32430,N,12304.20591,W,0.1,0.0,181018,,,A*7A
$GNGSA,A,3,25,18,19,22,03,31,11,17,14,23,01,32,1.1,0.6,0.9*26
$GNGSA,A,3,67,77,69,79,68,78,,,,,,,1.1,0.6,0.9*22
$PSIWMPOS,000021.700,4910.32436,N,12304.20601,W,8.82,11.25,M,6.24,0,8,0,2,0,*52
$PSIWMATT,000021.700,360.0,T,1.1,0.2,180.0,*7D
$PSIWMVEL,000021.700,360.0,T,0.0,K,-0.00,M,*71
$PSIWMVSD,000021.700,0.00,0.00,0.00,2,0.00,0.00,0.00,2,*0B
$PSIWMPVT,21.730,347172.999,3,49.1720716,-123.0700985,9.855,0.012,-0.044,-0.028,5.148,3.391,3.414,0.354,0.000,0.000,5.655,0.109,18,*0A
$PSIWMPOS,000022.700,4910.32430,N,12304.20591,W,8.74,9.86,M,6.18,0,8,0,2,0,*6B
$PSIWMATT,000022.700,360.0,T,1.2,0.2,180.0,*7D
$PSIWMVEL,000022.700,360.0,T,0.0,K,-0.00,M,*72
$PSIWMVSD,000022.700,0.00,0.00,0.00,2,0.00,0.00,0.00,2,*08
$GPGGA,002556.000,4910.32425,N,12304.20586,W,1,18,0.6,009.13,M,-16.8,M,,*5F
$GPRMC,002556.000,A,4910.32425,N,12304.20586,W,0.0,0.0,181018,,,A*7A
$GNGSA,A,3,25,18,19,22,03,31,11,17,14,23,01,32,1.1,0.6,0.9*26
$GNGSA,A,3,67,77,69,79,68,78,,,,,,,1.1,0.6,0.9*22
$PSIWMPVT,22.730,347174.000,3,49.1720709,-123.0700976,9.127,0.002,-0.020,0.013,5.050,3.391,3.113,0.354,0.000,0.000,14.811,0.203,18,*13
$PSIWMPOS,000023.700,4910.32425,N,12304.20586,W,8.57,9.13,M,6.06,0,8,0,2,0,*6A
$PSIWMATT,000023.700,360.0,T,1.1,0.2,180.0,*7F
$PSIWMVEL,000023.700,360.0,T,0.0,K,-0.00,M,*73
$PSIWMVSD,000023.700,0.00,0.00,0.00,2,0.00,0.00,0.00,2,*09
$GPGGA,002557.000,4910.32438,N,12304.20600,W,1,17,0.6,008.54,M,-16.8,M,,*52
$GPRMC,002557.000,A,4910.32438,N,12304.20600,W,0.1,0.0,181018,,,A*7B
$GNGSA,A,3,25,18,19,03,31,11,17,14,23,01,32,,1.1,0.6,0.9*26
$GNGSA,A,3,67,77,69,79,68,78,,,,,,,1.1,0.6,0.9*22
$PSIWMPVT,23.730,347175.000,3,49.1720730,-123.0701000,8.538,0.004,-0.056,0.013,5.099,3.391,4.367,0.354,0.000,0.000,13.357,0.137,17,*1A
$GPGGA,002558.000,4910.32406,N,12304.20569,W,1,17,0.6,006.00,M,-16.8,M,,*53
$GPRMC,002558.000,A,4910.32406,N,12304.20569,W,0.0,0.0,181018,,,A*74
$GNGSA,A,3,25,18,19,03,31,11,17,14,23,01,32,,1.1,0.6,0.9*26
$GNGSA,A,3,67,77,69,79,68,78,,,,,,,1.1,0.6,0.9*22
$PSIWMPOS,000024.700,4910.32438,N,12304.20600,W,8.65,8.54,M,6.12,0,8,0,2,0,*6A
$PSIWMATT,000024.700,360.0,T,1.2,0.1,180.0,*78
$PSIWMVEL,000024.700,360.0,T,0.0,K,-0.00,M,*74
$PSIWMVSD,000024.700,0.00,0.00,0.00,2,0.00,0.00,0.00,2,*0E
$PSIWMPVT,24.730,347176.000,3,49.1720677,-123.0700948,6.001,-0.003,-0.019,-0.009,5.148,3.464,7.254,0.354,0.000,0.000,14.693,0.039,17,*19
$GPGGA,002559.000,4910.32378,N,12304.20573,W,1,17,0.6,003.22,M,-16.8,M,,*52
$GPRMC,002559.000,A,4910.32378,N,12304.20573,W,0.0,0.0,181018,,,A*70
$GNGSA,A,3,25,18,19,03,31,11,17,14,01,32,,,1.1,0.6,0.9*27
$GNGSA,A,3,67,77,84,69,79,68,78,,,,,,1.1,0.6,0.9*2E
$PSIWMPOS,000025.700,4910.32406,N,12304.20569,W,8.74,6.00,M,6.18,0,8,0,2,0,*6F
$PSIWMATT,000025.700,360.0,T,1.1,0.1,180.0,*7A
$PSIWMVEL,000025.700,360.0,T,0.0,K,-0.00,M,*75
$PSIWMVSD,000025.700,0.00,0.00,0.00,2,0.00,0.00,0.00,2,*0F
$PSIWMPVT,25.730,347176.999,3,49.1720630,-123.0700955,3.223,-0.002,0.005,-0.009,5.196,3.536,8.645,0.500,0.000,0.000,15.079,0.020,17,*3A
$GPGGA,002600.000,4910.32369,N,12304.20580,W,1,16,0.6,001.66,M,-16.8,M,,*52
$GPRMC,002600.000,A,4910.32369,N,12304.20580,W,0.0,0.0,181018,,,A*73
$GNGSA,A,3,25,18,19,03,31,11,17,14,01,32,,,1.1,0.6,0.9*27
$GNGSA,A,3,67,77,69,79,68,78,,,,,,,1.1,0.6,0.9*22
$PSIWMPOS,000026.700,4910.32378,N,12304.20573,W,8.82,3.22,M,6.24,0,8,0,2,0,*6A
$PSIWMATT,000026.700,360.0,T,1.1,0.1,180.0,*79
$PSIWMVEL,000026.700,360.0,T,0.0,K,-0.00,M,*76
$PSIWMVSD,000026.700,0.00,0.00,0.00,2,0.00,0.00,0.00,2,*0C
$PSIWMPVT,26.730,347178.000,3,49.1720615,-123.0700967,1.658,0.007,-0.023,-0.029,5.244,3.606,8.090,0.500,0.000,0.000,13.502,0.020,16,*3D
$GPGGA,002601.000,4910.32383,N,12304.20578,W,1,17,0.6,001.27,M,-16.8,M,,*54
$GPRMC,002601.000,A,4910.32383,N,12304.20578,W,0.1,0.0,181018,,,A*70
$GNGSA,A,3,25,18,19,22,03,31,11,17,14,23,01,32,1.1,0.6,0.9*26
$GNGSA,A,3,67,77,79,68,78,,,,,,,,1.1,0.6,0.9*2D
$PSIWMPOS,000027.700,4910.32369,N,12304.20580,W,8.90,1.66,M,6.29,0,8,0,2,0,*6B
$PSIWMATT,000027.700,360.0,T,1.1,0.2,180.0,*7B
$PSIWMVEL,000027.700,360.0,T,0.0,K,-0.00,M,*77
$PSIWMVSD,000027.700,0.00,0.00,0.00,2,0.00,0.00,0.00,2,*0D
$PSIWMPVT,27.730,347179.000,3,49.1720638,-123.0700963,1.274,0.015,-0.023,-0.011,5.148,3.606,7.387,0.354,0.000,0.000,12.349,0.031,17,*3F
$PSIWMPOS,000028.700,4910.32383,N,12304.20578,W,8.74,1.27,M,6.18,0,8,0,2,0,*6A
$PSIWMATT,000028.700,360.0,T,1.1,0.2,180.0,*74
$PSIWMVEL,000028.700,360.0,T,0.0,K,-0.00,M,*78
$PSIWMVSD,000028.700,0.00,0.00,0.00,2,0.00,0.00,0.00,2,*02
$GPGGA,002602.000,4910.32417,N,12304.20611,W,1,18,0.6,003.42,M,-16.8,M,,*5F
$GPRMC,002602.000,A,4910.32417,N,12304.20611,W,0.0,0.0,181018,,,A*74
$GNGSA,A,3,25,18,19,22,03,31,11,17,14,23,01,32,1.1,0.6,0.9*26
$GNGSA,A,3,67,77,69,79,68,78,,,,,,,1.1,0.6,0.9*22
$PSIWMPVT,28.730,347180.000,3,49.1720694,-123.0701019,3.421,-0.003,-0.018,-0.014,5.099,3.606,4.758,0.354,0.000,0.000,8.043,0.145,18,*21
$PSIWMPOS,000029.700,4910.32417,N,12304.20611,W,8.65,3.42,M,6.12,0,8,0,2,0,*66
$PSIWMATT,000029.700,360.0,T,1.1,0.2,180.0,*75
$PSIWMVEL,000029.700,360.0,T,0.0,K,-0.00,M,*79
$PSIWMVSD,000029.700,0.00,0.00,0.00,2,0.00,0.00,0.00,2,*03
$GPGGA,002603.000,4910.32440,N,12304.20636,W,1,19,0.6,004.02,M,-16.8,M,,*5B
$GPRMC,002603.000,A,4910.32440,N,12304.20636,W,0.0,0.0,181018,,,A*72
$GNGSA,A,3,25,18,19,22,03,31,11,17,14,23,01,32,1.1,0.6,0.9*26
$GNGSA,A,3,67,77,84,69,79,68,78,,,,,,1.1,0.6,0.9*2E
$PSIWMPVT,29.730,347180.999,3,49.1720733,-123.0701060,4.017,0.002,-0.016,-0.030,5.050,3.606,3.469,0.354,0.000,0.000,5.996,0.051,19,*03
$PSIWMPOS,000030.700,4910.32440,N,12304.20636,W,8.57,4.02,M,6.06,0,8,0,2,0,*6E
$PSIWMATT,000030.700,360.0,T,1.1,0.2,180.0,*7D
$PSIWMVEL,000030.700,360.0,T,0.0,K,-0.00,M,*71
$PSIWMVSD,000030.700,0.00,0.00,0.00,2,0.00,0.00,0.00,2,*0B
$GPGGA,002604.000,4910.32455,N,12304.20649,W,1,19,0.6,004.83,M,-16.8,M,,*59
$GPRMC,002604.000,A,4910.32455,N,12304.20649,W,0.0,0.0,181018,,,A*79
$GNGSA,A,3,25,18,19,22,03,31,11,17,14,23,01,32,1.1,0.6,0.9*26
$GNGSA,A,3,67,77,84,69,79,68,78,,,,,,1.1,0.6,0.9*2E
$PSIWMPVT,30.730,347182.000,3,49.1720758,-123.0701082,4.833,-0.005,-0.003,-0.015,5.000,3.606,3.305,0.354,0.000,0.000,5.942,0.195,19,*2E
$PSIWMPOS,000031.700,4910.32455,N,12304.20649,W,8.49,4.83,M,6.00,0,8,0,2,0,*63
$PSIWMATT,000031.700,360.0,T,1.1,0.2,180.0,*7C
$PSIWMVEL,000031.700,360.0,T,0.0,K,-0.00,M,*70
$PSIWMVSD,000031.700,0.00,0.00,0.00,2,0.00,0.00,0.00,2,*0A
$GPGGA,002605.000,4910.32463,N,12304.20656,W,1,19,0.6,004.44,M,-16.8,M,,*58
$GPRMC,002605.000,A,4910.32463,N,12304.20656,W,0.0,0.0,181018,,,A*73
$GNGSA,A,3,25,18,19,22,03,31,11,17,14,23,01,32,1.1,0.6,0.9*26
$GNGSA,A,3,67,77,84,69,79,68,78,,,,,,1.1,0.6,0.9*2E
$PSIWMPVT,31.730,347183.000,3,49.1720771,-123.0701093,4.442,-0.001,-0.007,-0.017,5.000,3.606,2.938,0.354,0.000,0.000,5.559,0.133,19,*22
$PSIWMPOS,000032.700,4910.32463,N,12304.20656,W,8.49,4.44,M,6.00,0,8,0,2,0,*60
$PSIWMATT,000032.700,360.0,T,1.1,0.2,180.0,*7F
$PSIWMVEL,000032.700,360.0,T,0.0,K,-0.00,M,*73
$PSIWMVSD,000032.700,0.00,0.00,0.00,2,0.00,0.00,0.00,2,*09
$GPGGA,002606.000,4910.32476,N,12304.20670,W,1,19,0.6,004.97,M,-16.8,M,,*55
$GPRMC,002606.000,A,4910.32476,N,12304.20670,W,0.0,0.0,181018,,,A*70
$GNGSA,A,3,25,18,19,22,03,31,11,17,14,23,01,32,1.1,0.6,0.9*26
$GNGSA,A,3,67,77,84,69,79,68,78,,,,,,1.1,0.6,0.9*2E
$PSIWMPVT,32.730,347184.000,3,49.1720793,-123.0701117,4.972,-0.004,-0.013,-0.023,5.000,3.674,2.836,0.354,0.000,0.000,5.067,0.078,19,*22
$GPGGA,002607.000,4910.32483,N,12304.20676,W,1,19,0.6,005.15,M,-16.8,M,,*53
$GPRMC,002607.000,A,4910.32483,N,12304.20676,W,0.0,0.0,181018,,,A*7D
$GNGSA,A,3,25,18,19,22,03,31,11,17,14,23,01,32,1.1,0.6,0.9*26
$GNGSA,A,3,67,77,84,69,79,68,78,,,,,,1.1,0.6,0.9*2E
$PSIWMPOS,000033.700,4910.32476,N,12304.20670,W,8.49,4.97,M,6.00,0,8,0,2,0,*6F
$PSIWMATT,000033.700,360.0,T,1.1,0.1,180.0,*7D
$PSIWMVEL,000033.700,360.0,T,0.0,K,-0.00,M,*72
$PSIWMVSD,000033.700,0.00,0.00,0.00,2,0.00,0.00,0.00,2,*08
$PSIWMPVT,33.730,347185.000,3,49.1720805,-123.0701126,5.149,-0.006,0.001,0.003,5.000,3.742,2.672,0.354,0.000,0.000,6.133,0.043,19,*23
$PSIWMPOS,000034.700,4910.32483,N,12304.20676,W,8.49,5.15,M,6.00,0,8,0,2,0,*6F
$PSIWMATT,000034.700,360.0,T,1.1,0.1,180.0,*7A
$PSIWMVEL,000034.700,360.0,T,0.0,K,-0.00,M,*75
$PSIWMVSD,000034.700,0.00,0.00,0.00,2,0.00,0.00,0.00,2,*0F
$GPGGA,002608.000,4910.32487,N,12304.20681,W,1,18,0.6,005.54,M,-16.8,M,,*54
$GPRMC,002608.000,A,4910.32487,N,12304.20681,W,0.0,0.0,181018,,,A*7E
$GNGSA,A,3,25,18,19,22,03,31,11,17,14,23,01,32,1.1,0.6,0.9*26
$GNGSA,A,3,67,77,69,79,68,78,,,,,,,1.1,0.6,0.9*22
$PSIWMPVT,34.730,347186.000,3,49.1720811,-123.0701134,5.539,0.002,-0.006,0.008,5.000,3.742,2.957,0.354,0.000,0.000,5.680,0.254,18,*2B
$PSIWMPOS,000035.700,4910.32487,N,12304.20681,W,8.49,5.54,M,6.00,0,8,0,2,0,*67
$PSIWMATT,000035.700,360.0,T,1.1,0.1,180.0,*7B
$PSIWMVEL,000035.700,360.0,T,0.0,K,-0.00,M,*74
$PSIWMVSD,000035.700,0.00,0.00,0.00,2,0.00,0.00,0.00,2,*0E
$GPGGA,002609.000,4910.32503,N,12304.20698,W,1,18,0.6,006.54,M,-16.8,M,,*53
$GPRMC,002609.000,A,4910.32503,N,12304.20698,W,0.0,0.0,181018,,,A*7A
$GNGSA,A,3,25,18,19,22,03,31,11,17,14,23,01,32,1.1,0.6,0.9*26
$GNGSA,A,3,67,77,69,79,68,78,,,,,,,1.1,0.6,0.9*22
$PSIWMPVT,35.730,347187.000,3,49.1720838,-123.0701163,6.535,-0.002,-0.008,0.012,5.000,3.742,3.461,0.354,0.000,0.000,6.641,0.281,18,*0A
$GPGGA,002610.000,4910.32509,N,12304.20721,W,1,18,0.6,006.98,M,-16.8,M,,*52
$GPRMC,002610.000,A,4910.32509,N,12304.20721,W,0.1,0.0,181018,,,A*7A
$GNGSA,A,3,25,18,19,22,03,31,11,17,14,23,01,32,1.1,0.6,0.9*26
$GNGSA,A,3,67,77,69,79,68,78,,,,,,,1.1,0.6,0.9*22
$PSIWMPOS,000036.700,4910.32503,N,12304.20698,W,8.49,6.54,M,6.00,0,8,0,2,0,*62
$PSIWMATT,000036.700,360.0,T,1.1,0.1,180.0,*78
$PSIWMVEL,000036.700,360.0,T,0.0,K,-0.00,M,*77
$PSIWMVSD,000036.700,0.00,0.00,0.00,2,0.00,0.00,0.00,2,*0D
$PSIWMPVT,36.730,347188.000,3,49.1720848,-123.0701201,6.985,0.001,-0.034,0.022,5.000,3.808,2.926,0.354,0.000,0.000,8.223,0.238,18,*21
$PSIWMPOS,000037.700,4910.32509,N,12304.20721,W,8.49,6.98,M,6.00,0,8,0,2,0,*6A
$PSIWMATT,000037.700,360.0,T,1.1,0.1,180.0,*79
$PSIWMVEL,000037.700,360.0,T,0.0,K,-0.00,M,*76
$PSIWMVSD,000037.700,0.00,0.00,0.00,2,0.00,0.00,0.00,2,*0C
$GPGGA,002611.000,4910.32517,N,12304.20734,W,1,18,0.6,007.05,M,-16.8,M,,*5D
$GPRMC,002611.000,A,4910.32517,N,12304.20734,W,0.0,0.0,181018,,,A*71
$GNGSA,A,3,25,18,19,22,03,31,11,17,14,23,01,32,1.1,0.6,0.9*26
$GNGSA,A,3,67,77,69,79,68,78,,,,,,,1.1,0.6,0.9*22
$PSIWMPVT,37.730,347189.000,3,49.1720862,-123.0701224,7.051,-0.000,-0.018,0.012,5.000,3.808,2.504,0.354,0.000,0.000,9.893,0.203,18,*0A
$PSIWMPOS,000038.700,4910.32517,N,12304.20734,W,8.49,7.05,M,6.00,0,8,0,2,0,*6B
$PSIWMATT,000038.700,360.0,T,1.1,0.1,180.0,*76
$PSIWMVEL,000038.700,360.0,T,0.0,K,-0.00,M,*79
$PSIWMVSD,000038.700,0.00,0.00,0.00,2,0.00,0.00,0.00,2,*03
$GPGGA,002612.000,4910.32514,N,12304.20736,W,1,18,0.6,006.86,M,-16.8,M,,*55
$GPRMC,002612.000,A,4910.32514,N,12304.20736,W,0.0,0.0,181018,,,A*73
$GNGSA,A,3,25,18,19,22,03,31,11,17,14,23,01,32,1.1,0.6,0.9*26
$GNGSA,A,3,67,77,69,79,68,78,,,,,,,1.1,0.6,0.9*22
$PSIWMPVT,38.730,347190.000,3,49.1720856,-123.0701227,6.865,-0.011,-0.013,0.027,5.050,3.808,2.840,0.354,0.000,0.000,12.715,0.207,18,*3D
$GPGGA,002613.000,4910.32525,N,12304.20742,W,1,18,0.6,007.45,M,-16.8,M,,*5B
$GPRMC,002613.000,A,4910.32525,N,12304.20742,W,0.1,0.0,181018,,,A*72
$GNGSA,A,3,25,18,19,22,03,31,11,17,14,23,01,32,1.1,0.6,0.9*26
$GNGSA,A,3,67,77,69,79,68,78,,,,,,,1.1,0.6,0.9*22
$PSIWMPOS,000039.700,4910.32514,N,12304.20736,W,8.57,6.86,M,6.06,0,8,0,2,0,*68
$PSIWMATT,000039.700,360.0,T,1.1,0.1,180.0,*77
$PSIWMVEL,000039.700,360.0,T,0.0,K,-0.00,M,*78
$PSIWMVSD,000039.700,0.00,0.00,0.00,2,0.00,0.00,0.00,2,*02
$PSIWMPVT,39.730,347191.000,3,49.1720874,-123.0701237,7.445,0.001,-0.031,0.008,5.000,3.742,3.426,0.354,0.000,0.000,5.629,0.023,18,*27
$GPGGA,002614.000,4910.32533,N,12304.20747,W,1,18,0.6,007.59,M,-16.8,M,,*53
$GPRMC,002614.000,A,4910.32533,N,12304.20747,W,0.1,0.0,181018,,,A*77
$GNGSA,A,3,25,18,19,22,03,31,11,17,14,23,01,32,1.1,0.6,0.9*26
$GNGSA,A,3,67,77,69,79,68,78,,,,,,,1.1,0.6,0.9*22
$PSIWMPOS,000040.700,4910.32525,N,12304.20742,W,8.49,7.45,M,6.00,0,8,0,2,0,*60
$PSIWMATT,000040.700,360.0,T,1.1,0.1,180.0,*79
$PSIWMVEL,000040.700,360.0,T,0.0,K,-0.00,M,*76
$PSIWMVSD,000040.700,0.00,0.00,0.00,2,0.00,0.00,0.00,2,*0C
$PSIWMPVT,40.730,347191.999,3,49.1720888,-123.0701246,7.593,-0.012,-0.033,-0.019,4.950,3.742,2.758,0.354,0.000,0.000,9.553,0.234,18,*2F
$PSIWMPOS,000041.700,4910.32533,N,12304.20747,W,8.40,7.59,M,5.94,0,8,0,2,0,*69
$PSIWMATT,000041.700,360.0,T,1.1,0.1,180.0,*78
$PSIWMVEL,000041.700,360.0,T,0.0,K,-0.00,M,*77
$PSIWMVSD,000041.700,0.00,0.00,0.00,2,0.00,0.00,0.00,2,*0D
$GPGGA,002615.000,4910.32544,N,12304.20758,W,1,18,0.6,007.87,M,-16.8,M,,*5F
$GPRMC,002615.000,A,4910.32544,N,12304.20758,W,0.0,0.0,181018,,,A*79
$GNGSA,A,3,25,18,19,22,03,31,11,17,14,23,01,32,1.1,0.6,0.9*26
$GNGSA,A,3,67,77,69,79,68,78,,,,,,,1.1,0.6,0.9*22
$PSIWMPVT,41.730,347193.000,3,49.1720906,-123.0701263,7.872,0.003,-0.024,-0.015,4.899,3.674,3.645,0.354,0.000,0.000,9.610,0.406,18,*0F
$PSIWMPOS,000042.700,4910.32544,N,12304.20758,W,8.31,7.87,M,5.88,0,8,0,2,0,*6C
$PSIWMATT,000042.700,360.0,T,1.1,0.1,180.0,*7B
$PSIWMVEL,000042.700,360.0,T,0.0,K,-0.00,M,*74
$PSIWMVSD,000042.700,0.00,0.00,0.00,2,0.00,0.00,0.00,2,*0E
$GPGGA,002616.000,4910.32540,N,12304.20747,W,1,18,0.6,007.32,M,-16.8,M,,*58
$GPRMC,002616.000,A,4910.32540,N,12304.20747,W,0.0,0.0,181018,,,A*70
$GNGSA,A,3,25,18,19,22,03,31,11,17,14,23,01,32,1.1,0.6,0.9*26
$GNGSA,A,3,67,77,69,79,68,78,,,,,,,1.1,0.6,0.9*22
$PSIWMPVT,42.730,347193.999,3,49.1720900,-123.0701244,7.317,-0.003,-0.021,-0.017,4.848,3.606,2.938,0.354,0.000,0.000,9.116,0.281,18,*21
$PSIWMPOS,000043.700,4910.32540,N,12304.20747,W,8.23,7.32,M,5.82,0,8,0,2,0,*60
$PSIWMATT,000043.700,360.0,T,1.1,0.1,180.0,*7A
$PSIWMVEL,000043.700,360.0,T,0.0,K,-0.00,M,*75
$PSIWMVSD,000043.700,0.00,0.00,0.00,2,0.00,0.00,0.00,2,*0F
$GPGGA,002617.000,4910.32499,N,12304.20686,W,1,19,0.6,003.66,M,-16.8,M,,*54
$GPRMC,002617.000,A,4910.32499,N,12304.20686,W,0.0,0.0,181018,,,A*78
$GNGSA,A,3,25,18,19,22,03,31,11,17,14,23,01,32,1.1,0.6,0.9*26
$GNGSA,A,3,67,77,84,69,79,68,78,,,,,,1.1,0.6,0.9*2E
$PSIWMPVT,43.730,347194.999,3,49.1720832,-123.0701143,3.662,-0.001,-0.007,0.006,4.848,3.606,6.660,0.354,0.000,0.000,13.252,0.051,19,*3B
$PSIWMPOS,000044.700,4910.32499,N,12304.20686,W,8.23,3.66,M,5.82,0,8,0,2,0,*6B
$PSIWMATT,000044.700,360.0,T,1.1,0.1,180.0,*7D
$PSIWMVEL,000044.700,360.0,T,0.0,K,-0.00,M,*72
$PSIWMVSD,000044.700,0.00,0.00,0.00,2,0.00,0.00,0.00,2,*08
$GPGGA,002618.000,4910.32487,N,12304.20678,W,1,18,0.6,002.89,M,-16.8,M,,*54
$GPRMC,002618.000,A,4910.32487,N,12304.20678,W,0.0,0.0,181018,,,A*79
$GNGSA,A,3,25,18,19,22,03,31,11,17,14,23,01,32,1.1,0.6,0.9*26
$GNGSA,A,3,67,77,69,79,68,78,,,,,,,1.1,0.6,0.9*22
$PSIWMPVT,44.730,347195.999,3,49.1720812,-123.0701130,2.894,0.008,-0.014,0.002,4.848,3.606,6.645,0.354,0.000,0.000,12.614,0.023,18,*1B
$PSIWMPOS,000045.700,4910.32487,N,12304.20678,W,8.23,2.89,M,5.82,0,8,0,2,0,*64
$PSIWMATT,000045.700,360.0,T,1.1,0.1,180.0,*7C
$PSIWMVEL,000045.700,360.0,T,0.0,K,-0.00,M,*73
$PSIWMVSD,000045.700,0.00,0.00,0.00,2,0.00,0.00,0.00,2,*09
$GPGGA,002619.000,4910.32487,N,12304.20676,W,1,16,0.6,002.02,M,-16.8,M,,*56
$GPRMC,002619.000,A,4910.32487,N,12304.20676,W,0.0,0.0,181018,,,A*76
$GNGSA,A,3,25,18,03,31,11,17,14,23,01,32,,,1.1,0.6,0.9*2E
$GNGSA,A,3,67,77,69,79,68,78,,,,,,,1.1,0.6,0.9*22
$PSIWMPVT,45.730,347197.000,3,49.1720812,-123.0701126,2.018,-0.001,0.010,-0.014,4.950,3.674,6.816,0.354,0.000,0.000,11.913,0.020,16,*3E
$GPGGA,002620.000,4910.32479,N,12304.20676,W,1,16,0.6,000.44,M,-16.8,M,,*5D
$GPRMC,002620.000,A,4910.32479,N,12304.20676,W,0.0,0.0,181018,,,A*7D
$GNGSA,A,3,25,18,22,03,31,17,14,23,01,32,,,1.1,0.6,0.9*2E
$GNGSA,A,3,67,77,69,79,68,78,,,,,,,1.1,0.6,0.9*22
$PSIWMPOS,000046.700,4910.32487,N,12304.20676,W,8.40,2.02,M,5.94,0,8,0,2,0,*68
$PSIWMATT,000046.700,360.0,T,1.1,0.1,180.0,*7F
$PSIWMVEL,000046.700,360.0,T,0.0,K,-0.00,M,*70
$PSIWMVSD,000046.700,0.00,0.00,0.00,2,0.00,0.00,0.00,2,*0A
$PSIWMPVT,46.730,347197.999,3,49.1720798,-123.0701127,0.437,0.002,-0.016,0.012,4.899,3.674,7.617,0.354,0.000,0.000,13.288,0.020,16,*1C
$GPGGA,002621.000,4910.32464,N,12304.20671,W,1,16,0.6,000.16,M,-16.8,M,,*50
$GPRMC,002621.000,A,4910.32464,N,12304.20671,W,0.0,0.0,181018,,,A*77
$GNGSA,A,3,25,18,19,22,03,31,17,14,23,01,32,,1.1,0.6,0.9*26
$GNGSA,A,3,77,69,79,68,78,,,,,,,,1.1,0.6,0.9*23
$PSIWMPOS,000047.700,4910.32479,N,12304.20676,W,8.31,0.44,M,5.88,0,8,0,2,0,*63
$PSIWMATT,000047.700,360.0,T,1.2,0.1,180.0,*7D
$PSIWMVEL,000047.700,360.0,T,0.0,K,-0.00,M,*71
$PSIWMVSD,000047.700,0.00,0.00,0.00,2,0.00,0.00,0.00,2,*0B
$PSIWMPVT,47.730,347198.999,3,49.1720773,-123.0701118,0.164,-0.001,-0.011,0.014,4.899,3.674,7.430,0.354,0.000,0.000,12.707,0.012,16,*32
$GPGGA,002622.000,4910.32490,N,12304.20681,W,1,17,0.6,001.96,M,-16.8,M,,*5F
$GPRMC,002622.000,A,4910.32490,N,12304.20681,W,0.0,0.0,181018,,,A*70
$GNGSA,A,3,25,18,19,22,03,31,11,17,14,23,01,32,1.1,0.6,0.9*26
$GNGSA,A,3,67,77,69,79,78,,,,,,,,1.1,0.6,0.9*2C
$PSIWMPOS,000048.700,4910.32464,N,12304.20671,W,8.31,0.16,M,5.88,0,8,0,2,0,*60
$PSIWMATT,000048.700,360.0,T,1.2,0.1,180.0,*72
$PSIWMVEL,000048.700,360.0,T,0.0,K,-0.00,M,*7E
$PSIWMVSD,000048.700,0.00,0.00,0.00,2,0.00,0.00,0.00,2,*04
$PSIWMPVT,48.730,347199.999,3,49.1720817,-123.0701135,1.963,-0.005,-0.020,0.017,4.848,3.606,6.984,0.354,0.000,0.000,11.768,0.047,17,*34
$PSIWMPOS,000049.700,4910.32490,N,12304.20681,W,8.23,1.96,M,5.82,0,8,0,2,0,*65
$PSIWMATT,000049.700,360.0,T,1.2,0.2,180.0,*70
$PSIWMVEL,000049.700,360.0,T,0.0,K,-0.00,M,*7F
$PSIWMVSD,000049.700,0.00,0.00,0.00,2,0.00,0.00,0.00,2,*05
$GPGGA,002623.000,4910.32507,N,12304.20688,W,1,18,0.6,003.16,M,-16.8,M,,*5D
$GPRMC,002623.000,A,4910.32507,N,12304.20688,W,0.0,0.0,181018,,,A*77
$GNGSA,A,3,25,18,19,22,03,31,11,17,14,23,01,32,1.1,0.6,0.9*26
$GNGSA,A,3,67,77,69,79,68,78,,,,,,,1.1,0.6,0.9*22
$PSIWMPVT,49.730,347201.000,3,49.1720845,-123.0701146,3.164,-0.001,-0.012,0.023,4.848,3.606,6.699,0.354,0.000,0.000,11.859,0.098,18,*31
$PSIWMPOS,000050.700,4910.32507,N,12304.20688,W,8.23,3.16,M,5.82,0,8,0,2,0,*61
$PSIWMATT,000050.700,360.0,T,1.2,0.2,180.0,*78
$PSIWMVEL,000050.700,360.0,T,0.0,K,-0.00,M,*77
$PSIWMVSD,000050.700,0.00,0.00,0.00,2,0.00,0.00,0.00,2,*0D
$GPGGA,002624.000,4910.32502,N,12304.20678,W,1,18,0.6,003.70,M,-16.8,M,,*50
$GPRMC,002624.000,A,4910.32502,N,12304.20678,W,0.0,0.0,181018,,,A*7A
$GNGSA,A,3,25,18,19,22,03,31,11,17,14,23,01,32,1.1,0.6,0.9*26
$GNGSA,A,3,67,77,69,79,68,78,,,,,,,1.1,0.6,0.9*22
$PSIWMPVT,50.730,347202.000,3,49.1720837,-123.0701130,3.701,-0.005,-0.012,0.034,4.796,3.536,6.562,0.354,0.000,0.000,12.504,0.289,18,*36
$GPGGA,002625.000,4910.32500,N,12304.20684,W,1,18,0.6,003.96,M,-16.8,M,,*58
$GPRMC,002625.000,A,4910.32500,N,12304.20684,W,0.0,0.0,181018,,,A*7A
$GNGSA,A,3,25,18,19,22,03,31,11,17,14,23,01,32,1.1,0.6,0.9*26
$GNGSA,A,3,67,77,69,79,68,78,,,,,,,1.1,0.6,0.9*22
$PSIWMPOS,000051.700,4910.32502,N,12304.20678,W,8.14,3.70,M,5.75,0,8,0,2,0,*66
$PSIWMATT,000051.700,360.0,T,1.2,0.2,180.0,*79
$PSIWMVEL,000051.700,360.0,T,0.0,K,-0.00,M,*76
$PSIWMVSD,000051.700,0.00,0.00,0.00,2,0.00,0.00,0.00,2,*0C
$PSIWMPVT,51.730,347202.999,3,49.1720833,-123.0701141,3.958,-0.009,-0.020,0.029,4.796,3.536,3.488,0.354,0.000,0.000,5.700,0.020,18,*0E
$PSIWMPOS,000052.700,4910.32500,N,12304.20684,W,8.14,3.96,M,5.75,0,8,0,2,0,*6C
$PSIWMATT,000052.700,360.0,T,1.2,0.1,180.0,*79
$PSIWMVEL,000052.700,360.0,T,0.0,K,-0.00,M,*75
$PSIWMVSD,000052.700,0.00,0.00,0.00,2,0.00,0.00,0.00,2,*0F
$GPGGA,002626.000,4910.32497,N,12304.20688,W,1,18,0.6,004.19,M,-16.8,M,,*58
$GPRMC,002626.000,A,4910.32497,N,12304.20688,W,0.0,0.0,181018,,,A*7A
$GNGSA,A,3,25,18,19,22,03,31,11,17,14,23,01,32,1.1,0.6,0.9*26
$GNGSA,A,3,67,77,69,79,68,78,,,,,,,1.1,0.6,0.9*22
$PSIWMPVT,52.730,347203.999,3,49.1720829,-123.0701146,4.189,0.006,-0.021,0.009,4.796,3.536,5.934,0.354,0.000,0.000,15.354,0.156,18,*1A
$PSIWMPOS,000053.700,4910.32497,N,12304.20688,W,8.14,4.19,M,5.75,0,8,0,2,0,*6E
$PSIWMATT,000053.700,360.0,T,1.2,0.1,180.0,*78
$PSIWMVEL,000053.700,360.0,T,0.0,K,-0.00,M,*74
$PSIWMVSD,000053.700,0.00,0.00,0.00,2,0.00,0.00,0.00,2,*0E
$GPGGA,002627.000,4910.32500,N,12304.20688,W,1,18,0.6,004.45,M,-16.8,M,,*5F
$GPRMC,002627.000,A,4910.32500,N,12304.20688,W,0.1,0.0,181018,,,A*75
$GNGSA,A,3,25,18,19,22,03,31,11,17,14,23,01,32,1.1,0.6,0.9*26
$GNGSA,A,3,67,77,69,79,68,78,,,,,,,1.1,0.6,0.9*22
$PSIWMPVT,53.730,347205.000,3,49.1720833,-123.0701146,4.452,-0.004,-0.029,-0.006,4.743,3.536,5.566,0.354,0.000,0.000,14.290,0.074,18,*13
$PSIWMPOS,000054.700,4910.32500,N,12304.20688,W,8.05,4.45,M,5.69,0,8,0,2,0,*62
$PSIWMATT,000054.700,360.0,T,1.2,0.1,180.0,*7F
$PSIWMVEL,000054.700,360.0,T,0.0,K,-0.00,M,*73
$PSIWMVSD,000054.700,0.00,0.00,0.00,2,0.00,0.00,0.00,2,*09
$GPGGA,002628.000,4910.32488,N,12304.20683,W,1,18,0.6,004.04,M,-16.8,M,,*5F
$GPRMC,002628.000,A,4910.32488,N,12304.20683,W,0.0,0.0,181018,,,A*71
$GNGSA,A,3,25,18,19,22,03,31,11,17,14,23,01,32,1.1,0.6,0.9*26
$GNGSA,A,3,67,77,69,79,68,78,,,,,,,1.1,0.6,0.9*22
$PSIWMPVT,54.730,347206.000,3,49.1720813,-123.0701138,4.036,-0.004,-0.014,0.002,4.743,3.536,6.207,0.354,0.000,0.000,15.789,0.031,18,*33
$PSIWMPOS,000055.700,4910.32488,N,12304.20683,W,8.05,4.04,M,5.69,0,8,0,2,0,*6C
$PSIWMATT,000055.700,360.0,T,1.2,0.1,180.0,*7E
$PSIWMVEL,000055.700,360.0,T,0.0,K,-0.00,M,*72
$PSIWMVSD,000055.700,0.00,0.00,0.00,2,0.00,0.00,0.00,2,*08
$GPGGA,002629.000,4910.32486,N,12304.20694,W,1,17,0.6,004.73,M,-16.8,M,,*59
$GPRMC,002629.000,A,4910.32486,N,12304.20694,W,0.0,0.0,181018,,,A*78
$GNGSA,A,3,25,18,19,22,03,31,11,17,14,23,01,32,1.1,0.6,0.9*26
$GNGSA,A,3,67,77,79,68,78,,,,,,,,1.1,0.6,0.9*2D
$PSIWMPVT,55.730,347206.999,3,49.1720811,-123.0701156,4.727,-0.008,-0.020,0.019,4.743,3.536,5.797,0.354,0.000,0.000,14.678,0.039,17,*31
$PSIWMPOS,000056.700,4910.32486,N,12304.20694,W,8.05,4.73,M,5.69,0,8,0,2,0,*67
$PSIWMATT,000056.700,360.0,T,1.2,0.1,180.0,*7D
$PSIWMVEL,000056.700,360.0,T,0.0,K,-0.00,M,*71
$PSIWMVSD,000056.700,0.00,0.00,0.00,2,0.00,0.00,0.00,2,*0B
$GPGGA,002630.000,4910.32495,N,12304.20698,W,1,17,0.6,005.90,M,-16.8,M,,*53
$GPRMC,002630.000,A,4910.32495,N,12304.20698,W,0.0,0.0,181018,,,A*7E
$GNGSA,A,3,25,18,19,22,03,31,11,17,14,23,01,32,1.1,0.6,0.9*26
$GNGSA,A,3,67,77,79,68,78,,,,,,,,1.1,0.6,0.9*2D
$PSIWMPVT,56.730,347207.999,3,49.1720825,-123.0701163,5.901,-0.009,-0.016,0.016,4.796,3.606,5.066,0.354,0.000,0.000,12.200,0.117,17,*33
$PSIWMPOS,000057.700,4910.32495,N,12304.20698,W,8.14,5.90,M,5.75,0,8,0,2,0,*69
$PSIWMATT,000057.700,360.0,T,1.2,0.1,180.0,*7C
$PSIWMVEL,000057.700,360.0,T,0.0,K,-0.00,M,*70
$PSIWMVSD,000057.700,0.00,0.00,0.00,2,0.00,0.00,0.00,2,*0A
$GPGGA,002631.000,4910.32501,N,12304.20700,W,1,17,0.6,006.17,M,-16.8,M,,*52
$GPRMC,002631.000,A,4910.32501,N,12304.20700,W,0.0,0.0,181018,,,A*73
$GNGSA,A,3,25,18,19,22,03,31,11,17,14,23,01,32,1.1,0.6,0.9*26
$GNGSA,A,3,67,77,79,68,78,,,,,,,,1.1,0.6,0.9*2D
$PSIWMPVT,57.730,347209.000,3,49.1720835,-123.0701166,6.168,-0.001,-0.014,0.041,4.743,3.606,6.000,0.354,0.000,0.000,12.569,0.078,17,*36
$PSIWMPOS,000058.700,4910.32501,N,12304.20700,W,8.05,6.17,M,5.69,0,8,0,2,0,*6B
$PSIWMATT,000058.700,360.0,T,1.2,0.1,180.0,*73
$PSIWMVEL,000058.700,360.0,T,0.0,K,-0.00,M,*7F
$PSIWMVSD,000058.700,0.00,0.00,0.00,2,0.00,0.00,0.00,2,*05
$GPGGA,002632.000,4910.32483,N,12304.20661,W,1,17,0.6,005.01,M,-16.8,M,,*58
$GPRMC,002632.000,A,4910.32483,N,12304.20661,W,0.0,0.0,181018,,,A*7D
$GNGSA,A,3,25,18,19,22,03,31,11,17,14,23,01,32,1.1,0.6,0.9*26
$GNGSA,A,3,67,77,79,68,78,,,,,,,,1.1,0.6,0.9*2D
$PSIWMPVT,58.730,347210.000,3,49.1720804,-123.0701101,5.011,0.002,-0.016,0.016,4.743,3.536,6.918,0.354,0.000,0.000,14.385,0.180,17,*14
$PSIWMPOS,000059.700,4910.32483,N,12304.20661,W,8.05,5.01,M,5.69,0,8,0,2,0,*63
$PSIWMATT,000059.700,360.0,T,1.2,0.1,180.0,*72
$PSIWMVEL,000059.700,360.0,T,0.0,K,-0.00,M,*7E
$PSIWMVSD,000059.700,0.00,0.00,0.00,2,0.00,0.00,0.00,2,*04
$GPGGA,002633.000,4910.32464,N,12304.20618,W,1,17,0.6,004.55,M,-16.8,M,,*5E
$GPRMC,002633.000,A,4910.32464,N,12304.20618,W,0.0,0.0,181018,,,A*7B
$GNGSA,A,3,25,18,19,22,03,31,11,17,14,23,01,32,1.1,0.6,0.9*26
$GNGSA,A,3,67,77,79,68,78,,,,,,,,1.1,0.6,0.9*2D
$PSIWMPVT,59.730,347211.000,3,49.1720774,-123.0701030,4.552,-0.011,-0.010,0.027,4.743,3.536,6.719,0.354,0.000,0.000,13.939,0.066,17,*3B
$PSIWMPOS,000100.700,4910.32464,N,12304.20618,W,8.05,4.55,M,5.69,0,8,0,2,0,*69
$PSIWMATT,000100.700,360.0,T,1.2,0.1,180.0,*7F
$PSIWMVEL,000100.700,360.0,T,0.0,K,-0.00,M,*73
$PSIWMVSD,000100.700,0.00,0.00,0.00,2,0.00,0.00,0.00,2,*09
$GPGGA,002634.000,4910.32441,N,12304.20577,W,1,17,0.6,003.02,M,-16.8,M,,*51
$GPRMC,002634.000,A,4910.32441,N,12304.20577,W,0.0,0.0,181018,,,A*71
$GNGSA,A,3,25,18,19,03,31,11,17,14,23,01,32,,1.1,0.6,0.9*26
$GNGSA,A,3,67,77,69,79,68,78,,,,,,,1.1,0.6,0.9*22
$PSIWMPVT,60.730,347211.999,3,49.1720735,-123.0700962,3.015,-0.004,-0.000,0.008,4.848,3.606,7.734,0.354,0.000,0.000,14.130,0.070,17,*30
$PSIWMPOS,000101.700,4910.32441,N,12304.20577,W,8.23,3.02,M,5.82,0,8,0,2,0,*61
$PSIWMATT,000101.700,360.0,T,1.1,0.1,180.0,*7D
$PSIWMVEL,000101.700,360.0,T,0.0,K,-0.00,M,*72
$PSIWMVSD,000101.700,0.00,0.00,0.00,2,0.00,0.00,0.00,2,*08
$GPGGA,002635.000,4910.32448,N,12304.20616,W,1,18,0.6,004.15,M,-16.8,M,,*53
$GPRMC,002635.000,A,4910.32448,N,12304.20616,W,0.0,0.0,181018,,,A*7D
$GNGSA,A,3,25,18,19,22,03,31,11,17,14,23,01,32,1.1,0.6,0.9*26
$GNGSA,A,3,67,77,69,79,68,78,,,,,,,1.1,0.6,0.9*22
$PSIWMPVT,61.730,347213.000,3,49.1720746,-123.0701026,4.154,-0.012,-0.011,0.004,4.796,3.536,3.980,0.354,0.000,0.000,7.020,0.102,18,*0E
$PSIWMPOS,000102.700,4910.32448,N,12304.20616,W,8.14,4.15,M,5.75,0,8,0,2,0,*62
$PSIWMATT,000102.700,360.0,T,1.2,0.1,180.0,*7D
$PSIWMVEL,000102.700,360.0,T,0.0,K,-0.00,M,*71
$PSIWMVSD,000102.700,0.00,0.00,0.00,2,0.00,0.00,0.00,2,*0B
$GPGGA,002636.000,4910.32515,N,12304.20788,W,1,19,0.6,009.69,M,-16.8,M,,*58
$GPRMC,002636.000,A,4910.32515,N,12304.20788,W,0.1,0.0,181018,,,A*70
$GNGSA,A,3,25,18,19,22,03,31,11,17,23,01,32,,1.1,0.6,0.9*23
$GNGSA,A,3,67,77,84,69,83,79,68,78,,,,,1.1,0.6,0.9*25
$PSIWMPVT,62.730,347214.000,3,49.1720858,-123.0701314,9.692,-0.018,-0.024,0.022,4.796,3.606,8.602,0.354,0.000,0.000,14.809,0.156,19,*3F
$PSIWMPOS,000103.700,4910.32515,N,12304.20788,W,8.14,9.69,M,5.75,0,8,0,2,0,*6A
$PSIWMATT,000103.700,360.0,T,1.2,0.1,180.0,*7C
$PSIWMVEL,000103.700,360.0,T,0.0,K,-0.00,M,*70
$PSIWMVSD,000103.700,0.00,0.00,0.00,2,0.00,0.00,0.00,2,*0A
$GPGGA,002637.000,4910.32571,N,12304.20861,W,1,19,0.6,013.66,M,-16.8,M,,*57
$GPRMC,002637.000,A,4910.32571,N,12304.20861,W,0.1,0.0,181018,,,A*7B
$GNGSA,A,3,25,18,19,22,03,31,11,17,23,01,32,,1.1,0.6,0.9*23
$GNGSA,A,3,67,77,84,69,83,79,68,78,,,,,1.1,0.6,0.9*25
$PSIWMPVT,63.730,347215.000,3,49.1720952,-123.0701435,13.664,-0.037,-0.051,0.021,4.899,3.674,7.828,0.354,0.000,0.000,13.691,0.129,19,*02
$PSIWMPOS,000104.700,4910.32571,N,12304.20861,W,8.31,13.66,M,5.88,0,8,0,2,0,*56
$PSIWMATT,000104.700,360.0,T,1.2,0.1,180.0,*7B
$PSIWMVEL,000104.700,360.0,T,0.0,K,-0.00,M,*77
$PSIWMVSD,000104.700,0.00,0.00,0.00,2,0.00,0.00,0.00,2,*0D
$GPGGA,002638.000,4910.32571,N,12304.20887,W,1,17,0.6,015.23,M,-16.8,M,,*59
$GPRMC,002638.000,A,4910.32571,N,12304.20887,W,0.1,0.0,181018,,,A*7C
$GNGSA,A,3,25,18,19,22,03,31,11,17,23,01,,,1.1,0.6,0.9*22
$GNGSA,A,3,67,77,69,83,79,68,78,,,,,,1.1,0.6,0.9*29
$PSIWMPVT,64.730,347215.999,3,49.1720951,-123.0701478,15.228,0.002,-0.064,0.019,4.950,3.808,3.953,0.500,0.000,0.000,7.325,0.223,17,*1D
$PSIWMPOS,000105.700,4910.32571,N,12304.20887,W,8.40,15.23,M,5.94,0,8,0,2,0,*53
$PSIWMATT,000105.700,360.0,T,1.2,0.1,180.0,*7A
$PSIWMVEL,000105.700,360.0,T,0.0,K,-0.00,M,*76
$PSIWMVSD,000105.700,0.00,0.00,0.00,2,0.00,0.00,0.00,2,*0C
$GPGGA,002639.000,4910.32533,N,12304.20847,W,1,19,0.6,013.43,M,-16.8,M,,*5C
$GPRMC,002639.000,A,4910.32533,N,12304.20847,W,0.0,0.0,181018,,,A*76
$GNGSA,A,3,25,18,19,03,31,11,17,14,23,01,32,,1.1,0.6,0.9*26
$GNGSA,A,3,67,77,84,69,83,79,68,78,,,,,1.1,0.6,0.9*25
$PSIWMPVT,65.730,347217.000,3,49.1720889,-123.0701412,13.432,-0.007,-0.025,-0.009,5.050,3.742,3.918,0.500,0.000,0.000,6.796,0.078,19,*1C
$PSIWMPOS,000106.700,4910.32533,N,12304.20847,W,8.57,13.43,M,6.06,0,8,0,2,0,*54
$PSIWMATT,000106.700,360.0,T,1.2,0.1,180.0,*79
$PSIWMVEL,000106.700,360.0,T,0.0,K,-0.00,M,*75
$PSIWMVSD,000106.700,0.00,0.00,0.00,2,0.00,0.00,0.00,2,*0F
$GPGGA,002640.000,4910.32503,N,12304.20894,W,1,19,0.6,007.35,M,-16.8,M,,*5B
$GPRMC,002640.000,A,4910.32503,N,12304.20894,W,0.0,0.0,181018,,,A*75
$GNGSA,A,3,25,18,19,03,31,11,17,14,23,01,32,,1.1,0.6,0.9*26
$GNGSA,A,3,67,77,84,69,83,79,68,78,,,,,1.1,0.6,0.9*25
$PSIWMPVT,66.740,347218.000,3,49.1720838,-123.0701490,7.350,-0.010,-0.008,-0.046,5.099,3.873,10.129,0.500,0.000,0.000,17.419,0.117,19,*2F
$PSIWMPOS,000107.700,4910.32503,N,12304.20894,W,8.65,7.35,M,6.12,0,8,0,2,0,*68
$PSIWMATT,000107.700,360.0,T,1.2,0.1,180.0,*78
$PSIWMVEL,000107.700,360.0,T,0.0,K,-0.00,M,*74
$PSIWMVSD,000107.700,0.00,0.00,0.00,2,0.00,0.00,0.00,2,*0E
$GPGGA,002641.000,4910.32576,N,12304.20937,W,1,19,0.6,002.46,M,-16.8,M,,*51
$GPRMC,002641.000,A,4910.32576,N,12304.20937,W,0.1,0.0,181018,,,A*7F
$GNGSA,A,3,25,18,19,03,31,11,17,14,23,01,32,,1.1,0.6,0.9*26
$GNGSA,A,3,67,77,84,69,83,79,68,78,,,,,1.1,0.6,0.9*25
$PSIWMPVT,67.740,347219.000,3,49.1720960,-123.0701562,2.460,0.000,-0.035,-0.062,5.244,4.062,11.867,0.500,0.000,0.000,20.427,0.035,19,*0D
$PSIWMPOS,000108.700,4910.32576,N,12304.20937,W,8.90,2.46,M,6.29,0,8,0,2,0,*6E
$PSIWMATT,000108.700,360.0,T,1.2,0.1,180.0,*77
$PSIWMVEL,000108.700,360.0,T,0.0,K,-0.00,M,*7B
$PSIWMVSD,000108.700,0.00,0.00,0.00,2,0.00,0.00,0.00,2,*01
$GPGGA,002642.000,4910.32463,N,12304.20790,W,1,18,0.6,-01.64,M,-16.8,M,,*4B
$GPRMC,002642.000,A,4910.32463,N,12304.20790,W,0.1,0.0,181018,,,A*7A
$GNGSA,A,3,25,18,22,03,31,11,17,14,01,32,,,1.1,0.6,0.9*2F
$GNGSA,A,3,67,77,84,69,83,79,68,78,,,,,1.1,0.6,0.9*25
$PSIWMPVT,68.740,347220.000,3,49.1720772,-123.0701317,-1.638,-0.006,-0.026,-0.055,5.196,3.937,8.043,0.500,0.000,0.000,13.826,0.027,18,*36
$PSIWMPOS,000109.700,4910.32463,N,12304.20790,W,8.82,-1.64,M,6.24,0,8,0,2,0,*49
$PSIWMATT,000109.700,360.0,T,1.2,0.1,180.0,*76
$PSIWMVEL,000109.700,360.0,T,0.0,K,-0.00,M,*7A
$PSIWMVSD,000109.700,0.00,0.00,0.00,2,0.00,0.00,0.00,2,*00
$GPGGA,002643.000,4910.32395,N,12304.20571,W,1,18,0.6,-05.18,M,-16.8,M,,*46
$GPRMC,002643.000,A,4910.32395,N,12304.20571,W,0.1,0.0,181018,,,A*78
$GNGSA,A,3,18,19,22,03,31,11,17,14,01,32,,,1.1,0.6,0.9*20
$GNGSA,A,3,67,77,84,69,83,79,68,78,,,,,1.1,0.6,0.9*25
$PSIWMPVT,69.730,347221.000,3,49.1720658,-123.0700952,-5.185,0.002,-0.049,-0.054,5.196,3.937,8.727,0.612,0.000,0.000,14.999,0.035,18,*12
$PSIWMPOS,000110.700,4910.32395,N,12304.20571,W,8.82,-5.18,M,6.24,0,8,0,2,0,*4D
$PSIWMATT,000110.700,360.0,T,1.2,0.1,180.0,*7E
$PSIWMVEL,000110.700,360.0,T,0.0,K,-0.00,M,*72
$PSIWMVSD,000110.700,0.00,0.00,0.00,2,0.00,0.00,0.00,2,*08
$GPGGA,002644.000,4910.32409,N,12304.20650,W,1,17,0.6,-03.78,M,-16.8,M,,*4C
$GPRMC,002644.000,A,4910.32409,N,12304.20650,W,0.3,231.1,181018,,,A*7E
$GNGSA,A,3,25,18,19,22,11,17,23,01,32,,,,1.1,0.6,0.9*22
$GNGSA,A,3,67,77,84,69,83,79,68,78,,,,,1.1,0.6,0.9*25
$PSIWMPVT,70.730,347222.000,3,49.1720681,-123.0701083,-3.779,-0.139,-0.112,-0.040,5.385,4.243,7.234,0.707,1.369,1.061,12.441,0.242,17,*3E
$PSIWMPOS,000111.700,4910.32409,N,12304.20650,W,9.14,-3.78,M,6.46,0,8,0,2,0,*44
$PSIWMATT,000111.700,360.0,T,1.3,0.0,180.0,*7F
$PSIWMVEL,000111.700,360.0,T,0.0,K,-0.00,M,*73
$PSIWMVSD,000111.700,0.00,0.00,0.00,2,0.00,0.00,0.00,2,*09
$GPGGA,002645.000,4910.32541,N,12304.20880,W,1,17,0.6,-03.73,M,-16.8,M,,*48
$GPRMC,002645.000,A,4910.32541,N,12304.20880,W,0.0,0.0,181018,,,A*73
$GNGSA,A,3,25,18,19,31,11,17,23,01,32,,,,1.1,0.6,0.9*20
$GNGSA,A,3,67,77,84,69,83,79,68,78,,,,,1.1,0.6,0.9*25
$PSIWMPVT,71.730,347223.000,3,49.1720902,-123.0701466,-3.727,-0.013,-0.007,-0.041,5.745,4.416,15.816,0.866,0.791,2.031,27.186,0.074,17,*07
$PSIWMPOS,000112.700,4910.32541,N,12304.20880,W,9.75,-3.73,M,6.89,0,8,0,2,0,*46
$PSIWMATT,000112.700,360.0,T,1.2,0.1,180.0,*7C
$PSIWMVEL,000112.700,360.0,T,0.0,K,-0.00,M,*70
$PSIWMVSD,000112.700,0.00,0.00,0.00,2,0.00,0.00,0.00,2,*0A
$GPGGA,002646.000,4910.32681,N,12304.20875,W,1,18,0.6,002.52,M,-16.8,M,,*5E
$GPRMC,002646.000,A,4910.32681,N,12304.20875,W,0.0,0.0,181018,,,A*75
$GNGSA,A,3,25,18,19,22,03,31,11,17,23,32,,,1.1,0.6,0.9*22
$GNGSA,A,3,67,77,84,69,83,79,68,78,,,,,1.1,0.6,0.9*25
$PSIWMPVT,72.730,347224.000,3,49.1721135,-123.0701459,2.524,0.015,-0.019,-0.037,5.745,4.301,9.070,0.866,0.500,1.837,15.587,0.027,18,*34
$PSIWMPOS,000113.700,4910.32681,N,12304.20875,W,9.75,2.52,M,6.89,0,8,0,2,0,*6D
$PSIWMATT,000113.700,360.0,T,1.2,0.1,180.0,*7D
$PSIWMVEL,000113.700,360.0,T,0.0,K,-0.00,M,*71
$PSIWMVSD,000113.700,0.00,0.00,0.00,2,0.00,0.00,0.00,2,*0B
$GPGGA,002647.000,4910.32702,N,12304.20911,W,1,17,0.6,003.54,M,-16.8,M,,*5E
$GPRMC,002647.000,A,4910.32702,N,12304.20911,W,0.0,0.0,181018,,,A*7D
$GNGSA,A,3,25,18,19,22,03,17,23,01,32,,,,1.1,0.6,0.9*21
$GNGSA,A,3,67,77,84,69,83,79,68,78,,,,,1.1,0.6,0.9*25
$PSIWMPVT,73.730,347224.999,3,49.1721171,-123.0701519,3.541,0.009,-0.023,-0.034,6.042,4.743,21.492,0.791,1.000,0.000,35.735,0.020,17,*00
$PSIWMPOS,000114.700,4910.32702,N,12304.20911,W,10.25,3.54,M,7.25,0,8,0,2,0,*5E
$PSIWMATT,000114.700,360.0,T,1.2,0.1,180.0,*7A
$PSIWMVEL,000114.700,360.0,T,0.0,K,-0.00,M,*76
$PSIWMVSD,000114.700,0.00,0.00,0.00,2,0.00,0.00,0.00,2,*0C
$GPGGA,002648.000,4910.32726,N,12304.20916,W,1,17,0.6,004.34,M,-16.8,M,,*51
$GPRMC,002648.000,A,4910.32726,N,12304.20916,W,0.0,0.0,181018,,,A*73
$GNGSA,A,3,25,18,19,03,11,17,14,23,32,,,,1.1,0.6,0.9*25
$GNGSA,A,3,67,77,84,69,83,79,68,78,,,,,1.1,0.6,0.9*25
$PSIWMPVT,74.730,347225.999,3,49.1721210,-123.0701526,4.340,0.011,0.000,-0.033,6.403,5.000,22.750,0.935,0.354,1.658,39.091,0.027,17,*29
$PSIWMPOS,000115.700,4910.32726,N,12304.20916,W,10.87,4.34,M,7.68,0,8,0,2,0,*5E
$PSIWMATT,000115.700,360.0,T,1.2,0.2,180.0,*78
$PSIWMVEL,000115.700,360.0,T,0.0,K,-0.00,M,*77
$PSIWMVSD,000115.700,0.00,0.00,0.00,2,0.00,0.00,0.00,2,*0D
$GPGGA,002649.000,4910.32731,N,12304.20924,W,1,20,0.6,006.23,M,-16.8,M,,*57
$GPRMC,002649.000,A,4910.32731,N,12304.20924,W,0.1,0.0,181018,,,A*74
$GNGSA,A,3,25,18,19,22,03,31,11,17,14,23,01,32,1.1,0.6,0.9*26
$GNGSA,A,3,67,77,84,69,83,79,68,78,,,,,1.1,0.6,0.9*25
$PSIWMPVT,75.730,347226.999,3,49.1721218,-123.0701540,6.230,-0.011,-0.033,-0.027,6.633,5.196,17.754,0.791,0.000,0.000,30.507,0.035,20,*23
$PSIWMPOS,000116.700,4910.32731,N,12304.20924,W,11.26,6.23,M,7.96,0,8,0,2,0,*55
$PSIWMATT,000116.700,360.0,T,1.2,0.1,180.0,*78
$PSIWMVEL,000116.700,360.0,T,0.0,K,-0.00,M,*74
$PSIWMVSD,000116.700,0.00,0.00,0.00,2,0.00,0.00,0.00,2,*0E
$GPGGA,002650.000,4910.32797,N,12304.21280,W,1,20,0.6,011.09,M,-16.8,M,,*59
$GPRMC,002650.000,A,4910.32797,N,12304.21280,W,0.0,0.0,181018,,,A*75
$GNGSA,A,3,25,18,19,22,03,31,11,17,14,23,01,32,1.1,0.6,0.9*26
$GNGSA,A,3,67,77,84,69,83,79,68,78,,,,,1.1,0.6,0.9*25
$PSIWMPVT,76.730,347228.000,3,49.1721329,-123.0702133,11.091,-0.006,-0.006,0.025,6.595,5.148,12.871,0.791,0.000,0.612,22.120,0.301,20,*35
$PSIWMPOS,000117.700,4910.32797,N,12304.21280,W,11.19,11.09,M,7.91,0,8,0,2,0,*69
$PSIWMATT,000117.700,360.0,T,1.2,0.1,180.0,*79
$PSIWMVEL,000117.700,360.0,T,0.0,K,-0.00,M,*75
$PSIWMVSD,000117.700,0.00,0.00,0.00,2,0.00,0.00,0.00,2,*0F
$GPGGA,002651.000,4910.32671,N,12304.21065,W,1,20,0.6,007.43,M,-16.8,M,,*51
$GPRMC,002651.000,A,4910.32671,N,12304.21065,W,0.1,0.0,181018,,,A*75
$GNGSA,A,3,25,18,19,22,03,31,11,17,14,23,01,32,1.1,0.6,0.9*26
$GNGSA,A,3,67,77,84,69,83,79,68,78,,,,,1.1,0.6,0.9*25
$PSIWMPVT,77.740,347228.999,3,49.1721118,-123.0701775,7.431,-0.000,-0.038,0.021,6.325,4.743,5.438,0.791,0.000,0.612,9.388,0.059,20,*0A
$PSIWMPOS,000118.700,4910.32671,N,12304.21065,W,10.73,7.43,M,7.59,0,8,0,2,0,*56
$PSIWMATT,000118.700,360.0,T,1.2,0.1,180.0,*76
$PSIWMVEL,000118.700,360.0,T,0.0,K,-0.00,M,*7A
$PSIWMVSD,000118.700,0.00,0.00,0.00,2,0.00,0.00,0.00,2,*00
$GPGGA,002652.000,4910.32665,N,12304.20965,W,1,20,0.6,011.17,M,-16.8,M,,*59
$GPRMC,002652.000,A,4910.32665,N,12304.20965,W,0.0,0.0,181018,,,A*7A
$GNGSA,A,3,25,18,19,22,03,31,11,17,14,23,01,32,1.1,0.6,0.9*26
$GNGSA,A,3,67,77,84,69,83,79,68,78,,,,,1.1,0.6,0.9*25
$PSIWMPVT,78.740,347229.999,3,49.1721108,-123.0701608,11.169,0.002,-0.014,0.010,6.083,4.416,4.344,0.791,0.000,0.000,7.526,0.059,20,*1A
$PSIWMPOS,000119.700,4910.32665,N,12304.20965,W,10.32,11.17,M,7.30,0,8,0,2,0,*66
$PSIWMATT,000119.700,360.0,T,1.2,0.1,180.0,*77
$PSIWMVEL,000119.700,360.0,T,0.0,K,-0.00,M,*7B
$PSIWMVSD,000119.700,0.00,0.00,0.00,2,0.00,0.00,0.00,2,*01
$GPGGA,002653.000,4910.32663,N,12304.20872,W,1,20,0.6,013.01,M,-16.8,M,,*5C
$GPRMC,002653.000,A,4910.32663,N,12304.20872,W,0.1,0.0,181018,,,A*7B
$GNGSA,A,3,25,18,19,22,03,31,11,17,14,23,01,32,1.1,0.6,0.9*26
$GNGSA,A,3,67,77,84,69,83,79,68,78,,,,,1.1,0.6,0.9*25
$PSIWMPVT,79.740,347230.999,3,49.1721105,-123.0701454,13.010,-0.004,-0.035,0.001,5.916,4.183,3.988,0.707,0.000,0.000,6.978,0.059,20,*3B
$PSIWMPOS,000120.700,4910.32663,N,12304.20872,W,10.04,13.01,M,7.10,0,8,0,2,0,*6F
$PSIWMATT,000120.700,360.0,T,1.2,0.1,180.0,*7D
$PSIWMVEL,000120.700,360.0,T,0.0,K,-0.00,M,*71
$PSIWMVSD,000120.700,0.00,0.00,0.00,2,0.00,0.00,0.00,2,*0B
$GPGGA,002654.000,4910.32630,N,12304.20805,W,1,20,0.6,013.51,M,-16.8,M,,*58
$GPRMC,002654.000,A,4910.32630,N,12304.20805,W,0.0,0.0,181018,,,A*7B
$GNGSA,A,3,25,18,19,22,03,31,11,17,14,23,01,32,1.1,0.6,0.9*26
$GNGSA,A,3,67,77,84,69,83,79,68,78,,,,,1.1,0.6,0.9*25
$PSIWMPVT,80.740,347232.000,3,49.1721050,-123.0701342,13.510,-0.012,-0.023,-0.009,5.745,4.000,3.223,0.612,0.000,0.000,5.764,0.070,20,*11
$PSIWMPOS,000121.700,4910.32630,N,12304.20805,W,9.75,13.51,M,6.89,0,8,0,2,0,*52
$PSIWMATT,000121.700,360.0,T,1.2,0.1,180.0,*7C
$PSIWMVEL,000121.700,360.0,T,0.0,K,-0.00,M,*70
$PSIWMVSD,000121.700,0.00,0.00,0.00,2,0.00,0.00,0.00,2,*0A
$GPGGA,002655.000,4910.32626,N,12304.20767,W,1,20,0.6,014.43,M,-16.8,M,,*51
$GPRMC,002655.000,A,4910.32626,N,12304.20767,W,0.0,0.0,181018,,,A*76
$GNGSA,A,3,25,18,19,22,03,31,11,17,14,23,01,32,1.1,0.6,0.9*26
$GNGSA,A,3,67,77,84,69,83,79,68,78,,,,,1.1,0.6,0.9*25
$PSIWMPVT,81.730,347232.999,3,49.1721044,-123.0701278,14.432,-0.008,-0.011,-0.037,5.612,3.873,4.023,0.500,0.000,0.000,7.902,0.129,20,*1E
$PSIWMPOS,000122.700,4910.32626,N,12304.20767,W,9.52,14.43,M,6.73,0,8,0,2,0,*59
$PSIWMATT,000122.700,360.0,T,1.1,0.1,180.0,*7C
$PSIWMVEL,000122.700,360.0,T,0.0,K,-0.00,M,*73
$PSIWMVSD,000122.700,0.00,0.00,0.00,2,0.00,0.00,0.00,2,*09
$GPGGA,002656.000,4910.32525,N,12304.20658,W,1,20,0.6,009.56,M,-16.8,M,,*57
$GPRMC,002656.000,A,4910.32525,N,12304.20658,W,0.0,0.0,181018,,,A*78
$GNGSA,A,3,25,18,19,22,03,31,11,17,14,23,01,32,1.1,0.6,0.9*26
$GNGSA,A,3,67,77,84,69,83,79,68,78,,,,,1.1,0.6,0.9*25
$PSIWMPVT,82.730,347233.999,3,49.1720874,-123.0701096,9.561,-0.004,-0.022,-0.048,5.523,3.742,7.082,0.500,0.000,0.000,13.743,0.098,20,*1A
$PSIWMPOS,000123.700,4910.32525,N,12304.20658,W,9.37,9.56,M,6.63,0,8,0,2,0,*6F
$PSIWMATT,000123.700,360.0,T,1.1,0.1,180.0,*7D
$PSIWMVEL,000123.700,360.0,T,0.0,K,-0.00,M,*72
$PSIWMVSD,000123.700,0.00,0.00,0.00,2,0.00,0.00,0.00,2,*08
$GPGGA,002657.000,4910.32534,N,12304.20684,W,1,20,0.6,012.22,M,-16.8,M,,*5E
$GPRMC,002657.000,A,4910.32534,N,12304.20684,W,0.1,0.0,181018,,,A*79
$GNGSA,A,3,25,18,19,22,03,31,11,17,14,23,01,32,1.1,0.6,0.9*26
$GNGSA,A,3,67,77,84,69,83,79,68,78,,,,,1.1,0.6,0.9*25
$PSIWMPVT,83.730,347234.999,3,49.1720890,-123.0701140,12.220,0.036,-0.037,-0.043,5.523,3.808,4.520,0.612,0.000,0.000,8.360,0.141,20,*32
$PSIWMPOS,000124.700,4910.32534,N,12304.20684,W,9.37,12.22,M,6.63,0,8,0,2,0,*50
$PSIWMATT,000124.700,360.0,T,1.1,0.2,180.0,*79
$PSIWMVEL,000124.700,360.0,T,0.0,K,-0.00,M,*75
$PSIWMVSD,000124.700,0.00,0.00,0.00,2,0.00,0.00,0.00,2,*0F
$GPGGA,002658.000,4910.32531,N,12304.20712,W,1,19,0.6,012.87,M,-16.8,M,,*5F
$GPRMC,002658.000,A,4910.32531,N,12304.20712,W,0.1,0.0,181018,,,A*7D
$GNGSA,A,3,25,18,19,22,03,31,11,17,23,01,32,,1.1,0.6,0.9*23
$GNGSA,A,3,67,77,84,69,83,79,68,78,,,,,1.1,0.6,0.9*25
$PSIWMPVT,84.730,347236.000,3,49.1720885,-123.0701187,12.870,0.008,-0.026,-0.034,5.874,4.243,17.609,0.612,0.000,0.000,30.414,0.094,19,*38
$PSIWMPOS,000125.700,4910.32531,N,12304.20712,W,9.97,12.87,M,7.05,0,8,0,2,0,*5E
$PSIWMATT,000125.700,360.0,T,1.1,0.1,180.0,*7B
$PSIWMVEL,000125.700,360.0,T,0.0,K,-0.00,M,*74
$PSIWMVSD,000125.700,0.00,0.00,0.00,2,0.00,0.00,0.00,2,*0E
$GPGGA,002659.000,4910.32535,N,12304.20761,W,1,18,0.6,013.53,M,-16.8,M,,*57
$GPRMC,002659.000,A,4910.32535,N,12304.20761,W,0.0,0.0,181018,,,A*7D
$GNGSA,A,3,25,18,19,22,03,11,17,23,01,32,,,1.1,0.6,0.9*21
$GNGSA,A,3,67,77,84,69,83,79,68,78,,,,,1.1,0.6,0.9*25
$PSIWMPVT,85.730,347237.000,3,49.1720892,-123.0701268,13.531,0.013,0.003,-0.031,6.164,4.796,19.676,0.707,1.323,0.000,33.868,0.160,18,*19
$PSIWMPOS,000126.700,4910.32535,N,12304.20761,W,10.46,13.53,M,7.40,0,8,0,2,0,*60
$PSIWMATT,000126.700,360.0,T,1.1,0.1,180.0,*78
$PSIWMVEL,000126.700,360.0,T,0.0,K,-0.00,M,*77
$PSIWMVSD,000126.700,0.00,0.00,0.00,2,0.00,0.00,0.00,2,*0D
$GPGGA,002700.000,4910.32549,N,12304.20762,W,1,17,0.6,013.99,M,-16.8,M,,*5B
$GPRMC,002700.000,A,4910.32549,N,12304.20762,W,0.1,0.0,181018,,,A*79
$GNGSA,A,3,25,18,19,31,11,17,14,23,32,,,,1.1,0.6,0.9*24
$GNGSA,A,3,67,77,84,69,83,79,68,78,,,,,1.1,0.6,0.9*25
$PSIWMPVT,86.730,347237.999,3,49.1720915,-123.0701269,13.994,0.005,0.031,-0.032,6.519,5.477,20.445,0.707,2.179,1.275,35.234,0.117,17,*14
$PSIWMPOS,000127.700,4910.32549,N,12304.20762,W,11.06,13.99,M,7.82,0,8,0,2,0,*64
$PSIWMATT,000127.700,360.0,T,1.1,0.1,180.0,*79
$PSIWMVEL,000127.700,360.0,T,0.0,K,-0.00,M,*76
$PSIWMVSD,000127.700,0.00,0.00,0.00,2,0.00,0.00,0.00,2,*0C
$GPGGA,002701.000,4910.32563,N,12304.20902,W,1,17,0.6,015.10,M,-16.8,M,,*5D
$GPRMC,002701.000,A,4910.32563,N,12304.20902,W,0.2,0.0,181018,,,A*7B
$GNGSA,A,3,25,18,19,22,03,11,17,23,01,,,,1.1,0.6,0.9*20
$GNGSA,A,3,67,77,84,69,83,79,68,78,,,,,1.1,0.6,0.9*25
$PSIWMPVT,87.730,347238.999,3,49.1720939,-123.0701503,15.099,0.092,0.007,-0.024,6.782,5.916,22.531,0.866,1.500,0.707,38.833,0.141,17,*18
$PSIWMPOS,000128.700,4910.32563,N,12304.20902,W,11.51,15.10,M,8.14,0,8,0,2,0,*6E
$PSIWMATT,000128.700,360.0,T,1.1,0.2,180.0,*75
$PSIWMVEL,000128.700,360.0,T,0.0,K,-0.00,M,*79
$PSIWMVSD,000128.700,0.00,0.00,0.00,2,0.00,0.00,0.00,2,*03
$GPGGA,002702.000,4910.32580,N,12304.20974,W,1,17,0.6,015.79,M,-16.8,M,,*5D
$GPRMC,002702.000,A,4910.32580,N,12304.20974,W,0.1,0.0,181018,,,A*77
$GNGSA,A,3,25,18,19,03,11,17,23,01,32,,,,1.1,0.6,0.9*21
$GNGSA,A,3,67,77,84,69,83,79,68,78,,,,,1.1,0.6,0.9*25
$PSIWMPVT,88.730,347240.000,3,49.1720966,-123.0701623,15.794,0.036,-0.014,-0.023,7.071,6.403,21.086,0.866,2.151,0.935,36.423,0.180,17,*3E
$PSIWMPOS,000129.700,4910.32580,N,12304.20974,W,12.00,15.79,M,8.49,0,8,0,2,0,*63
$PSIWMATT,000129.700,360.0,T,1.1,0.2,180.0,*74
$PSIWMVEL,000129.700,360.0,T,0.0,K,-0.00,M,*78
$PSIWMVSD,000129.700,0.00,0.00,0.00,2,0.00,0.00,0.00,2,*02
$GPGGA,002703.000,4910.32637,N,12304.20932,W,1,17,0.6,017.33,M,-16.8,M,,*5D
$GPRMC,002703.000,A,4910.32637,N,12304.20932,W,0.1,0.0,181018,,,A*7B
$GNGSA,A,3,25,19,22,31,17,14,23,01,32,,,,1.1,0.6,0.9*2C
$GNGSA,A,3,67,77,84,69,83,79,68,78,,,,,1.1,0.6,0.9*25
$PSIWMPVT,89.730,347241.000,3,49.1721062,-123.0701554,17.329,0.016,-0.024,-0.024,7.314,6.557,20.250,0.866,0.866,1.323,34.945,0.172,17,*3E
$PSIWMPOS,000130.700,4910.32637,N,12304.20932,W,12.41,17.33,M,8.78,0,8,0,2,0,*6D
$PSIWMATT,000130.700,360.0,T,1.1,0.1,180.0,*7F
$PSIWMVEL,000130.700,360.0,T,0.0,K,-0.00,M,*70
$PSIWMVSD,000130.700,0.00,0.00,0.00,2,0.00,0.00,0.00,2,*0A
$GPGGA,002704.000,4910.32761,N,12304.21156,W,1,17,0.6,023.05,M,-16.8,M,,*51
$GPRMC,002704.000,A,4910.32761,N,12304.21156,W,0.1,0.0,181018,,,A*75
$GNGSA,A,3,25,18,19,03,31,17,14,23,01,,,,1.1,0.6,0.9*27
$GNGSA,A,3,67,77,84,69,83,79,68,78,,,,,1.1,0.6,0.9*25
$PSIWMPVT,90.730,347241.999,3,49.1721268,-123.0701927,23.046,-0.018,-0.032,-0.018,7.141,6.083,12.531,0.866,0.354,0.866,21.621,0.121,17,*18
$PSIWMPOS,000131.700,4910.32761,N,12304.21156,W,12.12,23.05,M,8.57,0,8,0,2,0,*6C
$PSIWMATT,000131.700,360.0,T,1.2,0.1,180.0,*7D
$PSIWMVEL,000131.700,360.0,T,0.0,K,-0.00,M,*71
$PSIWMVSD,000131.700,0.00,0.00,0.00,2,0.00,0.00,0.00,2,*0B
$GPGGA,002705.000,4910.32837,N,12304.21246,W,1,17,0.6,026.72,M,-16.8,M,,*5B
$GPRMC,002705.000,A,4910.32837,N,12304.21246,W,0.0,0.0,181018,,,A*7B
$GNGSA,A,3,25,18,19,22,03,31,17,23,01,,,,1.1,0.6,0.9*22
$GNGSA,A,3,67,77,84,69,83,79,68,78,,,,,1.1,0.6,0.9*25
$PSIWMPVT,91.730,347242.999,3,49.1721395,-123.0702077,26.716,-0.003,-0.017,-0.019,6.964,5.701,10.590,0.935,0.500,0.935,18.382,0.168,17,*18
$PSIWMPOS,000132.700,4910.32837,N,12304.21246,W,11.82,26.72,M,8.36,0,8,0,2,0,*69
$PSIWMATT,000132.700,360.0,T,1.1,0.1,180.0,*7D
$PSIWMVEL,000132.700,360.0,T,0.0,K,-0.00,M,*72
$PSIWMVSD,000132.700,0.00,0.00,0.00,2,0.00,0.00,0.00,2,*08
$GPGGA,002706.000,4910.32894,N,12304.21178,W,1,16,0.6,028.63,M,-16.8,M,,*50
$GPRMC,002706.000,A,4910.32894,N,12304.21178,W,0.0,0.0,181018,,,A*7F
$GNGSA,A,3,25,18,19,22,03,31,17,14,01,,,,1.1,0.6,0.9*26
$GNGSA,A,3,67,77,84,69,83,79,68,,,,,,1.1,0.6,0.9*2A
$PSIWMPVT,92.730,347244.000,3,49.1721491,-123.0701963,28.632,0.014,-0.015,-0.024,6.745,5.292,9.566,0.866,0.000,0.612,16.220,0.117,16,*03
$PSIWMPOS,000133.700,4910.32894,N,12304.21178,W,11.45,28.63,M,8.09,0,8,0,2,0,*66
$PSIWMATT,000133.700,360.0,T,1.1,0.1,180.0,*7C
$PSIWMVEL,000133.700,360.0,T,0.0,K,-0.00,M,*73
$PSIWMVSD,000133.700,0.00,0.00,0.00,2,0.00,0.00,0.00,2,*09
$GPGGA,002707.000,4910.32887,N,12304.21066,W,1,17,0.6,031.51,M,-16.8,M,,*55
$GPRMC,002707.000,A,4910.32887,N,12304.21066,W,0.0,0.0,181018,,,A*72
$GNGSA,A,3,25,18,19,22,03,31,14,23,01,,,,1.1,0.6,0.9*21
$GNGSA,A,3,67,77,84,69,83,79,68,78,,,,,1.1,0.6,0.9*25
$PSIWMPVT,93.730,347245.000,3,49.1721478,-123.0701777,31.514,0.002,-0.021,-0.025,6.671,5.148,10.203,0.866,0.000,0.612,17.872,0.090,17,*3C
$PSIWMPOS,000134.700,4910.32887,N,12304.21066,W,11.32,31.51,M,8.00,0,8,0,2,0,*6D
$PSIWMATT,000134.700,360.0,T,1.1,0.1,180.0,*7B
$PSIWMVEL,000134.700,360.0,T,0.0,K,-0.00,M,*74
$PSIWMVSD,000134.700,0.00,0.00,0.00,2,0.00,0.00,0.00,2,*0E
$GPGGA,002708.000,4910.32880,N,12304.20997,W,1,18,0.6,032.19,M,-16.8,M,,*5B
$GPRMC,002708.000,A,4910.32880,N,12304.20997,W,0.1,0.0,181018,,,A*7D
$GNGSA,A,3,25,18,19,22,03,31,14,23,01,,,,1.1,0.6,0.9*21
$GNGSA,A,3,67,77,84,69,83,79,85,68,78,,,,1.1,0.6,0.9*28
$PSIWMPVT,94.740,347246.000,3,49.1721467,-123.0701662,32.190,0.026,0.001,-0.029,6.633,5.099,7.938,0.866,0.000,0.612,14.802,0.184,18,*2B
$PSIWMPOS,000135.700,4910.32880,N,12304.20997,W,11.26,32.19,M,7.96,0,8,0,2,0,*67
$PSIWMATT,000135.700,360.0,T,1.1,0.1,180.0,*7A
$PSIWMVEL,000135.700,360.0,T,0.0,K,-0.00,M,*75
$PSIWMVSD,000135.700,0.00,0.00,0.00,2,0.00,0.00,0.00,2,*0F
$GPGGA,002709.000,4910.32884,N,12304.20982,W,1,20,0.6,031.18,M,-16.8,M,,*53
$GPRMC,002709.000,A,4910.32884,N,12304.20982,W,0.0,0.0,181018,,,A*7D
$GNGSA,A,3,25,18,19,22,03,31,11,17,14,23,01,32,1.1,0.6,0.9*26
$GNGSA,A,3,67,84,69,83,79,85,68,78,,,,,1.1,0.6,0.9*28
$PSIWMPVT,95.740,347247.000,3,49.1721473,-123.0701637,31.179,0.014,-0.008,-0.028,6.595,4.899,6.188,0.866,0.000,0.612,11.837,0.262,20,*09
$PSIWMPOS,000136.700,4910.32884,N,12304.20982,W,11.19,31.18,M,7.91,0,8,0,2,0,*6D
$PSIWMATT,000136.700,360.0,T,1.1,0.1,180.0,*79
$PSIWMVEL,000136.700,360.0,T,0.0,K,-0.00,M,*76
$PSIWMVSD,000136.700,0.00,0.00,0.00,2,0.00,0.00,0.00,2,*0C
$GPGGA,002710.000,4910.32894,N,12304.20990,W,1,20,0.6,030.64,M,-16.8,M,,*53
$GPRMC,002710.000,A,4910.32894,N,12304.20990,W,0.0,0.0,181018,,,A*77
$GNGSA,A,3,25,18,19,22,03,31,11,17,14,23,01,32,1.1,0.6,0.9*26
$GNGSA,A,3,67,77,84,83,79,85,68,78,,,,,1.1,0.6,0.9*27
$PSIWMPVT,96.740,347248.000,3,49.1721490,-123.0701649,30.636,-0.013,-0.003,-0.027,6.633,4.796,6.980,0.866,0.354,0.791,13.452,0.125,20,*28
$PSIWMPOS,000137.700,4910.32894,N,12304.20990,W,11.26,30.64,M,7.96,0,8,0,2,0,*6F
$PSIWMATT,000137.700,360.0,T,1.1,0.1,180.0,*78
$PSIWMVEL,000137.700,360.0,T,0.0,K,-0.00,M,*77
$PSIWMVSD,000137.700,0.00,0.00,0.00,2,0.00,0.00,0.00,2,*0D
$GPGGA,002711.000,4910.32879,N,12304.20957,W,1,18,0.6,031.77,M,-16.8,M,,*52
$GPRMC,002711.000,A,4910.32879,N,12304.20957,W,0.0,0.0,181018,,,A*7E
$GNGSA,A,3,25,18,19,22,03,31,14,23,01,,,,1.1,0.6,0.9*21
$GNGSA,A,3,67,77,84,69,83,79,85,68,78,,,,1.1,0.6,0.9*28
$PSIWMPVT,97.740,347249.000,3,49.1721466,-123.0701595,31.768,-0.005,-0.012,-0.029,6.633,4.848,8.457,0.866,0.000,0.612,15.949,0.207,18,*25
$PSIWMPOS,000138.700,4910.32879,N,12304.20957,W,11.26,31.77,M,7.96,0,8,0,2,0,*6B
$PSIWMATT,000138.700,360.0,T,1.1,0.1,180.0,*77
$PSIWMVEL,000138.700,360.0,T,0.0,K,-0.00,M,*78
$PSIWMVSD,000138.700,0.00,0.00,0.00,2,0.00,0.00,0.00,2,*02
$GPGGA,002712.000,4910.32908,N,12304.20980,W,1,18,0.6,031.86,M,-16.8,M,,*52
$GPRMC,002712.000,A,4910.32908,N,12304.20980,W,0.1,0.0,181018,,,A*71
$GNGSA,A,3,25,18,19,22,03,31,17,14,01,,,,1.1,0.6,0.9*26
$GNGSA,A,3,67,77,84,69,83,79,85,68,78,,,,1.1,0.6,0.9*28
$PSIWMPVT,98.740,347250.000,3,49.1721513,-123.0701633,31.855,0.009,-0.046,-0.026,6.595,4.743,8.098,0.866,0.000,0.612,15.443,0.180,18,*07
$PSIWMPOS,000139.700,4910.32908,N,12304.20980,W,11.19,31.86,M,7.91,0,8,0,2,0,*62
$PSIWMATT,000139.700,360.0,T,1.1,0.1,180.0,*76
$PSIWMVEL,000139.700,360.0,T,0.0,K,-0.00,M,*79
$PSIWMVSD,000139.700,0.00,0.00,0.00,2,0.00,0.00,0.00,2,*03
$GPGGA,002713.000,4910.32909,N,12304.20970,W,1,19,0.6,030.53,M,-16.8,M,,*55
$GPRMC,002713.000,A,4910.32909,N,12304.20970,W,0.0,0.0,181018,,,A*7F
$GNGSA,A,3,25,18,19,22,03,31,17,14,23,01,32,,1.1,0.6,0.9*26
$GNGSA,A,3,67,77,84,83,79,85,68,78,,,,,1.1,0.6,0.9*27
$PSIWMPVT,99.740,347251.000,3,49.1721514,-123.0701617,30.530,0.003,-0.023,-0.025,6.557,4.637,6.348,0.866,0.000,0.612,12.492,0.160,19,*0B
$PSIWMPOS,000140.700,4910.32909,N,12304.20970,W,11.13,30.53,M,7.87,0,8,0,2,0,*66
$PSIWMATT,000140.700,360.0,T,1.1,0.1,180.0,*78
$PSIWMVEL,000140.700,360.0,T,0.0,K,-0.00,M,*77
$PSIWMVSD,000140.700,0.00,0.00,0.00,2,0.00,0.00,0.00,2,*0D
$GPGGA,002714.000,4910.32893,N,12304.20959,W,1,21,0.6,028.76,M,-16.8,M,,*5E
$GPRMC,002714.000,A,4910.32893,N,12304.20959,W,0.1,0.0,181018,,,A*70
$GNGSA,A,3,25,18,19,22,03,31,11,17,14,23,01,32,1.1,0.6,0.9*26
$GNGSA,A,3,67,77,84,69,83,79,85,68,78,,,,1.1,0.6,0.9*28
$PSIWMPVT,100.740,347252.000,3,49.1721489,-123.0701598,28.761,0.005,-0.028,-0.026,6.557,4.528,5.461,0.866,0.000,0.612,10.465,0.078,21,*32
$PSIWMPOS,000141.700,4910.32893,N,12304.20959,W,11.13,28.76,M,7.87,0,8,0,2,0,*60
$PSIWMATT,000141.700,360.0,T,1.1,0.1,180.0,*79
$PSIWMVEL,000141.700,360.0,T,0.0,K,-0.00,M,*76
$PSIWMVSD,000141.700,0.00,0.00,0.00,2,0.00,0.00,0.00,2,*0C
$GPGGA,002715.000,4910.32877,N,12304.20951,W,1,21,0.6,027.34,M,-16.8,M,,*54
$GPRMC,002715.000,A,4910.32877,N,12304.20951,W,0.0,0.0,181018,,,A*72
$GNGSA,A,3,25,18,19,22,03,31,11,17,14,23,01,32,1.1,0.6,0.9*26
$GNGSA,A,3,67,77,84,69,83,79,85,68,78,,,,1.1,0.6,0.9*28
$PSIWMPVT,101.740,347253.000,3,49.1721461,-123.0701585,27.338,0.006,-0.019,-0.026,6.481,4.416,4.613,0.866,0.000,0.612,9.107,0.109,21,*00
$PSIWMPOS,000142.700,4910.32877,N,12304.20951,W,11.00,27.34,M,7.78,0,8,0,2,0,*6A
$PSIWMATT,000142.700,360.0,T,1.1,0.1,180.0,*7A
$PSIWMVEL,000142.700,360.0,T,0.0,K,-0.00,M,*75
$PSIWMVSD,000142.700,0.00,0.00,0.00,2,0.00,0.00,0.00,2,*0F
$GPGGA,002716.000,4910.32871,N,12304.20916,W,1,21,0.6,025.63,M,-16.8,M,,*52
$GPRMC,002716.000,A,4910.32871,N,12304.20916,W,0.1,0.0,181018,,,A*75
$GNGSA,A,3,25,18,19,22,03,31,11,17,14,23,01,32,1.1,0.6,0.9*26
$GNGSA,A,3,67,77,84,69,83,79,85,68,78,,,,1.1,0.6,0.9*28
$PSIWMPVT,102.740,347254.000,3,49.1721452,-123.0701526,25.635,0.019,0.021,-0.006,6.442,4.359,4.406,0.866,0.000,0.000,8.456,0.035,21,*23
$PSIWMPOS,000143.700,4910.32871,N,12304.20916,W,10.93,25.63,M,7.73,0,8,0,2,0,*6E
$PSIWMATT,000143.700,360.0,T,1.1,0.1,180.0,*7B
$PSIWMVEL,000143.700,360.0,T,0.0,K,-0.00,M,*74
$PSIWMVSD,000143.700,0.00,0.00,0.00,2,0.00,0.00,0.00,2,*0E
$GPGGA,002717.000,4910.32881,N,12304.20882,W,1,18,0.6,027.36,M,-16.8,M,,*58
$GPRMC,002717.000,A,4910.32881,N,12304.20882,W,0.0,0.0,181018,,,A*76
$GNGSA,A,3,25,19,22,03,31,11,14,23,01,,,,1.1,0.6,0.9*28
$GNGSA,A,3,67,77,84,69,83,79,85,68,78,,,,1.1,0.6,0.9*28
$PSIWMPVT,103.740,347255.000,3,49.1721469,-123.0701471,27.357,-0.007,0.006,-0.022,6.442,4.472,6.590,0.866,0.000,0.612,12.143,0.184,18,*36
$PSIWMPOS,000144.700,4910.32881,N,12304.20882,W,10.93,27.36,M,7.73,0,8,0,2,0,*68
$PSIWMATT,000144.700,360.0,T,1.1,0.1,180.0,*7C
$PSIWMVEL,000144.700,360.0,T,0.0,K,-0.00,M,*73
$PSIWMVSD,000144.700,0.00,0.00,0.00,2,0.00,0.00,0.00,2,*09
$GPGGA,002718.000,4910.32871,N,12304.20890,W,1,20,0.6,025.43,M,-16.8,M,,*50
$GPRMC,002718.000,A,4910.32871,N,12304.20890,W,0.0,0.0,181018,,,A*75
$GNGSA,A,3,25,18,19,03,31,11,17,14,23,01,32,,1.1,0.6,0.9*26
$GNGSA,A,3,67,77,84,69,83,79,85,68,78,,,,1.1,0.6,0.9*28
$PSIWMPVT,104.740,347256.000,3,49.1721452,-123.0701483,25.431,0.005,-0.025,-0.018,6.442,4.359,4.660,0.866,0.000,0.000,10.043,0.141,20,*3C
$PSIWMPOS,000145.700,4910.32871,N,12304.20890,W,10.93,25.43,M,7.73,0,8,0,2,0,*65
$PSIWMATT,000145.700,360.0,T,1.2,0.1,180.0,*7E
$PSIWMVEL,000145.700,360.0,T,0.0,K,-0.00,M,*72
$PSIWMVSD,000145.700,0.00,0.00,0.00,2,0.00,0.00,0.00,2,*08
$GPGGA,002719.000,4910.32791,N,12304.20920,W,1,18,0.6,024.59,M,-16.8,M,,*5B
$GPRMC,002719.000,A,4910.32791,N,12304.20920,W,0.4,346.4,181018,,,A*7E
$GNGSA,A,3,25,18,19,22,11,17,14,23,32,,,,1.1,0.6,0.9*26
