$GPRMC,180550.00,A,4908.68547,N,12309.79616,W,0.685,,040520,,,A*68
$GPVTG,,T,,M,0.685,N,1.268,K,A*25
$GPGGA,180550.00,4908.68547,N,12309.79616,W,1,07,1.26,-2.4,M,-17.6,M,,*48
$GPGSA,A,3,30,07,28,13,11,15,17,,,,,,2.47,1.26,2.13*08
$GPGSV,4,1,13,01,22,079,,07,20,124,23,08,02,038,08,10,00,357,*7B
$GPGSV,4,2,13,11,22,050,19,13,53,250,25,15,35,288,28,17,48,176,18*7D
$GPGSV,4,3,13,19,24,191,,20,01,328,19,24,03,304,27,28,82,020,20*7E
$GPGSV,4,4,13,30,53,126,15*4F
$GPGLL,4908.68547,N,12309.79616,W,180550.00,A,A*79
$GPRMC,180551.00,A,4908.68588,N,12309.79626,W,0.830,,040520,,,A*69
$GPVTG,,T,,M,0.830,N,1.537,K,A*28
$GPGGA,180551.00,4908.68588,N,12309.79626,W,1,06,1.26,-2.3,M,-17.6,M,,*4F
$GPGSA,A,3,07,28,13,11,15,17,,,,,,,2.47,1.26,2.13*0B
$GPGSV,4,1,13,01,22,079,21,07,20,124,23,08,02,038,09,10,00,357,22*79
$GPGSV,4,2,13,11,22,050,18,13,53,250,25,15,35,288,28,17,48,176,17*73
$GPGSV,4,3,13,19,24,191,22,20,01,328,16,24,03,304,22,28,82,020,19*7E
$GPGSV,4,4,13,30,53,126,14*4E
$GPGLL,4908.68588,N,12309.79626,W,180551.00,A,A*78
$GPRMC,180552.00,A,4908.68641,N,12309.79635,W,1.062,,040520,,,A*60
$GPVTG,,T,,M,1.062,N,1.966,K,A*2E
$GPGGA,180552.00,4908.68641,N,12309.79635,W,1,07,1.26,-2.1,M,-17.6,M,,*4B
$GPGSA,A,3,30,07,28,13,11,15,17,,,,,,2.47,1.26,2.13*08
$GPGSV,4,1,13,01,22,07.61*0C
$GPGSV,4,1,13,01,22,077,18,07,18,125,,08,01,038,,10,00,355,*7E
$GPGSV,4,2,13,11,21,048,23,13,52,246,22,15,36,285,32,17,51,176,22*7B
$GPGSV,4,3,13,19,27,191,26,20,00,326,14,24,05,304,,28,80,031,21*7B
$GPGSV,4,4,13,30,50,127,21*4A
$GPGLL,4908.68015,N,12309.79895,W,181110.00,A,A*7F
$GPRMC,181111.00,A,4908.68031,N,12309.79900,W,0.439,,040520,,,A*61
$GPVTG,,T,,M,0.439,N,0.813,K,A*27
$GPGGA,181111.00,4908.68031,N,12309.79900,W,1,07,1.44,-2.3,M,-17.6,M,,*47
$GPGSA,A,3,30,07,28,13,11,15,17,,,,,,2.98,1.44,2.61*0B
$GPGSV,4,1,13,01,22,077,18,07,18,125,21,08,01,038,,10,00,355,*7D
$GPGSV,4,2,13,11,21,048,22,13,52,246,21,15,36,285,32,17,51,176,22*79
$GPGSV,4,3,13,19,27,191,26,20,00,326,12,24,05,304,,28,80,031,21*7D
$GPGSV,4,4,13,30,50,127,21*4A
$GPGLL,4908.68031,N,12309.79900,W,181111.00,A,A*75
$GPRMC,181112.00,A,4908.68068,N,12309.79870,W,0.554,,040520,,,A*62
$GPVTG,,T,,M,0.554,N,1.026,K,A*22
$GPGGA,181112.00,4908.68068,N,12309.79870,W,1,07,1.44,-2.3,M,-17.6,M,,*4E
$GPGSA,A,3,30,07,28,13,11,15,17,,,,,,2.98,1.44,2.61*0B
$GPGSV,4,1,13,01,22,077,17,07,18,125,21,08,01,038,,10,00,355,*72
$GPGSV,4,2,13,11,21,048,22,13,52,246,22,15,36,285,32,17,51,176,23*7B
$GPGSV,4,3,13,19,27,191,26,20,00,326,09,24,05,304,,28,80,031,21*77
$GPGSV,4,4,13,30,50,127,21*4A
$GPGLL,4908.68068,N,12309.79870,W,181112.00,A,A*7C
$GPRMC,181113.00,A,4908.68078,N,12309.79893,W,0.226,,040520,,,A*6D
$GPVTG,,T,,M,0.226,N,0.419,K,A*29
$GPGGA,181113.00,4908.68078,N,12309.79893,W,1,07,1.19,-1.4,M,-17.6,M,,*4F
$GPGSA,A,3,30,07,28,13,11,15,17,,,,,,2.23,1.19,1.88*07
$GPGSV,4,1,13,01,22,077,17,07,18,125,20,08,01,038,,10,00,355,*73
$GPGSV,4,2,13,11,21,048,23,13,52,246,21,15,36,285,32,17,51,176,23*79
$GPGSV,4,3,13,19,27,191,27,20,00,326,,24,05,304,,28,80,031,22*7C
$GPGSV,4,4,13,30,50,127,21*4A
$GPGLL,4908.68078,N,12309.79893,W,181113.00,A,A*71
$GPRMC,181114.00,A,4908.68117,N,12309.79899,W,0.362,,040520,,,A*69
$GPVTG,,T,,M,0.362,N,0.670,K,A*25
$GPGGA,181114.00,4908.68117,N,12309.79899,W,1,07,1.19,-0.8,M,-17.6,M,,*47
$GPGSA,A,3,30,07,28,13,11,15,17,,,,,,2.23,1.19,1.88*07
$GPGSV,4,1,13,01,22,077,17,07,18,125,21,08,01,038,,10,00,355,*72
$GPGSV,4,2,13,11,21,048,24,13,52,246,23,15,36,285,34,17,51,176,25*7C
$GPGSV,4,3,13,19,27,191,27,20,00,326,,24,05,304,,28,80,031,23*7D
$GPGSV,4,4,13,30,50,127,21*4A
$GPGLL,4908.68117,N,12309.79899,W,181114.00,A,A*74
$GPRMC,181115.00,A,4908.68146,N,12309.79920,W,0.517,,040520,,,A*6B
$GPVTG,,T,,M,0.517,N,0.957,K,A*2B
$GPGGA,181115.00,4908.68146,N,12309.79920,W,1,07,1.19,-0.4,M,-17.6,M,,*4D
$GPGSA,A,3,30,07,28,13,11,15,17,,,,,,2.23,1.19,1.88*07
$GPGSV,4,1,13,01,22,077,17,07,18,125,21,08,01,038,,10,00,355,*72
$GPGSV,4,2,13,11,21,048,24,13,52,246,24,15,36,285,34,17,51,176,25*7B
$GPGSV,4,3,13,19,27,191,27,20,00,326,,24,05,304,,28,80,031,23*7D
$GPGSV,4,4,13,30,50,127,21*4A
$GPGLL,4908.68146,N,12309.79920,W,181115.00,A,A*72
$GPRMC,181116.00,A,4908.68158,N,12309.79899,W,0.559,,040520,,,A*6E
$GPVTG,,T,,M,0.559,N,1.035,K,A*2D
$GPGGA,181116.00,4908.68158,N,12309.79899,W,1,07,1.19,-0.4,M,-17.6,M,,*42
$GPGSA,A,3,30,07,28,13,11,15,17,,,,,,2.23,1.19,1.88*07
$GPGSV,4,1,13,01,22,077,17,07,18,125,21,08,01,038,,10,00,355,*72
$GPGSV,4,2,13,11,21,048,24,13,52,246,24,15,36,285,33,17,51,176,25*7C
$GPGSV,4,3,13,19,27,191,27,20,00,326,,24,05,304,,28,80,031,23*7D
$GPGSV,4,4,13,30,50,127,22*49
$GPGLL,4908.68158,N,12309.79899,W,181116.00,A,A*7D
$GPRMC,181117.00,A,4908.68138,N,12309.79909,W,0.322,,040520,,,A*6B
$GPVTG,,T,,M,0.322,N,0.596,K,A*2A
$GPGGA,181117.00,4908.68138,N,12309.79909,W,1,07,1.19,0.0,M,-17.6,M,,*64
$GPGSA,A,3,30,07,28,13,11,15,17,,,,,,2.23,1.19,1.88*07
$GPGSV,4,1,13,01,22,077,17,07,18,125,21,08,01,038,,10,00,355,*72
$GPGSV,4,2,13,11,21,048,24,13,52,246,24,15,36,285,34,17,51,176,25*7B
$GPGSV,4,3,13,19,27,191,27,20,00,326,,24,05,304,,28,80,031,23*7D
$GPGSV,4,4,13,30,50,127,22*49
$GPGLL,4908.68138,N,12309.79909,W,181117.00,A,A*72
$GPRMC,181118.00,A,4908.68156,N,12309.79909,W,0.162,,040520,,,A*6A
$GPVTG,,T,,M,0.162,N,0.299,K,A*24
$GPGGA,181118.00,4908.68156,N,12309.79909,W,1,07,1.19,0.4,M,-17.6,M,,*67
$GPGSA,A,3,30,07,28,13,11,15,17,,,,,,2.23,1.19,1.88*07
$GPGSV,4,1,13,01,22,077,17,07,18,125,21,08,01,038,,10,00,355,23*73
$GPGSV,4,2,13,11,21,048,22,13,52,246,23,15,36,285,32,17,51,176,25*7C
$GPGSV,4,3,13,19,27,191,26,20,00,326,25,24,05,304,,28,80,031,21*79
$GPGSV,4,4,13,30,50,127,21*4A
$GPGLL,4908.68156,N,12309.79909,W,181118.00,A,A*75
$GPRMC,181119.00,A,4908.68083,N,12309.79970,W,1.007,,040520,,,A*6F
$GPVTG,,T,,M,1.007,N,1.865,K,A*2F
$GPGGA,181119.00,4908.68083,N,12309.79970,W,1,07,1.19,0.1,M,-17.6,M,,*64
$GPGSA,A,3,30,07,28,13,11,15,17,,,,,,2.23,1.19,1.88*07
$GPGSV,4,1,13,01,22,077,18,07,18,125,20,08,01,038,18,10,00,355,20*77
$GPGSV,4,2,13,11,21,048,21,13,52,246,24,15,36,285,31,17,51,176,24*7A
$GPGSV,4,3,13,19,27,191,26,20,00,326,,24,05,304,,28,80,031,21*7E
$GPGSV,4,4,13,30,50,127,20*4B
$GPGLL,4908.68083,N,12309.79970,W,181119.00,A,A*73
$GPRMC,181120.00,A,4908.68050,N,12309.79969,W,1.179,,040520,,,A*6B
$GPVTG,,T,,M,1.179,N,2.183,K,A*25
$GPGGA,181120.00,4908.68050,N,12309.79969,W,1,07,1.19,0.6,M,-17.6,M,,*6F
$GPGSA,A,3,30,07,28,13,11,15,17,,,,,,2.23,1.19,1.88*07
$GPGSV,4,1,13,01,22,077,19,07,18,125,21,08,01,038,16,10,00,355,*7B
$GPGSV,4,2,13,11,21,048,20,13,52,246,23,15,36,285,32,17,51,176,24*7F
$GPGSV,4,3,13,19,27,191,26,20,00,326,,24,05,304,,28,80,031,22*7D
$GPGSV,4,4,13,30,50,127,20*4B
$GPGLL,4908.68050,N,12309.79969,W,181120.00,A,A*7F
$GPRMC,181121.00,A,4908.68069,N,12309.79948,W,0.546,,040520,,,A*6A
$GPVTG,,T,,M,0.546,N,1.012,K,A*26
$GPGGA,181121.00,4908.68069,N,12309.79948,W,1,07,1.19,0.8,M,-17.6,M,,*69
$GPGSA,A,3,30,07,28,13,11,15,17,,,,,,2.23,1.19,1.88*07
$GPGSV,4,1,13,01,22,077,18,07,18,125,22,08,01,038,16,10,00,355,17*7F
$GPGSV,4,2,13,11,21,048,20,13,52,246,24,15,36,285,31,17,51,176,25*7A
$GPGSV,4,3,13,19,27,191,26,20,00,326,,24,05,304,,28,80,031,23*7C
$GPGSV,4,4,13,30,50,127,21*4A
$GPGLL,4908.68069,N,12309.79948,W,181121.00,A,A*77
$GPRMC,181122.00,A,4908.68127,N,12309.79905,W,0.593,,040520,,,A*63
$GPVTG,,T,,M,0.593,N,1.099,K,A*2D
$GPGGA,181122.00,4908.68127,N,12309.79905,W,1,07,1.19,0.9,M,-17.6,M,,*69
$GPGSA,A,3,30,07,28,13,11,15,17,,,,,,2.23,1.19,1.88*07
$GPGSV,4,1,13,01,22,077,18,07,18,125,22,08,01,038,19,10,00,355,*76
$GPGSV,4,2,13,11,21,048,19,13,52,246,24,15,36,285,31,17,51,176,24*71
$GPGSV,4,3,13,19,27,191,26,20,00,326,22,24,05,304,,28,80,031,22*7D
$GPGSV,4,4,13,30,50,127,21*4A
$GPGLL,4908.68127,N,12309.79905,W,181122.00,A,A*76
$GPRMC,181123.00,A,4908.68143,N,12309.79896,W,0.589,,040520,,,A*60
$GPVTG,,T,,M,0.589,N,1.090,K,A*2F
$GPGGA,181123.00,4908.68143,N,12309.79896,W,1,07,1.19,0.7,M,-17.6,M,,*6F
$GPGSA,A,3,30,07,28,13,11,15,17,,,,,,2.23,1.19,1.88*07
$GPGSV,4,1,13,01,22,077,16,07,18,125,21,08,01,038,16,10,00,355,*74
$GPGSV,4,2,13,11,21,048,20,13,52,246,23,15,36,285,29,17,51,176,23*72
$GPGSV,4,3,13,19,27,191,25,20,00,326,18,24,05,304,,28,80,031,22*77
$GPGSV,4,4,13,30,50,127,20*4B
$GPGLL,4908.68143,N,12309.79896,W,181123.00,A,A*7E
$GPRMC,181124.00,A,4908.68133,N,12309.79910,W,0.253,,040520,,,A*6F
$GPVTG,,T,,M,0.253,N,0.468,K,A*2D
$GPGGA,181124.00,4908.68133,N,12309.79910,W,1,07,1.19,0.1,M,-17.6,M,,*66
$GPGSA,A,3,30,07,28,13,11,15,17,,,,,,2.23,1.19,1.88*07
$GPGSV,4,1,13,01,22,077,15,07,18,125,21,08,01,038,12,10,00,355,*73
$GPGSV,4,2,13,11,21,048,22,13,52,246,24,15,36,285,31,17,51,176,24*79
$GPGSV,4,3,13,19,27,191,25,20,00,326,14,24,05,304,,28,80,031,22*7B
$GPGSV,4,4,13,30,50,127,21*4A
$GPGLL,4908.68133,N,12309.79910,W,181124.00,A,A*71
$GPRMC,181125.00,A,4908.68127,N,12309.79901,W,0.273,,040520,,,A*69
$GPVTG,,T,,M,0.273,N,0.506,K,A*26
$GPGGA,181125.00,4908.68127,N,12309.79901,W,1,07,1.19,-0.1,M,-17.6,M,,*4F
$GPGSA,A,3,30,07,28,13,11,15,17,,,,,,2.23,1.19,1.88*07
$GPGSV,4,1,13,01,22,077,15,07,18,125,21,08,01,038,09,10,00,355,*79
$GPGSV,4,2,13,11,21,048,22,13,52,246,23,15,36,285,31,17,51,176,24*7E
$GPGSV,4,3,13,19,27,191,25,20,00,326,13,24,05,304,,28,80,031,22*7C
$GPGSV,4,4,13,30,50,127,21*4A
$GPGLL,4908.68127,N,12309.79901,W,181125.00,A,A*75
$GPRMC,181126.00,A,4908.68128,N,12309.79905,W,0.244,,040520,,,A*65
$GPVTG,,T,,M,0.244,N,0.452,K,A*22
$GPGGA,181126.00,4908.68128,N,12309.79905,W,1,07,1.19,-0.3,M,-17.6,M,,*45
$GPGSA,A,3,30,07,28,13,11,15,17,,,,,,2.23,1.19,1.88*07
$GPGSV,4,1,13,01,22,077,15,07,18,125,22,08,01,038,12,10,00,355,*70
$GPGSV,4,2,13,11,21,048,22,13,52,246,23,15,36,285,32,17,51,176,24*7D
$GPGSV,4,3,13,19,27,191,26,20,00,326,,24,05,304,,28,80,031,22*7D
$GPGSV,4,4,13,30,50,127,20*4B
$GPGLL,4908.68128,N,12309.79905,W,181126.00,A,A*7D
$GPRMC,181127.00,A,4908.68135,N,12309.79916,W,0.123,,040520,,,A*68
$GPVTG,,T,,M,0.123,N,0.228,K,A*2B
$GPGGA,181127.00,4908.68135,N,12309.79916,W,1,07,1.19,-0.4,M,-17.6,M,,*4D
$GPGSA,A,3,30,07,28,13,11,15,17,,,,,,2.23,1.19,1.88*07
$GPGSV,4,1,13,01,22,077,16,07,18,125,21,08,01,038,10,10,00,355,*72
$GPGSV,4,2,13,11,21,048,21,13,52,246,23,15,36,285,32,17,51,176,25*7F
$GPGSV,4,3,13,19,27,191,26,20,00,326,,24,05,304,22,28,80,031,22*7D
$GPGSV,4,4,13,30,50,127,20*4B
$GPGLL,4908.68135,N,12309.79916,W,181127.00,A,A*72
$GPRMC,181128.00,A,4908.68109,N,12309.79909,W,0.316,,040520,,,A*62
$GPVTG,,T,,M,0.316,N,0.585,K,A*2F
$GPGGA,181128.00,4908.68109,N,12309.79909,W,1,06,1.56,-0.5,M,-17.6,M,,*48
$GPGSA,A,3,30,07,28,13,11,17,,,,,,,2.77,1.56,2.29*01
$GPGSV,4,1,13,01,22,077,15,07,18,125,21,08,01,038,10,10,00,355,*71
$GPGSV,4,2,13,11,21,048,22,13,52,246,22,15,36,285,,17,51,176,25*7C
$GPGSV,4,3,13,19,27,191,26,20,00,326,,24,05,304,19,28,80,031,22*75
$GPGSV,4,4,13,30,50,127,20*4B
$GPGLL,4908.68109,N,12309.79909,W,181128.00,A,A*7C
$GPRMC,181129.00,A,4908.68122,N,12309.79867,W,0.492,,040520,,,A*68
$GPVTG,,T,,M,0.492,N,0.911,K,A*25
$GPGGA,181129.00,4908.68122,N,12309.79867,W,1,06,1.56,-0.6,M,-17.6,M,,*4A
$GPGSA,A,3,30,07,28,13,11,17,,,,,,,2.77,1.56,2.29*01
$GPGSV,4,1,13,01,22,077,15,07,18,125,21,08,01,038,11,10,00,355,*70
$GPGSV,4,2,13,11,21,048,22,13,52,246,22,15,36,285,27,17,51,176,25*79
$GPGSV,4,3,13,19,27,191,25,20,00,326,,24,05,304,16,28,80,031,22*79
$GPGSV,4,4,13,30,50,127,20*4B
$GPGLL,4908.68122,N,12309.79867,W,181129.00,A,A*7D
$GPRMC,181130.00,A,4908.68088,N,12309.79857,W,0.675,,040520,,,A*69
$GPVTG,,T,,M,0.675,N,1.250,K,A*21
$GPGGA,181130.00,4908.68088,N,12309.79857,W,1,06,1.56,-0.8,M,-17.6,M,,*4E
$GPGSA,A,3,30,07,28,13,11,17,,,,,,,2.77,1.56,2.29*01
$GPGSV,4,1,13,01,22,077,15,07,18,125,21,08,01,038,11,10,00,355,*70
$GPGSV,4,2,13,11,21,048,22,13,52,246,22,15,36,285,,17,51,176,25*7C
$GPGSV,4,3,13,19,27,191,25,20,00,326,,24,05,304,13,28,80,031,22*7C
$GPGSV,4,4,13,30,50,127,20*4B
$GPGLL,4908.68088,N,12309.79857,W,181130.00,A,A*77
$GPRMC,181131.00,A,4908.68054,N,12309.79845,W,0.939,,040520,,,A*6D
$GPVTG,,T,,M,0.939,N,1.738,K,A*2D
$GPGGA,181131.00,4908.68054,N,12309.79845,W,1,06,1.56,-1.1,M,-17.6,M,,*45
$GPGSA,A,3,30,07,28,13,11,17,,,,,,,2.77,1.56,2.29*01
$GPGSV,4,1,13,01,22,077,15,07,18,125,21,08,01,038,18,10,00,355,*79
$GPGSV,4,2,13,11,21,048,22,13,52,246,22,15,36,285,,17,51,176,26*7F
$GPGSV,4,3,13,19,27,191,26,20,00,326,,24,05,304,10,28,80,031,21*7F
$GPGSV,4,4,13,30,50,127,19*41
$GPGLL,4908.68054,N,12309.79845,W,181131.00,A,A*74
$GPRMC,181132.00,A,4908.68069,N,12309.79994,W,0.937,,040520,,,A*63
$GPVTG,,T,,M,0.937,N,1.736,K,A*2D
$GPGGA,181132.00,4908.68069,N,12309.79994,W,1,06,1.56,-1.4,M,-17.6,M,,*40
$GPGSA,A,3,30,07,28,13,11,17,,,,,,,2.77,1.56,2.29*01
$GPGSV,4,1,13,01,22,077,14,07,18,125,21,08,01,038,16,10,00,355,*76
$GPGSV,4,2,13,11,21,048,22,13,52,246,23,15,36,285,,17,51,176,25*7D
$GPGSV,4,3,13,19,27,191,26,20,00,326,,24,05,304,06,28,80,031,22*7B
$GPGSV,4,4,13,30,50,127,20*4B
$GPGLL,4908.68069,N,12309.79994,W,181132.00,A,A*74
$GPRMC,181133.00,A,4908.68055,N,12309.79994,W,0.832,,040520,,,A*69
$GPVTG,,T,,M,0.832,N,1.540,K,A*2A
$GPGGA,181133.00,4908.68055,N,12309.79994,W,1,06,1.56,-1.4,M,-17.6,M,,*4E
$GPGSA,A,3,30,07,28,13,11,17,,,,,,,2.77,1.56,2.29*01
$GPGSV,4,1,13,01,23,077,15,07,18,125,21,08,01,038,13,10,00,355,*73
$GPGSV,4,2,13,11,21,048,21,13,52,246,23,15,36,285,,17,51,176,25*7E
$GPGSV,4,3,13,19,27,191,25,20,00,326,,24,05,304,07,28,80,031,22*79
$GPGSV,4,4,13,30,50,127,20*4B
$GPGLL,4908.68055,N,12309.79994,W,181133.00,A,A*7A
$GPRMC,181134.00,A,4908.68054,N,12309.79988,W,0.579,,040520,,,A*60
$GPVTG,,T,,M,0.579,N,1.073,K,A*2D
$GPGGA,181134.00,4908.68054,N,12309.79988,W,1,06,1.56,-1.3,M,-17.6,M,,*42
$GPGSA,A,3,30,07,28,13,11,17,,,,,,,2.77,1.56,2.29*01
$GPGSV,4,1,13,01,23,077,15,07,18,125,22,08,01,038,10,10,00,355,*73
$GPGSV,4,2,13,11,21,048,21,13,52,246,23,15,36,285,,17,51,176,25*7E
$GPGSV,4,3,13,19,27,191,25,20,00,326,,24,05,304,07,28,80,031,21*7A
$GPGSV,4,4,13,30,50,127,20*4B
$GPGLL,4908.68054,N,12309.79988,W,181134.00,A,A*71
$GPRMC,181135.00,A,4908.68062,N,12309.80039,W,0.699,,040520,,,A*6C
$GPVTG,,T,,M,0.699,N,1.295,K,A*2A
$GPGGA,181135.00,4908.68062,N,12309.80039,W,1,06,1.56,-1.3,M,-17.6,M,,*43
$GPGSA,A,3,30,07,28,13,11,17,,,,,,,2.77,1.56,2.29*01
$GPGSV,4,1,13,01,23,077,15,07,18,125,22,08,01,038,10,10,00,355,*73
$GPGSV,4,2,13,11,21,048,21,13,52,246,24,15,36,285,,17,51,176,26*7A
$GPGSV,4,3,13,19,27,191,25,20,00,326,,24,05,304,07,28,80,031,21*7A
$GPGSV,4,4,13,30,50,127,20*4B
$GPGLL,4908.68062,N,12309.80039,W,181135.00,A,A*70
$GPRMC,181136.00,A,4908.68077,N,12309.80057,W,0.580,,040520,,,A*68
$GPVTG,,T,,M,0.580,N,1.075,K,A*2D
$GPGGA,181136.00,4908.68077,N,12309.80057,W,1,06,1.56,-1.1,M,-17.6,M,,*4E
$GPGSA,A,3,30,07,28,13,11,17,,,,,,,2.77,1.56,2.29*01
$GPGSV,4,1,13,01,23,077,15,07,18,125,22,08,01,038,10,10,00,355,*73
$GPGSV,4,2,13,11,21,048,21,13,52,246,23,15,36,285,,17,51,176,26*7D
$GPGSV,4,3,13,19,27,191,25,20,00,326,,24,05,304,07,28,80,031,21*7A
$GPGSV,4,4,13,30,50,127,20*4B
$GPGLL,4908.68077,N,12309.80057,W,181136.00,A,A*7F
$GPRMC,181137.00,A,4908.68090,N,12309.80136,W,1.010,,040520,,,A*6B
$GPVTG,,T,,M,1.010,N,1.870,K,A*2D
$GPGGA,181137.00,4908.68090,N,12309.80136,W,1,06,1.56,-1.0,M,-17.6,M,,*41
$GPGSA,A,3,30,07,28,13,11,17,,,,,,,2.77,1.56,2.29*01
$GPGSV,4,1,13,01,23,077,16,07,18,125,22,08,01,038,11,10,00,355,*71
$GPGSV,4,2,13,11,21,048,21,13,52,246,23,15,36,285,29,17,51,176,26*76
$GPGSV,4,3,13,19,27,191,25,20,00,326,26,24,05,304,,28,80,031,21*79
$GPGSV,4,4,13,30,50,127,19*41
$GPGLL,4908.68090,N,12309.80136,W,181137.00,A,A*71
$GPRMC,181138.00,A,4908.68059,N,12309.80042,W,0.331,,040520,,,A*62
$GPVTG,,T,,M,0.331,N,0.613,K,A*26
$GPGGA,181138.00,4908.68059,N,12309.80042,W,1,07,1.19,-0.7,M,-17.6,M,,*45
$GPGSA,A,3,30,07,28,13,11,15,17,,,,,,2.22,1.19,1.88*06
$GPGSV,4,1,13,01,23,077,17,07,18,125,23,08,01,038,,10,00,355,*71
$GPGSV,4,2,13,11,21,048,22,13,52,246,23,15,36,285,30,17,51,176,26*7D
$GPGSV,4,3,13,19,27,191,25,20,00,326,,24,05,304,19,28,80,031,21*75
$GPGSV,4,4,13,30,50,127,19*41
$GPGLL,4908.68059,N,12309.80042,W,181138.00,A,A*79
$GPRMC,181139.00,A,4908.68096,N,12309.79991,W,0.365,,040520,,,A*60
$GPVTG,,T,,M,0.365,N,0.676,K,A*24
$GPGGA,181139.00,4908.68096,N,12309.79991,W,1,07,1.19,-0.4,M,-17.6,M,,*45
$GPGSA,A,3,30,07,28,13,11,15,17,,,,,,2.22,1.19,1.88*06
$GPGSV,4,1,13,01,23,077,17,07,18,126,22,08,01,038,,10,00,355,16*74
$GPGSV,4,2,13,11,21,048,20,13,52,246,23,15,36,285,34,17,51,176,26*7B
$GPGSV,4,3,13,19,27,191,25,20,00,326,,24,05,304,16,28,80,031,21*7A
$GPGSV,4,4,13,30,50,127,19*41
$GPGLL,4908.68096,N,12309.79991,W,181139.00,A,A*7A
$GPRMC,181140.00,A,4908.68121,N,12309.79924,W,0.739,,040520,,,A*60
$GPVTG,,T,,M,0.739,N,1.368,K,A*22
$GPGGA,181140.00,4908.68121,N,12309.79924,W,1,07,1.19,0.0,M,-17.6,M,,*61
$GPGSA,A,3,30,07,28,13,11,15,17,,,,,,2.22,1.19,1.88*06
$GPGSV,4,1,13,01,23,077,16,07,18,126,21,08,00,038,,10,00,355,13*72
$GPGSV,4,2,13,11,21,048,20,13,52,246,25,15,36,285,31,17,51,176,27*79
$GPGSV,4,3,13,19,27,191,24,20,00,326,,24,05,304,14,28,80,031,22*7A
$GPGSV,4,4,13,30,50,127,20*4B
$GPGLL,4908.68121,N,12309.79924,W,181140.00,A,A*77
$GPRMC,181141.00,A,4908.68149,N,12309.79914,W,0.658,,040520,,,A*6A
$GPVTG,,T,,M,0.658,N,1.220,K,A*29
$GPGGA,181141.00,4908.68149,N,12309.79914,W,1,07,1.19,0.2,M,-17.6,M,,*6F
$GPGSA,A,3,30,07,28,13,11,15,17,,,,,,2.22,1.19,1.88*06
$GPGSV,4,1,13,01,23,077,14,07,18,126,21,08,00,038,,10,00,355,*72
$GPGSV,4,2,13,11,21,048,19,13,52,246,25,15,36,285,31,17,51,176,27*73
$GPGSV,4,3,13,19,27,191,24,20,00,326,,24,05,304,12,28,80,031,21*7F
$GPGSV,4,4,13,30,50,127,19*41
$GPGLL,4908.68149,N,12309.79914,W,181141.00,A,A*7B
$GPRMC,181142.00,A,4908.68136,N,12309.79906,W,0.299,,040520,,,A*6B
$GPVTG,,T,,M,0.299,N,0.554,K,A*25
$GPGGA,181142.00,4908.68136,N,12309.79906,W,1,07,1.19,0.5,M,-17.6,M,,*60
$GPGSA,A,3,30,07,28,13,11,15,17,,,,,,2.22,1.19,1.88*06
$GPGSV,4,1,13,01,23,077,14,07,18,126,21,08,00,038,,10,01,355,*73
$GPGSV,4,2,13,11,21,048,20,13,52,246,25,15,36,285,31,17,51,176,27*79
$GPGSV,4,3,13,19,27,191,24,20,00,326,,24,05,304,09,28,80,031,21*75
$GPGSV,4,4,13,30,50,127,18*40
$GPGLL,4908.68136,N,12309.79906,W,181142.00,A,A*73
$GPRMC,181143.00,A,4908.68148,N,12309.79874,W,0.397,,040520,,,A*68
$GPVTG,,T,,M,0.397,N,0.736,K,A*2C
$GPGGA,181143.00,4908.68148,N,12309.79874,W,1,07,1.19,1.0,M,-17.6,M,,*68
$GPGSA,A,3,30,07,28,13,11,15,17,,,,,,2.22,1.19,1.87*09
$GPGSV,4,1,13,01,23,077,16,07,18,126,22,08,00,038,,10,01,355,*72
$GPGSV,4,2,13,11,21,048,20,13,52,246,25,15,36,285,31,17,51,176,27*79
$GPGSV,4,3,13,19,27,191,24,20,00,326,,24,05,304,,28,80,031,21*7C
$GPGSV,4,4,13,30,50,127,18*40
$GPGLL,4908.68148,N,12309.79874,W,181143.00,A,A*7F
$GPRMC,181144.00,A,4908.68186,N,12309.79847,W,0.637,,040520,,,A*62
$GPVTG,,T,,M,0.637,N,1.181,K,A*28
$GPGGA,181144.00,4908.68186,N,12309.79847,W,1,07,1.19,1.3,M,-17.6,M,,*6E
$GPGSA,A,3,30,07,28,13,11,15,17,,,,,,2.22,1.19,1.87*09
$GPGSV,4,1,13,01,23,077,17,07,18,126,22,08,00,038,,10,01,355,*73
$GPGSV,4,2,13,11,21,048,20,13,52,246,26,15,36,285,31,17,51,176,27*7A
$GPGSV,4,3,13,19,27,191,24,20,00,326,,24,05,304,,28,80,031,22*7F
$GPGSV,4,4,13,30,50,127,19*41
$GPGLL,4908.68186,N,12309.79847,W,181144.00,A,A*7A
$GPRMC,181145.00,A,4908.68158,N,12309.79892,W,0.453,,040520,,,A*68
$GPVTG,,T,,M,0.453,N,0.839,K,A*23
$GPGGA,181145.00,4908.68158,N,12309.79892,W,1,07,1.19,1.4,M,-17.6,M,,*63
$GPGSA,A,3,30,07,28,13,11,15,17,,,,,,2.22,1.19,1.87*09
$GPGSV,4,1,13,01,23,077,18,07,18,126,22,08,00,038,,10,01,355,*7C
$GPGSV,4,2,13,11,21,048,19,13,52,245,26,15,36,285,33,17,51,176,27*71
$GPGSV,4,3,13,19,27,191,24,20,00,326,,24,05,304,,28,80,031,22*7F
$GPGSV,4,4,13,30,50,127,19*41
$GPGLL,4908.68158,N,12309.79892,W,181145.00,A,A*70
$GPRMC,181146.00,A,4908.68150,N,12309.79877,W,0.290,,040520,,,A*61
$GPVTG,,T,,M,0.290,N,0.537,K,A*2
$GPRMC,182136.00,A,4908.69400,N,12309.79559,W,1.298,,080520,,,A*60
$GPVTG,,T,,M,1.298,N,2.403,K,A*24
$GPGGA,182136.00,4908.69400,N,12309.79559,W,1,08,1.25,14.2,M,-17.6,M,,*55
$GPGSA,A,3,28,17,13,19,30,15,01,24,,,,,2.61,1.25,2.29*0E
$GPGSV,3,1,11,01,25,064,07,07,07,131,,10,02,345,,11,13,040,*7C
$GPGSV,3,2,11,13,44,231,29,15,35,271,29,17,63,169,28,19,40,192,18*74
$GPGSV,3,3,11,24,15,306,09,28,70,055,13,30,38,133,24*47
$GPGLL,4908.69400,N,12309.79559,W,182136.00,A,A*74
$GPRMC,182137.00,A,4908.69366,N,12309.79576,W,1.249,,080520,,,A*67
$GPVTG,,T,,M,1.249,N,2.312,K,A*2F
$GPGGA,182137.00,4908.69366,N,12309.79576,W,1,07,4.10,14.2,M,-17.6,M,,*52
$GPGSA,A,3,28,17,13,19,30,15,24,,,,,,6.01,4.10,4.39*09
$GPGSV,3,1,11,01,25,064,05,07,07,131,14,10,02,345,,11,13,040,09*72
$GPGSV,3,2,11,13,44,230,29,15,35,271,28,17,63,169,28,19,40,192,18*74
$GPGSV,3,3,11,24,15,306,07,28,70,055,10,30,38,133,24*4A
$GPGLL,4908.69366,N,12309.79576,W,182137.00,A,A*7F
$GPRMC,182138.00,A,4908.69208,N,12309.79691,W,1.708,,080520,,,A*6B
$GPVTG,,T,,M,1.708,N,3.163,K,A*2A
$GPGGA,182138.00,4908.69208,N,12309.79691,W,1,09,2.02,15.6,M,-17.6,M,,*50
$GPGSA,A,3,28,17,13,19,30,15,01,24,11,,,,4.83,2.02,4.38*04
$GPGSV,3,1,11,01,25,064,09,07,07,131,12,10,02,345,,11,13,040,12*72
$GPGSV,3,2,11,13,44,230,30,15,35,271,29,17,63,169,28,19,40,192,15*70
$GPGSV,3,3,11,24,15,306,08,28,70,055,20,30,38,133,24*46
$GPGLL,4908.69208,N,12309.79691,W,182138.00,A,A*73
$GPRMC,182139.00,A,4908.69037,N,12309.79815,W,2.129,246.40,080520,,,A*7A
$GPVTG,246.40,T,,M,2.129,N,3.943,K,A*3C
$GPGGA,182139.00,4908.69037,N,12309.79815,W,1,08,2.01,16.8,M,-17.6,M,,*52
$GPGSA,A,3,28,17,13,30,15,01,24,11,,,,,4.82,2.01,4.38*0E
$GPGSV,3,1,11,01,25,064,08,07,07,131,08,10,02,345,,11,13,040,10*7A
$GPGSV,3,2,11,13,44,230,28,15,35,270,28,17,63,169,27,19,40,192,09*7B
$GPGSV,3,3,11,24,15,306,07,28,70,055,16,30,38,133,23*4B
$GPGLL,4908.69037,N,12309.79815,W,182139.00,A,A*7E
$GPRMC,182140.00,A,4908.68999,N,12309.79838,W,1.894,,080520,,,A*61
$GPVTG,,T,,M,1.894,N,3.507,K,A*26
$GPGGA,182140.00,4908.68999,N,12309.79838,W,1,06,4.10,16.9,M,-17.6,M,,*56
$GPGSA,A,3,28,17,13,30,15,11,,,,,,,6.00,4.10,4.38*07
$GPGSV,3,1,11,01,25,064,,07,07,131,09,10,02,345,,11,13,040,10*73
$GPGSV,3,2,11,13,44,230,28,15,35,270,29,17,63,169,28,19,40,192,08*74
$GPGSV,3,3,11,24,15,306,,28,70,055,13,30,38,133,23*49
$GPGLL,4908.68999,N,12309.79838,W,182140.00,A,A*73
$GPRMC,182141.00,A,4908.68957,N,12309.79858,W,1.738,,080520,,,A*6D
$GPVTG,,T,,M,1.738,N,3.218,K,A*26
$GPGGA,182141.00,4908.68957,N,12309.79858,W,1,06,4.10,16.7,M,-17.6,M,,*5D
$GPGSA,A,3,28,17,13,30,15,11,,,,,,,5.99,4.10,4.37*0B
$GPGSV,3,1,11,01,25,064,,07,07,131,11,10,02,345,,11,13,040,12*78
$GPGSV,3,2,11,13,44,230,29,15,35,270,29,17,64,169,28,19,40,192,09*73
$GPGSV,3,3,11,24,15,306,,28,70,055,12,30,38,133,24*4F
$GPGLL,4908.68957,N,12309.79858,W,182141.00,A,A*76
$GPRMC,182142.00,A,4908.69656,N,12309.79389,W,0.972,,080520,,,A*67
$GPVTG,,T,,M,0.972,N,1.801,K,A*27
$GPGGA,182142.00,4908.69656,N,12309.79389,W,1,07,2.06,9.6,M,-17.6,M,,*69
$GPGSA,A,3,28,17,13,19,30,15,11,,,,,,4.82,2.06,4.36*08
$GPGSV,3,1,11,01,25,064,,07,07,131,13,10,02,345,,11,13,040,13*7B
$GPGSV,3,2,11,13,44,230,29,15,35,270,29,17,64,169,28,19,40,192,11*7A
$GPGSV,3,3,11,24,15,306,,28,70,055,10,30,38,133,24*4D
$GPGLL,4908.69656,N,12309.79389,W,182142.00,A,A*7D
$GPRMC,182143.00,A,4908.70149,N,12309.79161,W,2.379,319.70,080520,,,A*72
$GPVTG,319.70,T,,M,2.379,N,4.406,K,A*38
$GPGGA,182143.00,4908.70149,N,12309.79161,W,1,07,1.99,17.5,M,-17.6,M,,*54
$GPGSA,A,3,28,17,13,19,30,15,11,,,,,,4.13,1.99,3.62*03
$GPGSV,3,1,11,01,25,064,,07,07,131,,10,02,345,26,11,13,040,18*76
$GPGSV,3,2,11,13,44,230,28,15,35,270,29,17,64,169,28,19,40,192,22*7B
$GPGSV,3,3,11,24,15,306,,28,70,055,11,30,38,133,23*4B
$GPGLL,4908.70149,N,12309.79161,W,182143.00,A,A*79
$GPRMC,182144.00,A,4908.70186,N,12309.79111,W,2.436,349.16,080520,,,A*78
$GPVTG,349.16,T,,M,2.436,N,4.511,K,A*36
$GPGGA,182144.00,4908.70186,N,12309.79111,W,1,06,4.09,17.2,M,-17.6,M,,*5D
$GPGSA,A,3,17,13,30,15,01,24,,,,,,,5.98,4.09,4.36*0E
$GPGSV,3,1,11,01,25,064,14,07,07,131,,10,02,345,21,11,13,040,15*79
$GPGSV,3,2,11,13,44,230,27,15,35,270,27,17,64,169,27,19,40,192,21*76
$GPGSV,3,3,11,24,15,306,14,28,70,055,09,30,38,133,21*45
$GPGLL,4908.70186,N,12309.79111,W,182144.00,A,A*7A
$GPRMC,182145.00,A,4908.70188,N,12309.79074,W,2.256,,080520,,,A*62
$GPVTG,,T,,M,2.256,N,4.178,K,A*2A
$GPGGA,182145.00,4908.70188,N,12309.79074,W,1,04,4.09,16.9,M,-17.6,M,,*58
$GPGSA,A,3,17,13,30,15,,,,,,,,,5.98,4.09,4.36*09
$GPGSV,3,1,11,01,25,064,,07,07,131,,10,02,345,23,11,13,040,*7A
$GPGSV,3,2,11,13,44,230,27,15,35,270,27,17,64,169,27,19,40,192,20*77
$GPGSV,3,3,11,24,15,306,,28,70,055,08,30,38,133,21*41
$GPGLL,4908.70188,N,12309.79074,W,182145.00,A,A*77
$GPRMC,182146.00,A,4908.70199,N,12309.79006,W,2.020,,080520,,,A*67
$GPVTG,,T,,M,2.020,N,3.741,K,A*22
$GPGGA,182146.00,4908.70199,N,12309.79006,W,1,05,4.09,16.2,M,-17.6,M,,*54
$GPGSA,A,3,17,13,30,15,11,,,,,,,,5.98,4.09,4.36*09
$GPGSV,3,1,11,01,25,064,,07,07,131,,10,02,345,,11,13,040,16*7C
$GPGSV,3,2,11,13,44,230,27,15,35,270,27,17,64,169,26,19,40,192,18*7D
$GPGSV,3,3,11,24,15,306,26,28,70,055,,30,38,133,21*4D
$GPGLL,4908.70199,N,12309.79006,W,182146.00,A,A*71
$GPRMC,182147.00,A,4908.70184,N,12309.79001,W,1.401,,080520,,,A*69
$GPVTG,,T,,M,1.401,N,2.595,K,A*2C
$GPGGA,182147.00,4908.70184,N,12309.79001,W,1,06,4.09,16.1,M,-17.6,M,,*5E
$GPGSA,A,3,28,17,13,19,30,15,,,,,,,5.97,4.09,4.35*07
$GPGSV,3,1,12,01,25,064,,07,07,131,,10,02,345,22,11,13,040,*78
$GPGSV,3,2,12,13,44,230,27,15,35,270,27,17,64,169,26,19,40,192,17*71
$GPGSV,3,3,12,23,,,22,24,15,306,,28,70,055,14,30,38,133,21*4E
$GPGLL,4908.70184,N,12309.79001,W,182147.00,A,A*7B
$GPRMC,182148.00,A,4908.70097,N,12309.78937,W,1.290,,080520,,,A*66
$GPVTG,,T,,M,1.290,N,2.390,K,A*21
$GPGGA,182148.00,4908.70097,N,12309.78937,W,1,05,4.28,9.1,M,-17.6,M,,*61
$GPGSA,A,2,28,17,13,19,15,,,,,,,,4.40,4.28,1.00*0E
$GPGSV,3,1,12,01,25,064,09,07,07,131,,10,02,345,,11,13,040,*71
$GPGSV,3,2,12,13,44,230,27,15,35,270,27,17,64,169,26,19,40,192,17*71
$GPGSV,3,3,12,23,,,18,24,16,306,24,28,70,055,14,30,38,133,22*41
$GPGLL,4908.70097,N,12309.78937,W,182148.00,A,A*7A
$GPRMC,182149.00,A,4908.70110,N,12309.78921,W,1.238,,080520,,,A*6C
$GPVTG,,T,,M,1.238,N,2.293,K,A*21
$GPGGA,182149.00,4908.70110,N,12309.78921,W,1,05,4.28,10.1,M,-17.6,M,,*51
$GPGSA,A,2,17,13,19,15,01,,,,,,,,4.40,4.28,1.00*05
$GPGSV,3,1,12,01,25,064,13,07,07,131,16,10,02,345,,11,13,040,*7D
$GPGSV,3,2,12,13,44,230,26,15,35,270,26,17,64,169,26,19,40,192,17*71
$GPGSV,3,3,12,23,,,22,24,16,306,,28,70,055,,30,38,133,*4B
$GPGLL,4908.70110,N,12309.78921,W,182149.00,A,A*72
$GPRMC,182150.00,A,4908.70084,N,12309.78965,W,0.743,,080520,,,A*60
$GPVTG,,T,,M,0.743,N,1.375,K,A*23
$GPGGA,182150.00,4908.70084,N,12309.78965,W,1,06,4.28,10.9,M,-17.6,M,,*5E
$GPGSA,A,2,28,17,13,30,15,01,,,,,,,4.40,4.28,1.00*04
$GPGSV,3,1,12,01,25,064,15,07,07,131,14,10,02,345,,11,13,040,*79
$GPGSV,3,2,12,13,44,230,26,15,35,270,25,17,64,169,25,19,40,192,*77
$GPGSV,3,3,12,23,,,19,24,16,306,,28,70,055,16,30,38,133,16*43
$GPGLL,4908.70084,N,12309.78965,W,182150.00,A,A*76
$GPRMC,182151.00,A,4908.69943,N,12309.79111,W,0.573,,080520,,,A*60
$GPVTG,,T,,M,0.573,N,1.061,K,A*24
$GPGGA,182151.00,4908.69943,N,12309.79111,W,1,08,4.43,11.1,M,-17.6,M,,*55
$GPGSA,A,3,28,17,13,19,30,15,01,11,,,,,8.82,4.43,7.62*00
$GPGSV,3,1,12,01,25,064,16,07,07,131,13,10,02,345,,11,13,040,15*79
$GPGSV,3,2,12,13,44,230,25,15,35,270,26,17,64,169,25,19,40,192,16*70
$GPGSV,3,3,12,23,,,17,24,16,306,,28,70,055,17,30,38,133,16*4C
$GPGLL,4908.69943,N,12309.79111,W,182151.00,A,A*77
$GPRMC,182152.00,V,,,,,,,080520,,,N*7F
$GPVTG,,,,,,,,,N*30
$GPGGA,182152.00,,,,,0,00,99.99,,,,,,*6B
$GPGSA,A,1,,,,,,,,,,,,,99.99,99.99,99.99*30
$GPGSV,3,1,12,01,25,064,16,07,07,131,14,10,02,345,,11,13,040,*7A
$GPGSV,3,2,12,13,44,230,25,15,35,270,,17,64,169,25,19,40,192,15*77
$GPGSV,3,3,12,23,,,14,24,16,306,20,28,70,056,17,30,38,133,15*4D
$GPGLL,,,,,182152.00,V,N*47
$GPRMC,182153.00,V,,,,,,,080520,,,N*7E
$GPVTG,,,,,,,,,N*30
$GPGGA,182153.00,,,,,0,00,99.99,,,,,,*6A
$GPGSA,A,1,,,,,,,,,,,,,99.99,99.99,99.99*30
$GPGSV,3,1,12,01,25,064,20,07,07,131,15,10,02,345,26,11,13,040,18*73
$GPGSV,3,2,12,13,44,230,25,15,35,270,26,17,64,169,26,19,40,192,16*73
$GPGSV,3,3,12,23,,,14,24,16,306,19,28,70,056,17,30,38,133,15*47
$GPGLL,,,,,182153.00,V,N*46
$GPRMC,182154.00,A,4908.69699,N,12309.79514,W,1.879,,080520,,,A*6A
$GPVTG,,T,,M,1.879,N,3.479,K,A*2D
$GPGGA,182154.00,4908.69699,N,12309.79514,W,1,05,2.85,10.6,M,-17.6,M,,*5E
$GPGSA,A,3,28,17,13,30,01,,,,,,,,6.15,2.85,5.45*07
$GPGSV,3,1,12,01,25,064,20,07,07,131,13,10,02,345,,11,13,040,*78
$GPGSV,3,2,12,13,44,230,25,15,35,270,,17,64,169,25,19,40,192,*73
$GPGSV,3,3,12,23,,,14,24,16,306,17,28,70,056,16,30,38,134,15*4F
$GPGLL,4908.69699,N,12309.79514,W,182154.00,A,A*7B
$GPRMC,182155.00,A,4908.69556,N,12309.79805,W,2.392,,080520,,,A*6B
$GPVTG,,T,,M,2.392,N,4.430,K,A*2A
$GPGGA,182155.00,4908.69556,N,12309.79805,W,1,04,2.85,10.1,M,-17.6,M,,*54
$GPGSA,A,3,28,17,13,30,,,,,,,,,6.15,2.85,5.45*06
$GPGSV,3,1,12,01,25,064,19,07,07,131,,10,02,345,,11,13,040,*70
$GPGSV,3,2,12,13,44,230,25,15,35,270,,17,64,169,25,19,40,192,17*75
$GPGSV,3,3,12,23,,,14,24,16,306,21,28,70,056,16,30,38,134,14*4B
$GPGLL,4908.69556,N,12309.79805,W,182155.00,A,A*77
$GPRMC,182156.00,V,,,,,,,080520,,,N*7B
$GPVTG,,,,,,,,,N*30
$GPGGA,182156.00,,,,,0,00,99.99,,,,,,*6F
$GPGSA,A,1,,,,,,,,,,,,,99.99,99.99,99.99*30
$GPGSV,3,1,12,01,25,064,15,07,07,131,,10,02,345,,11,13,040,05*79
$GPGSV,3,2,12,13,44,230,25,15,35,270,22,17,64,169,25,19,40,192,15*77
$GPGSV,3,3,12,23,,,14,24,16,306,18,28,70,056,,30,38,134,14*46
$GPGLL,,,,,182156.00,V,N*43
$GPRMC,182157.00,A,4908.69501,N,12309.79842,W,1.331,,080520,,,A*62
$GPVTG,,T,,M,1.331,N,2.464,K,A*27
$GPGGA,182157.00,4908.69501,N,12309.79842,W,1,06,4.07,10.2,M,-17.6,M,,*5A
$GPGSA,A,3,28,17,13,30,15,01,,,,,,,5.94,4.07,4.32*04
$GPGSV,3,1,12,01,25,064,16,07,07,131,,10,02,345,,11,13,040,*7F
$GPGSV,3,2,12,13,44,230,25,15,35,270,24,17,64,169,25,19,40,192,15*71
$GPGSV,3,3,12,23,,,14,24,16,306,,28,70,056,17,30,38,134,15*48
$GPGLL,4908.69501,N,12309.79842,W,182157.00,A,A*74
$GPRMC,182158.00,A,4908.69580,N,12309.79891,W,0.850,,080520,,,A*67
$GPVTG,,T,,M,0.850,N,1.574,K,A*29
$GPGGA,182158.00,4908.69580,N,12309.79891,W,1,06,1.99,10.3,M,-17.6,M,,*51
$GPGSA,A,3,17,13,30,15,01,24,,,,,,,4.75,1.99,4.32*04
$GPGSV,3,1,12,01,25,064,16,07,07,131,,10,02,345,18,11,13,040,22*76
$GPGSV,3,2,12,13,44,230,25,15,35,270,26,17,64,169,26,19,40,192,15*70
$GPGSV,3,3,12,23,,,26,24,16,306,17,28,70,056,18,30,38,134,16*43
$GPGLL,4908.69580,N,12309.79891,W,182158.00,A,A*7C
$GPRMC,182159.00,A,4908.69563,N,12309.79926,W,0.699,,080520,,,A*6D
$GPVTG,,T,,M,0.699,N,1.295,K,A*2A
$GPGGA,182159.00,4908.69563,N,12309.79926,W,1,07,1.99,10.5,M,-17.6,M,,*57
$GPGSA,A,3,28,17,13,19,30,15,01,,,,,,4.75,1.99,4.31*03
$GPGSV,3,1,11,01,25,064,17,07,07,131,,10,02,345,,11,13,040,20*7F
$GPGSV,3,2,11,13,44,230,25,15,35,270,26,17,64,169,26,19,40,192,13*75
$GPGSV,3,3,11,24,16,306,16,28,70,056,18,30,38,134,15*47
$GPGLL,4908.69563,N,12309.79926,W,182159.00,A,A*7D
$GPRMC,182200.00,A,4908.69463,N,12309.79925,W,0.770,,080520,,,A*66
$GPVTG,,T,,M,0.770,N,1.426,K,A*22
$GPGGA,182200.00,4908.69463,N,12309.79925,W,1,05,1.99,10.6,M,-17.6,M,,*5B
$GPGSA,A,3,17,13,30,15,01,,,,,,,,4.75,1.99,4.31*01
$GPGSV,3,1,11,01,25,064,17,07,07,131,,10,02,345,17,11,13,040,17*7D
$GPGSV,3,2,11,13,44,230,25,15,35,270,26,17,64,169,25,19,40,192,*74
$GPGSV,3,3,11,24,16,306,16,28,70,056,18,30,38,134,17*45
$GPGLL,4908.69463,N,12309.79925,W,182200.00,A,A*70
$GPRMC,182201.00,A,4908.69410,N,12309.79950,W,0.759,,080520,,,A*6A
$GPVTG,,T,,M,0.759,N,1.406,K,A*2B
$GPGGA,182201.00,4908.69410,N,12309.79950,W,1,07,1.99,10.7,M,-17.6,M,,*5F
$GPGSA,A,3,28,17,13,19,30,15,01,,,,,,4.74,1.99,4.31*02
$GPGSV,3,1,12,01,25,064,17,07,07,131,,10,02,345,,11,13,040,15*7A
$GPGSV,3,2,12,13,44,230,26,15,35,270,26,17,64,169,25,19,40,192,17*72
$GPGSV,3,3,12,23,,,25,24,16,306,,28,70,056,16,30,38,134,18*46
$GPGLL,4908.69410,N,12309.79950,W,182201.00,A,A*77
$GPRMC,182202.00,A,4908.69327,N,12309.79951,W,0.870,,080520,,,A*6F
$GPVTG,,T,,M,0.870,N,1.611,K,A*2B
$GPGGA,182202.00,4908.69327,N,12309.79951,W,1,06,1.99,10.7,M,-17.6,M,,*5F
$GPGSA,A,3,28,17,13,30,15,01,,,,,,,4.74,1.99,4.30*0B
$GPGSV,3,1,12,01,25,064,18,07,07,131,,10,02,345,,11,13,040,*71
$GPGSV,3,2,12,13,44,230,26,15,35,270,27,17,64,169,26,19,40,192,16*71
$GPGSV,3,3,12,23,,,24,24,16,306,,28,70,056,16,30,38,134,20*4C
$GPGLL,4908.69327,N,12309.79951,W,182202.00,A,A*76
$GPRMC,182203.00,A,4908.69274,N,12309.79872,W,1.051,,080520,,,A*63
$GPVTG,,T,,M,1.051,N,1.947,K,A*2D
$GPGGA,182203.00,4908.69274,N,12309.79872,W,1,07,1.41,10.8,M,-17.6,M,,*52
$GPGSA,A,3,28,17,13,19,30,15,01,,,,,,2.73,1.41,2.34*05
$GPGSV,3,1,12,01,25,064,17,07,07,131,,10,02,345,,11,13,040,*7E
$GPGSV,3,2,12,13,44,230,25,15,35,270,26,17,64,169,25,19,40,192,16*70
$GPGSV,3,3,12,23,,,23,24,16,306,,28,70,056,16,30,38,134,19*41
$GPGLL,4908.69274,N,12309.79872,W,182203.00,A,A*70
$GPRMC,182204.00,A,4908.69296,N,12309.79826,W,0.515,,080520,,,A*6D
$GPVTG,,T,,M,0.515,N,0.953,K,A*2D
$GPGGA,182204.00,4908.69296,N,12309.79826,W,1,07,1.91,10.6,M,-17.6,M,,*5B
$GPGSA,A,3,28,17,13,19,30,15,01,,,,,,4.50,1.91,4.07*09
$GPGSV,3,1,12,01,25,064,15,07,07,131,,10,02,345,18,11,13,040,21*76
$GPGSV,3,2,12,13,44,230,26,15,35,270,26,17,64,169,24,19,40,192,16*72
$GPGSV,3,3,12,23,,,22,24,16,306,,28,70,056,16,30,38,134,19*40
$GPGLL,4908.69296,N,12309.79826,W,182204.00,A,A*7A
$GPRMC,182205.00,V,,,,,,,080520,,,N*7E
$GPVTG,,,,,,,,,N*30
$GPGGA,182205.00,,,,,0,00,99.99,,,,,,*6A
$GPGSA,A,1,,,,,,,,,,,,,99.99,99.99,99.99*30
$GPGSV,3,1,12,01,25,064,,07,07,131,,10,02,345,,11,13,040,18*71
$GPGSV,3,2,12,13,44,230,26,15,35,270,26,17,64,169,24,19,40,192,21*76
$GPGSV,3,3,12,23,,,22,24,16,306,,28,70,056,14,30,38,134,18*43
$GPGLL,,,,,182205.00,V,N*46
$GPRMC,182206.00,V,,,,,,,080520,,,N*7D
$GPVTG,,,,,,,,,N*30
$GPGGA,182206.00,,,,,0,00,99.99,,,,,,*69
$GPGSA,A,1,,,,,,,,,,,,,99.99,99.99,99.99*30
$GPGSV,3,1,12,01,25,064,18,07,07,131,,10,02,345,,11,13,040,14*74
$GPGSV,3,2,12,13,44,230,26,15,35,270,26,17,64,169,24,19,40,192,20*77
$GPGSV,3,3,12,23,,,22,24,16,306,,28,70,056,13,30,38,134,17*4B
$GPGLL,,,,,182206.00,V,N*45
$GPRMC,182207.00,V,,,,,,,080520,,,N*7C
$GPVTG,,,,,,,,,N*30
$GPGGA,182207.00,,,,,0,00,99.99,,,,,,*68
$GPGSA,A,1,,,,,,,,,,,,,99.99,99.99,99.99*30
$GPGSV,3,1,12,01,25,064,15,07,07,131,,10,02,345,,11,13,040,*7C
$GPGSV,3,2,12,13,44,230,26,15,35,270,26,17,64,169,23,19,40,192,18*7B
$GPGSV,3,3,12,23,,,22,24,16,306,,28,70,056,12,30,38,134,16*4B
$GPGLL,,,,,182207.00,V,N*44
$GPRMC,182208.00,A,4908.69263,N,12309.79896,W,0.245,,080520,,,A*62
$GPVTG,,T,,M,0.245,N,0.453,K,A*22
$GPGGA,182208.00,4908.69263,N,12309.79896,W,1,05,1.99,10.6,M,-17.6,M,,*5C
$GPGSA,A,3,28,17,13,30,15,,,,,,,,4.11,1.99,3.60*0B
$GPGSV,3,1,12,01,25,064,,07,07,131,,10,02,345,,11,13,040,21*7B
$GPGSV,3,2,12,13,44,230,25,15,35,270,26,17,64,169,23,19,40,192,17*77
$GPGSV,3,3,12,23,,,21,24,16,306,,28,70,056,13,30,38,134,16*49
$GPGLL,4908.69263,N,12309.79896,W,182208.00,A,A*77
$GPRMC,182209.00,A,4908.69160,N,12309.80082,W,0.841,,080520,,,A*66
$GPVTG,,T,,M,0.841,N,1.557,K,A*28
$GPGGA,182209.00,4908.69160,N,12309.80082,W,1,07,1.99,10.6,M,-17.6,M,,*54
$GPGSA,A,3,28,17,13,19,30,15,01,,,,,,4.11,1.99,3.60*02
$GPGSV,3,1,12,01,25,064,15,07,07,131,,10,02,345,19,11,13,040,19*7C
$GPGSV,3,2,12,13,44,230,25,15,35,270,26,17,64,169,23,19,40,192,16*76
$GPGSV,3,3,12,23,,,22,24,16,306,,28,70,056,17,30,38,134,17*4F
$GPGLL,4908.69160,N,12309.80082,W,182209.00,A,A*7D
$GPRMC,182210.00,A,4908.69032,N,12309.80159,W,1.281,,080520,,,A*68
$GPVTG,,T,,M,1.281,N,2.373,K,A*2C
$GPGGA,182210.00,4908.69032,N,12309.80159,W,1,07,1.99,10.5,M,-17.6,M,,*5E
$GPGSA,A,3,28,17,13,19,30,15,01,,,,,,4.11,1.99,3.60*02
$GPGSV,3,1,12,01,25,064,14,07,07,131,,10,02,345,,11,13,040,16*7A
$GPGSV,3,2,12,13,44,230,25,15,35,270,25,17,64,169,22,19,40,192,25*74
$GPGSV,3,3,12,23,,,26,24,16,306,,28,70,056,16,30,38,134,17*4A
$GPGLL,4908.69032,N,12309.80159,W,182210.00,A,A*74
$GPRMC,182211.00,A,4908.68972,N,12309.80319,W,1.567,,080520,,,A*6C
$GPVTG,,T,,M,1.567,N,2.903,K,A*2E
$GPGGA,182211.00,4908.68972,N,12309.80319,W,1,07,1.99,10.5,M,-17.6,M,,*55
$GPGSA,A,3,28,17,13,19,30,15,01,,,,,,4.11,1.99,3.60*02
$GPGSV,3,1,12,01,25,064,12,07,07,131,,10,02,345,15,11,13,040,16*78
$GPGSV,3,2,12,13,44,230,25,15,35,270,26,17,64,169,22,19,40,192,19*78
$GPGSV,3,3,12,23,,,27,24,16,306,,28,70,056,16,30,38,134,16*4A
$GPGLL,4908.68972,N,12309.80319,W,182211.00,A,A*7F
$GPRMC,182212.00,A,4908.68941,N,12309.80420,W,1.934,,080520,,,A*68
$GPVTG,,T,,M,1.934,N,3.582,K,A*20
$GPGGA,182212.00,4908.68941,N,12309.80420,W,1,04,4.05,10.6,M,-17.6,M,,*5B
$GPGSA,A,3,17,13,30,15,,,,,,,,,5.89,4.05,4.27*05
$GPGSV,3,1,12,01,25,064,10,07,07,131,21,10,02,345,,11,13,040,*7A
$GPGSV,3,2,12,13,44,230,26,15,35,270,26,17,64,169,22,19,40,192,*73
$GPGSV,3,3,12,23,,,25,24,16,306,,28,70,056,,30,38,134,16*4F
$GPGLL,4908.68941,N,12309.80420,W,182212.00,A,A*71
$GPRMC,182213.00,A,4908.69014,N,12309.80397,W,1.353,,080520,,,A*61
$GPVTG,,T,,M,1.353,N,2.505,K,A*25
$GPGGA,182213.00,4908.69014,N,12309.80397,W,1,06,4.05,10.7,M,-17.6,M,,*5A
$GPGSA,A,3,28,17,13,19,30,15,,,,,,,5.89,4.05,4.27*07
$GPGSV,3,1,12,01,25,064,09,07,07,131,,10,02,345,,11,13,040,14*74
$GPGSV,3,2,12,13,44,230,25,15,35,270,25,17,64,169,22,19,40,192,16*74
$GPGSV,3,3,12,23,,,23,24,16,306,20,28,70,056,16,30,38,134,16*4C
$GPGLL,4908.69014,N,12309.80397,W,182213.00,A,A*73
$GPRMC,182214.00,A,4908.68976,N,12309.80403,W,1.313,,080520,,,A*64
$GPVTG,,T,,M,1.313,N,2.432,K,A*24
$GPGGA,182214.00,4908.68976,N,12309.80403,W,1,05,4.05,10.7,M,-17.6,M,,*58
$GPGSA,A,3,28,17,13,30,15,,,,,,,,5.88,4.05,4.27*0E
$GPGSV,3,1,12,01,25,064,08,07,07,131,,10,02,345,,11,13,040,13*72
$GPGSV,3,2,12,13,44,230,25,15,35,270,25,17,64,169,22,19,40,192,14*76
$GPGSV,3,3,12,23,,,22,24,16,306,17,28,70,056,15,30,38,134,16*4A
$GPGLL,4908.68976,N,12309.80403,W,182214.00,A,A*72
$GPRMC,182215.00,A,4908.68922,N,12309.80344,W,1.366,,080520,,,A*62
$GPVTG,,T,,M,1.366,N,2.530,K,A*25
$GPGGA,182215.00,4908.68922,N,12309.80344,W,1,07,1.97,10.8,M,-17.6,M,,*5F
$GPGSA,A,3,28,17,13,30,15,01,24,,,,,,4.69,1.97,4.26*08
$GPGSV,3,1,12,01,25,064,11,07,07,131,,10,02,345,,11,13,040,*78
$GPGSV,3,2,12,13,44,230,25,15,35,270,26,17,64,169,22,19,40,192,*70
$GPGSV,3,3,12,23,,,22,24,16,306,11,28,70,056,14,30,38,134,18*43
$GPGLL,4908.68922,N,12309.80344,W,182215.00,A,A*76
$GPRMC,182216.00,A,4908.68967,N,12309.80308,W,1.042,,080520,,,A*6D
$GPVTG,,T,,M,1.042,N,1.930,K,A*2F
$GPGGA,182216.00,4908.68967,N,12309.80308,W,1,05,1.97,10.7,M,-17.6,M,,*58
$GPGSA,A,3,17,13,30,15,01,,,,,,,,4.69,1.97,4.26*04
$GPGSV,3,1,12,01,25,064,13,07,07,131,,10,02,345,,11,13,040,*7A
$GPGSV,3,2,12,13,44,230,25,15,35,270,26,17,64,169,22,19,40,192,16*77
$GPGSV,3,3,12,23,,,22,24,16,306,10,28,70,056,15,30,38,134,18*43
$GPGLL,4908.68967,N,12309.80308,W,182216.00,A,A*7C
$GPRMC,182217.00,A,4908.68928,N,12309.80202,W,1.282,,080520,,,A*62
$GPVTG,,T,,M,1.282,N,2.374,K,A*28
$GPGGA,182217.00,4908.68928,N,12309.80202,W,1,05,4.05,10.7,M,-17.6,M,,*57
$GPGSA,A,3,28,17,13,30,15,,,,,,,,5.87,4.05,4.26*00
$GPGSV,3,1,12,01,25,064,,07,07,131,20,10,02,345,,11,13,040,*7A
$GPGSV,3,2,12,13,44,230,25,15,35,270,26,17,64,169,23,19,40,192,14*74
$GPGSV,3,3,12,23,,,22,24,16,306,12,28,70,056,15,30,38,134,18*41
$GPGLL,4908.68928,N,12309.80202,W,182217.00,A,A*7D
$GPRMC,182218.00,A,4908.68896,N,12309.80183,W,1.257,,080520,,,A*6B
$GPVTG,,T,,M,1.257,N,2.328,K,A*29
$GPGGA,182218.00,4908.68896,N,12309.80183,W,1,06,4.05,10.8,M,-17.6,M,,*5A
$GPGSA,A,3,28,17,13,30,15,01,,,,,,,5.87,4.05,4.25*02
$GPGSV,3,1,11,01,25,064,19,07,07,131,18,10,02,345,18,11,13,040,*73
$GPGSV,3,2,11,13,44,230,26,15,35,270,27,17,64,169,23,19,40,192,13*72
$GPGSV,3,3,11,24,16,306,,28,70,056,14,30,38,134,18*41
$GPGLL,4908.68896,N,12309.80183,W,182218.00,A,A*7C
$GPRMC,182219.00,A,4908.68905,N,12309.80210,W,0.780,,080520,,,A*66
$GPVTG,,T,,M,0.780,N,1.444,K,A*29
$GPGGA,182219.00,4908.68905,N,12309.80210,W,1,04,4.04,10.8,M,-17.6,M,,*5A
$GPGSA,A,3,17,13,30,15,,,,,,,,,5.87,4.04,4.25*08
$GPGSV,3,1,11,01,25,064,,07,07,131,,10,02,345,16,11,13,040,*7C
$GPGSV,3,2,11,13,44,230,26,15,35,270,25,17,64,169,22,19,40,192,13*71
$GPGSV,3,3,11,24,16,306,,28,70,056,,30,38,134,18*44
$GPGLL,4908.68905,N,12309.80210,W,182219.00,A,A*7F
$GPRMC,182220.00,A,4908.68886,N,12309.80239,W,0.816,,080520,,,A*6D
$GPVTG,,T,,M,0.816,N,1.510,K,A*29
$GPGGA,182220.00,4908.68886,N,12309.80239,W,1,05,4.04,10.9,M,-17.6,M,,*51
$GPGSA,A,3,28,17,13,30,15,,,,,,,,5.86,4.04,4.25*03
$GPGSV,3,1,11,01,25,064,15,07,07,131,,10,02,345,,11,13,040,*7F
$GPGSV,3,2,11,13,44,230,26,15,35,270,25,17,64,169,22,19,40,192,*73
$GPGSV,3,3,11,24,16,306,,28,70,056,16,30,38,134,18*43
$GPGLL,4908.68886,N,12309.80239,W,182220.00,A,A*74
$GPRMC,182221.00,A,4908.68857,N,12309.80218,W,0.935,,080520,,,A*63
$GPVTG,,T,,M,0.935,N,1.732,K,A*2B
$GPGGA,182221.00,4908.68857,N,12309.80218,W,1,04,4.04,11.0,M,-17.6,M,,*56
$GPGSA,A,3,17,13,30,15,,,,,,,,,5.86,4.04,4.24*08
$GPGSV,3,1,11,01,25,064,14,07,07,131,,10,02,345,19,11,13,040,*76
$GPGSV,3,2,11,13,44,230,26,15,35,270,26,17,64,169,23,19,40,192,18*78
$GPGSV,3,3,11,24,16,306,,28,70,056,16,30,38,134,19*42
$GPGLL,4908.68857,N,12309.80218,W,182221.00,A,A*7A
$GPRMC,182222.00,A,4908.68849,N,12309.80228,W,1.092,,080520,,,A*69
$GPVTG,,T,,M,1.092,N,2.023,K,A*2A
$GPGGA,182222.00,4908.68849,N,12309.80228,W,1,06,4.04,11.0,M,-17.6,M,,*5B
$GPGSA,A,3,28,17,13,30,15,01,,,,,,,5.86,4.04,4.24*03
$GPGSV,3,1,11,01,25,064,13,07,07,131,,10,02,345,,11,13,040,*79
$GPGSV,3,2,11,13,44,230,26,15,35,270,31,17,64,169,23,19,40,192,17*71
$GPGSV,3,3,11,24,16,306,,28,70,056,15,30,38,134,19*41
$GPGLL,4908.68849,N,12309.80228,W,182222.00,A,A*75
$GPRMC,182223.00,V,,,,,,,080520,,,N*7A
$GPVTG,,,,,,,,,N*30
$GPGGA,182223.00,,,,,0,00,99.99,,,,,,*6E
$GPGSA,A,1,,,,,,,,,,,,,99.99,99.99,99.99*30
$GPGSV,3,1,11,01,25,064,12,07,07,131,,10,02,345,21,11,13,040,*7B
$GPGSV,3,2,11,13,44,230,26,15,35,270,26,17,64,169,21,19,40,192,17*75
$GPGSV,3,3,11,24,16,306,,28,70,056,,30,38,134,*4D
$GPGLL,,,,,182223.00,V,N*42
$GPRMC,182224.00,V,,,,,,,080520,,,N*7D
$GPVTG,,,,,,,,,N*30
$GPGGA,182224.00,,,,,0,00,99.99,,,,,,*69
$GPGSA,A,1,,,,,,,,,,,,,99.99,99.99,99.99*30
$GPGSV,3,1,11,01,25,064,,07,07,131,,10,02,345,19,11,13,040,*73
$GPGSV,3,2,11,13,44,230,26,15,35,270,27,17,64,169,21,19,40,192,20*70
$GPGSV,3,3,11,24,16,306,20,28,70,056,16,30,38,134,18*41
$GPGLL,,,,,182224.00,V,N*45
$GPRMC,182225.00,V,,,,,,,080520,,,N*7C
$GPVTG,,,,,,,,,N*30
$GPGGA,182225.00,,,,,0,00,99.99,,,,,,*68
$GPGSA,A,1,,,,,,,,,,,,,99.99,99.99,99.99*30
$GPGSV,3,1,11,01,25,064,,07,07,131,,10,02,345,,11,13,040,*7B
$GPGSV,3,2,11,13,44,230,26,15,35,270,28,17,64,169,21,19,40,192,18*74
$GPGSV,3,3,11,24,16,306,,28,70,056,15,30,38,134,19*41
$GPGLL,,,,,182225.00,V,N*44
$GPRMC,182226.00,V,,,,,,,080520,,,N*7F
$GPVTG,,,,,,,,,N*30
$GPGGA,182226.00,,,,,0,00,99.99,,,,,,*6B
$GPGSA,A,1,,,,,,,,,,,,,99.99,99.99,99.99*30
$GPGSV,3,1,12,01,25,064,,07,07,131,,10,02,345,23,11,13,040,*79
$GPGSV,3,2,12,13,44,230,26,15,35,270,28,17,64,169,,19,40,192,16*7A
$GPGSV,3,3,12,23,,,21,24,16,306,23,28,70,056,,30,38,134,20*4F
$GPGLL,,,,,182226.00,V,N*47
$GPRMC,182227.00,V,,,,,,,080520,,,N*7E
$GPVTG,,,,,,,,,N*30
$GPGGA,182227.00,,,,,0,00,99.99,,,,,,*6A
$GPGSA,A,1,,,,,,,,,,,,,99.99,99.99,99.99*30
$GPGSV,3,1,12,01,25,064,16,07,07,131,,10,02,345,,11,13,040,21*7C
$GPGSV,3,2,12,13,44,230,26,15,35,270,27,17,64,169,20,19,40,192,14*75
$GPGSV,3,3,12,23,,,21,24,16,306,,28,70,056,16,30,38,134,19*43
$GPGLL,,,,,182227.00,V,N*46
$GPRMC,182228.00,V,,,,,,,080520,,,N*71
$GPVTG,,,,,,,,,N*30
$GPGGA,182228.00,,,,,0,00,99.99,,,,,,*65
$GPGSA,A,1,,,,,,,,,,,,,99.99,99.99,99.99*30
$GPGSV,3,1,12,01,25,064,,07,07,131,,10,02,345,21,11,13,040,*7B
$GPGSV,3,2,12,13,44,230,26,15,35,270,28,17,64,169,20,19,40,192,*7F
$GPGSV,3,3,12,23,,,21,24,16,306,25,28,70,056,,30,38,134,19*43
$GPGLL,,,,,182228.00,V,N*49
$GPRMC,182229.00,A,4908.68774,N,12309.80129,W,0.687,,080520,,,A*62
$GPVTG,,T,,M,0.687,N,1.272,K,A*2C
$GPGGA,182229.00,4908.68774,N,12309.80129,W,1,04,4.03,10.9,M,-17.6,M,,*5E
$GPGSA,A,3,17,13,30,15,,,,,,,,,5.83,4.03,4.22*0C
$GPGSV,3,1,12,01,25,064,,07,07,131,,10,02,345,,11,13,040,*78
$GPGSV,3,2,12,13,44,230,25,15,35,270,28,17,64,169,20,19,40,192,*7C
$GPGSV,3,3,12,23,,,22,24,16,306,,28,70,056,,30,38,134,20*4D
$GPGLL,4908.68774,N,12309.80129,W,182229.00,A,A*7D
$GPRMC,182230.00,A,4908.68741,N,12309.80171,W,0.784,,080520,,,A*63
$GPVTG,,T,,M,0.784,N,1.452,K,A*2A
$GPGGA,182230.00,4908.68741,N,12309.80171,W,1,05,4.03,10.8,M,-17.6,M,,*5D
$GPGSA,A,3,28,17,13,30,15,,,,,,,,5.83,4.03,4.22*06
$GPGSV,3,1,12,01,25,064,26,07,07,131,,10,02,345,,11,13,040,*7C
$GPGSV,3,2,12,13,44,230,26,15,35,270,29,17,64,169,21,19,40,192,*7F
$GPGSV,3,3,12,23,,,21,24,16,306,,28,70,056,18,30,38,134,20*47
$GPGLL,4908.68741,N,12309.80171,W,182230.00,A,A*7E
$GPRMC,182231.00,A,4908.68731,N,12309.80135,W,0.770,,080520,,,A*6E
$GPVTG,,T,,M,0.770,N,1.426,K,A*22
$GPGGA,182231.00,4908.68731,N,12309.80135,W,1,05,4.03,10.7,M,-17.6,M,,*54
$GPGSA,A,3,17,13,30,15,01,,,,,,,,5.83,4.03,4.21*0E
$GPGSV,3,1,12,01,25,064,21,07,07,131,,10,02,345,19,11,13,040,*73
$GPGSV,3,2,12,13,44,230,26,15,35,270,29,17,64,169,21,19,40,192,*7F
$GPGSV,3,3,12,23,,,25,24,16,306,,28,70,056,,30,38,134,20*4A
$GPGLL,4908.68731,N,12309.80135,W,182231.00,A,A*78
$GPRMC,182232.00,A,4908.68660,N,12309.80162,W,1.073,,080520,,,A*6F
$GPVTG,,T,,M,1.073,N,1.987,K,A*21
$GPGGA,182232.00,4908.68660,N,12309.80162,W,1,05,4.03,10.6,M,-17.6,M,,*51
$GPGSA,A,3,28,17,13,30,15,,,,,,,,5.83,4.03,4.21*05
$GPGSV,3,1,12,01,25,064,18,07,07,131,,10,02,345,,11,13,040,*71
$GPGSV,3,2,12,13,44,230,27,15,35,270,29,17,64,169,21,19,40,192,*7E
$GPGSV,3,3,12,23,,,23,24,16,306,,28,70,056,18,30,38,134,20*45
$GPGLL,4908.68660,N,12309.80162,W,182232.00,A,A*7C
$GPRMC,182233.00,A,4908.68648,N,12309.80154,W,1.045,,080520,,,A*64
$GPVTG,,T,,M,1.045,N,1.935,K,A*2D
$GPGGA,182233.00,4908.68648,N,12309.80154,W,1,06,4.03,10.5,M,-17.6,M,,*5F
$GPGSA,A,3,17,13,30,15,01,24,,,,,,,5.82,4.03,4.21*09
$GPGSV,3,1,12,01,25,064,13,07,07,131,,10,02,345,,11,13,040,*7A
$GPGSV,3,2,12,13,44,230,27,15,35,270,28,17,64,169,20,19,40,192,*7E
$GPGSV,3,3,12,23,,,22,24,16,306,17,28,70,056,16,30,38,134,19*46
$GPGLL,4908.68648,N,12309.80154,W,182233.00,A,A*72
$GPRMC,182234.00,A,4908.68660,N,12309.80104,W,0.837,,080520,,,A*60
$GPVTG,,T,,M,0.837,N,1.550,K,A*2E
$GPGGA,182234.00,4908.68660,N,12309.80104,W,1,05,4.02,10.4,M,-17.6,M,,*54
$GPGSA,A,3,17,13,30,15,01,,,,,,,,5.82,4.02,4.20*0F
$GPGSV,3,1,12,01,25,064,17,07,07,131,,10,02,345,,11,13,040,*7E
$GPGSV,3,2,12,13,44,230,26,15,35,270,28,17,64,169,19,19,40,192,*75
$GPGSV,3,3,12,23,,,22,24,16,306,14,28,70,056,16,30,38,134,19*45
$GPGLL,4908.68660,N,12309.80104,W,182234.00,A,A*7A
$GPRMC,182235.00,A,4908.68620,N,12309.80170,W,1.119,,080520,,,A*62
$GPVTG,,T,,M,1.119,N,2.072,K,A*2C
$GPGGA,182235.00,4908.68620,N,12309.80170,W,1,06,4.02,10.3,M,-17.6,M,,*56
$GPGSA,A,3,17,13,19,30,15,24,,,,,,,5.82,4.02,4.20*00
$GPGSV,3,1,12,01,25,064,,07,07,131,,10,02,345,,11,13,040,05*7D
$GPGSV,3,2,12,13,44,230,26,15,35,270,28,17,64,169,19,19,40,192,16*72
$GPGSV,3,3,12,23,,,22,24,16,306,17,28,70,056,,30,38,134,19*41
$GPGLL,4908.68620,N,12309.80170,W,182235.00,A,A*7C
$GPRMC,182236.00,A,4908.68621,N,12309.80184,W,1.158,,080520,,,A*6E
$GPVTG,,T,,M,1.158,N,2.144,K,A*2D
$GPGGA,182236.00,4908.68621,N,12309.80184,W,1,05,4.02,10.3,M,-17.6,M,,*5C
$GPGSA,A,3,17,13,30,15,24,,,,,,,,5.81,4.02,4.20*0B
$GPGSV,3,1,12,01,25,063,,07,07,131,,10,02,345,,11,13,040,08*77
$GPGSV,3,2,12,13,44,230,26,15,35,270,28,17,64,169,20,19,40,192,*7F
$GPGSV,3,3,12,23,,,22,24,16,306,22,28,70,056,18,30,38,134,19*4E
$GPGLL,4908.68621,N,12309.80184,W,182236.00,A,A*75
$GPRMC,182237.00,A,4908.68382,N,12309.80162,W,1.865,,080520,,,A*6C
$GPVTG,,T,,M,1.865,N,3.454,K,A*2F
$GPGGA,182237.00,4908.68382,N,12309.80162,W,1,05,4.02,10.2,M,-17.6,M,,*58
$GPGSA,A,3,17,13,30,15,01,,,,,,,,5.81,4.02,4.19*06
$GPGSV,3,1,12,01,25,063,17,07,07,131,,10,02,345,,11,13,040,11*79
$GPGSV,3,2,12,13,44,230,26,15,35,270,27,17,64,169,21,19,40,192,19*79
$GPGSV,3,3,12,23,,,22,24,16,306,,28,70,056,18,30,38,134,20*44
$GPGLL,4908.68382,N,12309.80162,W,182237.00,A,A*70
$GPRMC,182238.00,A,4908.68398,N,12309.80183,W,1.563,,080520,,,A*6C
$GPVTG,,T,,M,1.563,N,2.895,K,A*24
$GPGGA,182238.00,4908.68398,N,12309.80183,W,1,06,4.02,10.1,M,-17.6,M,,*53
$GPGSA,A,3,28,17,13,30,15,01,,,,,,,5.81,4.02,4.19*0C
$GPGSV,3,1,12,01,25,063,23,07,07,131,19,10,02,345,19,11,13,040,14*7B
$GPGSV,3,2,12,13,44,230,27,15,35,270,27,17,64,169,22,19,40,192,19*7B
$GPGSV,3,3,12,23,,,22,24,16,306,22,28,70,056,22,30,38,134,22*4F
$GPGLL,4908.68398,N,12309.80183,W,182238.00,A,A*7B
$GPRMC,182239.00,A,4908.68444,N,12309.80121,W,1.233,,080520,,,A*61
$GPVTG,,T,,M,1.233,N,2.283,K,A*2B
$GPGGA,182239.00,4908.68444,N,12309.80121,W,1,07,4.02,10.0,M,-17.6,M,,*5C
$GPGSA,A,3,28,17,13,30,15,01,11,,,,,,5.80,4.02,4.19*0D
$GPGSV,3,1,12,01,25,063,21,07,07,131,,10,02,345,17,11,13,040,19*72
$GPGSV,3,2,12,13,44,230,27,15,35,270,28,17,64,169,23,19,40,192,18*74
$GPGSV,3,3,12,23,,,22,24,16,306,,28,70,056,19,30,38,134,22*47
$GPGLL,4908.68444,N,12309.80121,W,182239.00,A,A*74
$GPRMC,182240.00,A,4908.68367,N,12309.80222,W,1.747,,080520,,,A*6F
$GPVTG,,T,,M,1.747,N,3.236,K,A*22
$GPGGA,182240.00,4908.68367,N,12309.80222,W,1,06,2.60,10.0,M,-17.6,M,,*57
$GPGSA,A,3,17,13,19,30,15,24,,,,,,,4.75,2.60,3.98*0F
$GPGSV,3,1,12,01,25,063,20,07,07,131,16,10,02,345,,11,13,040,18*73
$GPGSV,3,2,12,13,44,230,27,15,35,270,28,17,64,169,23,19,40,192,17*7B
$GPGSV,3,3,12,23,,,22,24,16,306,22,28,70,056,,30,38,134,22*4F
$GPGLL,4908.68367,N,12309.80222,W,182240.00,A,A*7C
$GPRMC,182241.00,A,4908.68415,N,12309.80199,W,1.496,,080520,,,A*60
$GPVTG,,T,,M,1.496,N,2.770,K,A*2B
$GPGGA,182241.00,4908.68415,N,12309.80199,W,1,08,2.60,10.0,M,-17.6,M,,*59
$GPGSA,A,3,28,17,13,19,30,15,01,24,,,,,4.75,2.60,3.98*04
$GPGSV,3,1,12,01,25,063,18,07,07,131,,10,02,345,,11,13,040,15*72
$GPGSV,3,2,12,13,44,230,27,15,35,270,28,17,64,169,24,19,40,192,18*73
$GPGSV,3,3,12,23,,,21,24,16,306,19,28,70,056,17,30,38,134,22*42
$GPGLL,4908.68415,N,12309.80199,W,182241.00,A,A*7C
$GPRMC,182242.00,A,4908.68367,N,12309.80243,W,1.536,,080520,,,A*6E
$GPVTG,,T,,M,1.536,N,2.844,K,A*28
$GPGGA,182242.00,4908.68367,N,12309.80243,W,1,08,2.60,9.9,M,-17.6,M,,*6D
$GPGSA,A,3,28,17,13,19,30,15,01,11,,,,,4.75,2.60,3.98*02
$GPGSV,3,1,12,01,25,063,16,07,06,131,,10,02,345,,11,13,040,10*78
$GPGSV,3,2,12,13,44,230,26,15,35,270,28,17,64,169,24,19,40,192,16*7C
$GPGSV,3,3,12,23,,,24,24,16,306,16,28,70,056,17,30,38,134,23*49
$GPGLL,4908.68367,N,12309.80243,W,182242.00,A,A*79
$GPRMC,182243.00,A,4908.68513,N,12309.80044,W,0.637,,080520,,,A*6C
$GPVTG,,T,,M,0.637,N,1.179,K,A*2F
$GPGGA,182243.00,4908.68513,N,12309.80044,W,1,09,1.58,9.8,M,-17.6,M,,*64
$GPGSA,A,3,28,17,13,19,30,15,01,24,11,,,,4.07,1.58,3.75*0A
$GPGSV,3,1,12,01,25,063,17,07,06,131,,10,02,345,,11,13,040,10*79
$GPGSV,3,2,12,13,44,230,27,15,35,270,28,17,64,169,25,19,40,192,15*7F
$GPGSV,3,3,12,23,,,27,24,16,306,20,28,70,056,19,30,38,134,22*40
$GPGLL,4908.68513,N,12309.80044,W,182243.00,A,A*78
$GPRMC,182244.00,A,4908.68564,N,12309.80015,W,0.231,,080520,,,A*6D
$GPVTG,,T,,M,0.231,N,0.427,K,A*22
$GPGGA,182244.00,4908.68564,N,12309.80015,W,1,06,1.58,9.8,M,-17.6,M,,*68
$GPGSA,A,3,17,13,19,30,15,01,,,,,,,4.07,1.58,3.75*06
$GPGSV,3,1,12,01,25,063,17,07,06,131,,10,02,345,,11,13,040,*78
$GPGSV,3,2,12,13,44,230,27,15,35,270,28,17,64,169,25,19,40,192,15*7F
$GPGSV,3,3,12,23,,,23,24,16,306,18,28,70,056,18,30,38,134,22*4E
$GPGLL,4908.68564,N,12309.80015,W,182244.00,A,A*7B
$GPRMC,182245.00,A,4908.68590,N,12309.80004,W,0.192,,080520,,,A*6D
$GPVTG,,T,,M,0.192,N,0.356,K,A*29
$GPGGA,182245.00,4908.68590,N,12309.80004,W,1,07,1.57,9.7,M,-17.6,M,,*63
$GPGSA,A,3,28,17,13,19,30,15,01,,,,,,4.07,1.57,3.75*03
$GPGSV,3,1,12,01,25,063,17,07,06,131,,10,02,345,,11,13,040,17*7E
$GPGSV,3,2,12,13,44,230,26,15,35,270,27,17,64,169,24,19,40,192,17*72
$GPGSV,3,3,12,23,,,21,24,16,306,,28,70,056,17,30,38,134,21*49
$GPGLL,4908.68590,N,12309.80004,W,182245.00,A,A*71
$GPRMC,182246.00,A,4908.68657,N,12309.79925,W,0.473,,080520,,,A*60
$GPVTG,,T,,M,0.473,N,0.876,K,A*2A
$GPGGA,182246.00,4908.68657,N,12309.79925,W,1,07,1.57,9.8,M,-17.6,M,,*6B
$GPGSA,A,3,28,17,13,19,30,15,01,,,,,,4.07,1.57,3.75*03
$GPGSV,3,1,12,01,25,063,16,07,06,131,,10,02,345,,11,13,040,*79
$GPGSV,3,2,12,13,44,230,27,15,35,270,27,17,64,169,24,19,40,192,17*73
$GPGSV,3,3,12,23,,,21,24,16,306,22,28,70,056,17,30,38,134,21*49
$GPGLL,4908.68657,N,12309.79925,W,182246.00,A,A*76
$GPRMC,182247.00,A,4908.68729,N,12309.79864,W,0.864,,080520,,,A*67
$GPVTG,,T,,M,0.864,N,1.601,K,A*2F
$GPGGA,182247.00,4908.68729,N,12309.79864,W,1,08,1.25,9.9,M,-17.6,M,,*6D
$GPGSA,A,3,28,17,13,19,30,15,01,11,,,,,2.60,1.25,2.28*08
$GPGSV,3,1,12,01,25,063,17,07,06,131,,10,02,345,,11,13,040,16*7F
$GPGSV,3,2,12,13,44,230,27,15,35,270,28,17,64,169,24,19,40,192,18*73
$GPGSV,3,3,12,23,,,22,24,16,306,,28,70,056,18,30,38,134,22*46
$GPGLL,4908.68729,N,12309.79864,W,182247.00,A,A*7B
$GPRMC,182248.00,A,4908.68665,N,12309.79903,W,0.203,,080520,,,A*6A
$GPVTG,,T,,M,0.203,N,0.376,K,A*20
$GPGGA,182248.00,4908.68665,N,12309.79903,W,1,07,1.25,10.0,M,-17.6,M,,*55
$GPGSA,A,3,28,17,13,19,30,15,01,,,,,,2.60,1.25,2.28*08
$GPGSV,3,1,12,01,25,063,16,07,06,131,,10,02,345,,11,13,040,*79
$GPGSV,3,2,12,13,44,229,27,15,35,270,28,17,64,169,24,19,40,192,18*7B
$GPGSV,3,3,12,23,,,22,24,16,306,,28,70,056,17,30,38,134,22*49
$GPGLL,4908.68665,N,12309.79903,W,182248.00,A,A*7D
$GPRMC,182249.00,A,4908.68485,N,12309.80064,W,2.271,,080520,,,A*6E
$GPVTG,,T,,M,2.271,N,4.206,K,A*25
$GPGGA,182249.00,4908.68485,N,12309.80064,W,1,09,1.57,10.3,M,-17.6,M,,*5E
$GPGSA,A,3,28,17,13,19,30,15,01,24,11,,,,4.06,1.57,3.75*04
$GPGSV,3,1,12,01,25,063,16,07,06,131,,10,02,345,,11,13,040,15*7D
$GPGSV,3,2,12,13,44,229,27,15,35,270,28,17,64,169,24,19,40,192,18*7B
$GPGSV,3,3,12,23,,,26,24,16,306,21,28,70,056,20,30,38,134,22*4A
$GPGLL,4908.68485,N,12309.80064,W,182249.00,A,A*7E
$GPRMC,182250.00,A,4908.68477,N,12309.80083,W,2.047,,080520,,,A*65
$GPVTG,,T,,M,2.047,N,3.790,K,A*2F
$GPGGA,182250.00,4908.68477,N,12309.80083,W,1,08,2.60,10.3,M,-17.6,M,,*54
$GPGSA,A,3,17,13,19,30,15,01,24,11,,,,,4.74,2.60,3.96*01
$GPGSV,3,1,12,01,25,063,21,07,06,131,,10,02,345,,11,13,040,18*74
$GPGSV,3,2,12,13,44,229,28,15,34,270,28,17,64,169,24,19,40,192,19*74
$GPGSV,3,3,12,23,,,25,24,16,306,19,28,70,056,,30,38,134,23*41
$GPGLL,4908.68477,N,12309.80083,W,182250.00,A,A*72
$GPRMC,182251.00,A,4908.68461,N,12309.80081,W,1.602,,080520,,,A*65
$GPVTG,,T,,M,1.602,N,2.967,K,A*2C
$GPGGA,182251.00,4908.68461,N,12309.80081,W,1,06,2.60,10.3,M,-17.6,M,,*5E
$GPGSA,A,3,17,13,19,30,15,24,,,,,,,4.74,2.60,3.96*00
$GPGSV,3,1,12,01,25,063,20,07,06,131,23,10,02,345,,11,13,040,17*7B
$GPGSV,3,2,12,13,44,229,28,15,34,270,28,17,64,169,23,19,40,192,19*73
$GPGSV,3,3,12,23,,,24,24,16,306,19,28,70,056,21,30,38,134,22*42
$GPGLL,4908.68461,N,12309.80081,W,182251.00,A,A*76
$GPRMC,182252.00,A,4908.68499,N,12309.80056,W,1.208,,080520,,,A*65
$GPVTG,,T,,M,1.208,N,2.238,K,A*23
$GPGGA,182252.00,4908.68499,N,12309.80056,W,1,06,2.60,10.5,M,-17.6,M,,*56
$GPGSA,A,3,28,17,13,19,30,15,,,,,,,4.74,2.60,3.96*0C
$GPGSV,3,1,12,01,25,063,18,07,06,131,20,10,02,345,17,11,13,040,*73
$GPGSV,3,2,12,13,44,229,28,15,34,270,28,17,64,168,23,19,40,192,18*73
$GPGSV,3,3,12,23,,,22,24,16,306,18,28,70,056,22,30,38,134,22*46
$GPGLL,4908.68499,N,12309.80056,W,182252.00,A,A*78
$GPRMC,182253.00,A,4908.68510,N,12309.80106,W,1.513,,080520,,,A*6D
$GPVTG,,T,,M,1.513,N,2.803,K,A*2C
$GPGGA,182253.00,4908.68510,N,12309.80106,W,1,06,2.60,10.6,M,-17.6,M,,*50
$GPGSA,A,3,17,13,19,30,15,11,,,,,,,4.74,2.60,3.96*06
$GPGSV,3,1,12,01,25,063,17,07,06,131,,10,02,345,,11,13,040,16*7F
$GPGSV,3,2,12,13,44,229,28,15,34,270,28,17,64,168,22,19,40,192,18*72
$GPGSV,3,3,12,23,,,22,24,16,306,,28,70,056,20,30,38,134,22*4D
$GPGLL,4908.68510,N,12309.80106,W,182253.00,A,A*7D
$GPRMC,182254.00,A,4908.68545,N,12309.80096,W,1.553,,080520,,,A*66
$GPVTG,,T,,M,1.553,N,2.877,K,A*2B
$GPGGA,182254.00,4908.68545,N,12309.80096,W,1,07,1.93,10.5,M,-17.6,M,,*52
$GPGSA,A,3,17,13,30,15,01,24,11,,,,,,4.56,1.93,4.14*0B
$GPGSV,4,1,13,01,25,063,16,07,06,131,,10,02,345,24,11,13,040,15*7D
$GPGSV,4,2,13,13,44,229,27,15,34,270,27,17,64,168,28,19,41,192,*76
$GPGSV,4,3,13,23,,,21,24,16,306,15,28,70,056,17,30,38,134,21*4B
$GPGSV,4,4,13,46,29,148,29*44
$GPGLL,4908.68545,N,12309.80096,W,182254.00,A,A*72
$GPRMC,182255.00,A,4908.68505,N,12309.80152,W,1.994,,080520,,,A*6D
$GPVTG,,T,,M,1.994,N,3.693,K,A*29
$GPGGA,182255.00,4908.68505,N,12309.80152,W,1,07,1.92,10.5,M,-17.6,M,,*5F
$GPGSA,A,3,28,17,13,30,15,01,11,,,,,,4.56,1.92,4.14*06
$GPGSV,4,1,13,01,25,063,15,07,06,131,,10,02,345,20,11,13,040,15*7A
$GPGSV,4,2,13,13,44,229,26,15,34,270,28,17,64,168,26,19,41,192,23*77
$GPGSV,4,3,13,23,,,18,24,16,306,14,28,70,056,18,30,38,134,21*4F
$GPGSV,4,4,13,46,29,148,27*4A
$GPGLL,4908.68505,N,12309.80152,W,182255.00,A,A*7E
$GPRMC,182256.00,A,4908.68521,N,12309.80107,W,1.045,,080520,,,A*6D
$GPVTG,,T,,M,1.045,N,1.935,K,A*2D
$GPGGA,182256.00,4908.68521,N,12309.80107,W,1,06,1.41,10.1,M,-17.6,M,,*51
$GPGSA,A,3,28,17,13,30,15,01,,,,,,,2.72,1.41,2.33*0B
$GPGSV,4,1,13,01,25,063,15,07,06,131,,10,02,345,16,11,13,040,*7B
$GPGSV,4,2,13,13,44,229,27,15,34,270,28,17,64,168,25,19,41,192,20*76
$GPGSV,4,3,13,23,,,15,24,16,306,13,28,70,056,17,30,38,134,21*4A
$GPGSV,4,4,13,46,29,148,27*4A
$GPGLL,4908.68521,N,12309.80107,W,182256.00,A,A*7B
$GPRMC,182257.00,A,4908.68421,N,12309.80180,W,1.483,,080520,,,A*6C
$GPVTG,,T,,M,1.483,N,2.746,K,A*2A
$GPGGA,182257.00,4908.68421,N,12309.80180,W,1,08,1.99,9.9,M,-17.6,M,,*65
$GPGSA,A,3,28,17,13,19,30,15,01,24,,,,,4.09,1.99,3.57*09
$GPGSV,3,1,12,01,25,063,14,07,06,131,,10,02,345,14,11,13,040,*7E
$GPGSV,3,2,12,13,44,229,27,15,34,270,28,17,64,168,24,19,41,192,25*74
$GPGSV,3,3,12,24,16,306,15,28,70,056,16,30,38,134,22,46,29,148,27*7C
$GPGLL,4908.68421,N,12309.80180,W,182257.00,A,A*74
$GPRMC,182258.00,A,4908.68345,N,12309.80206,W,1.461,,080520,,,A*67
$GPVTG,,T,,M,1.461,N,2.706,K,A*22
$GPGGA,182258.00,4908.68345,N,12309.80206,W,1,08,1.99,9.5,M,-17.6,M,,*6E
$GPGSA,A,3,28,17,13,30,15,01,24,11,,,,,4.09,1.99,3.57*01
$GPGSV,4,1,13,01,25,063,14,07,06,131,,10,02,345,,11,13,040,16*7A
$GPGSV,4,2,13,13,44,229,28,15,34,270,28,17,64,168,24,19,41,192,*7A
$GPGSV,4,3,13,23,,,26,24,16,306,17,28,70,056,17,30,38,134,22*4D
$GPGSV,4,4,13,46,29,148,27*4A
$GPGLL,4908.68345,N,12309.80206,W,182258.00,A,A*73
$GPRMC,182259.00,A,4908.68249,N,12309.80229,W,1.725,,080520,,,A*65
$GPVTG,,T,,M,1.725,N,3.194,K,A*2D
$GPGGA,182259.00,4908.68249,N,12309.80229,W,1,06,2.48,9.2,M,-17.6,M,,*69
$GPGSA,A,3,28,17,13,30,15,11,,,,,,,5.79,2.48,5.24*0D
$GPGSV,4,1,13,01,25,063,,07,06,131,,10,02,345,24,11,13,040,18*77
$GPGSV,4,2,13,13,44,229,28,15,34,270,28,17,64,168,25,19,41,192,24*7D
$GPGSV,4,3,13,23,,,24,24,16,306,,28,70,056,18,30,38,134,22*46
$GPGSV,4,4,13,46,29,148,27*4A
$GPGLL,4908.68249,N,12309.80229,W,182259.00,A,A*72
$GPRMC,182300.00,A,4908.68240,N,12309.80102,W,1.530,,080520,,,A*6D
$GPVTG,,T,,M,1.530,N,2.833,K,A*2E
$GPGGA,182300.00,4908.68240,N,12309.80102,W,1,06,2.48,9.1,M,-17.6,M,,*64
$GPGSA,A,3,28,17,13,30,15,11,,,,,,,5.79,2.48,5.24*0D
$GPGSV,4,1,13,01,25,063,20,07,06,131,,10,02,345,23,11,13,040,17*7D
$GPGSV,4,2,13,13,44,229,28,15,34,270,28,17,64,168,24,19,41,192,*7A
$GPGSV,4,3,13,23,,,23,24,16,306,,28,70,056,19,30,38,134,22*40
$GPGSV,4,4,13,46,29,148,27*4A
$GPGLL,4908.68240,N,12309.80102,W,182300.00,A,A*7C
$GPRMC,182301.00,A,4908.68225,N,12309.80056,W,1.458,,080520,,,A*60
$GPVTG,,T,,M,1.458,N,2.700,K,A*2E
$GPGGA,182301.00,4908.68225,N,12309.80056,W,1,08,1.99,8.9,M,-17.6,M,,*6E
$GPGSA,A,3,28,17,13,19,30,15,01,24,,,,,4.08,1.99,3.57*08
$GPGSV,3,1,12,01,25,063,18,07,06,131,,10,02,345,19,11,13,040,15*7B
$GPGSV,3,2,12,13,44,229,27,15,34,270,28,17,64,168,23,19,41,192,20*76
$GPGSV,3,3,12,23,,,21,24,16,306,16,28,70,056,17,30,38,134,21*4E
$GPGLL,4908.68225,N,12309.80056,W,182301.00,A,A*7E
$GPRMC,182302.00,A,4908.68199,N,12309.80030,W,1.505,,080520,,,A*6E
$GPVTG,,T,,M,1.505,N,2.787,K,A*28
$GPGGA,182302.00,4908.68199,N,12309.80030,W,1,06,1.99,9.1,M,-17.6,M,,*6E
$GPGSA,A,3,28,17,13,30,15,11,,,,,,,4.08,1.99,3.57*07
$GPGSV,3,1,12,01,25,063,,07,06,131,,10,02,345,,11,13,040,14*7B
$GPGSV,3,2,12,13,44,229,27,15,34,270,27,17,64,168,23,19,41,192,18*72
$GPGSV,3,3,12,23,,,18,24,16,306,14,28,70,056,16,30,38,134,21*47
$GPGLL,4908.68199,N,12309.80030,W,182302.00,A,A*79
$GPRMC,182303.00,A,4908.68167,N,12309.80084,W,3.217,249.70,080520,,,A*71
$GPVTG,249.70,T,,M,3.217,N,5.958,K,A*33
$GPGGA,182303.00,4908.68167,N,12309.80084,W,1,07,1.35,8.5,M,-17.6,M,,*63
$GPGSA,A,3,28,17,13,30,15,01,11,,,,,,2.47,1.35,2.07*09
$GPGSV,3,1,12,01,25,063,18,07,06,131,,10,02,345,,11,13,040,13*75
