$GPGGA,161918.000,4910.32666,N,12304.20822,W,1,16,0.7,016.34,M,-16.8,M,,*5F
$GPRMC,161918.000,A,4910.32666,N,12304.20822,W,0.0,0.0,160419,,,A*74
$GPGGA,161919.000,4910.32666,N,12304.20822,W,1,16,0.7,016.34,M,-16.8,M,,*5E
$GPRMC,161919.000,A,4910.32666,N,12304.20822,W,0.0,0.0,160419,,,A*75
$GPGGA,161920.000,4910.32666,N,12304.20822,W,1,16,0.7,016.34,M,-16.8,M,,*54
$GPRMC,161920.000,A,4910.32666,N,12304.20822,W,0.0,0.0,160419,,,A*7F
$GPGGA,161921.000,4910.32666,N,12304.20822,W,1,16,0.7,016.34,M,-16.8,M,,*55
$GPRMC,161921.000,A,4910.32666,N,12304.20822,W,0.0,0.0,160419,,,A*7E
$GPGGA,161922.000,4910.32666,N,12304.20822,W,1,16,0.7,016.34,M,-16.8,M,,*56
$GPRMC,161922.000,A,4910.32666,N,12304.20822,W,0.0,0.0,160419,,,A*7D
$GPGGA,161923.000,4910.32666,N,12304.20822,W,1,17,0.7,016.34,M,-16.8,M,,*56
$GPRMC,161923.000,A,4910.32666,N,12304.20822,W,0.0,0.0,160419,,,A*7C
$GPGGA,161924.000,4910.32666,N,12304.20822,W,1,16,0.7,016.34,M,-16.8,M,,*50
$GPRMC,161924.000,A,4910.32666,N,12304.20822,W,0.1,0.0,160419,,,A*7A
$GPGGA,161925.000,4910.32666,N,12304.20822,W,1,17,0.7,016.34,M,-16.8,M,,*50
$GPRMC,161925.000,A,4910.32666,N,12304.20822,W,0.0,0.0,160419,,,A*7A
$GPGGA,161926.000,4910.32666,N,12304.20822,W,1,17,0.7,016.34,M,-16.8,M,,*53
$GPRMC,161926.000,A,4910.32666,N,12304.20822,W,0.0,0.0,160419,,,A*79
$GPGGA,161927.000,4910.32666,N,12304.20822,W,1,17,0.7,016.34,M,-16.8,M,,*52
$GPRMC,161927.000,A,4910.32666,N,12304.20822,W,0.1,0.0,160419,,,A*79
$GPGGA,161928.000,4910.32666,N,12304.20822,W,1,17,0.7,016.34,M,-16.8,M,,*5D
$GPRMC,161928.000,A,4910.32666,N,12304.20822,W,0.1,0.0,160419,,,A*76
$GPGGA,161929.000,4910.32666,N,12304.20822,W,1,17,0.7,016.34,M,-16.8,M,,*5C
$GPRMC,161929.000,A,4910.32666,N,12304.20822,W,0.0,0.0,160419,,,A*76
$GPGGA,161930.000,4910.32666,N,12304.20822,W,1,17,0.7,016.34,M,-16.8,M,,*54
$GPRMC,161930.000,A,4910.32666,N,12304.20822,W,0.1,0.0,160419,,,A*7F
$GPGGA,161931.000,4910.32666,N,12304.20822,W,1,17,0.7,016.34,M,-16.8,M,,*55
$GPRMC,161931.000,A,4910.32666,N,12304.20822,W,0.1,0.0,160419,,,A*7E
$GPGGA,161932.000,4910.32666,N,12304.20822,W,1,16,0.7,016.34,M,-16.8,M,,*57
$GPRMC,161932.000,A,4910.32666,N,12304.20822,W,0.1,0.0,160419,,,A*7D
$GPGGA,161933.000,4910.32666,N,12304.20822,W,1,16,0.7,016.34,M,-16.8,M,,*56
$GPRMC,161933.000,A,4910.32666,N,12304.20822,W,0.0,0.0,160419,,,A*7D
$GPGGA,161934.000,4910.32666,N,12304.20822,W,1,16,0.7,016.34,M,-16.8,M,,*51
$GPRMC,161934.000,A,4910.32666,N,12304.20822,W,0.1,0.0,160419,,,A*7B
$GPGGA,161935.000,4910.32666,N,12304.20822,W,1,16,0.7,016.34,M,-16.8,M,,*50
$GPRMC,161935.000,A,4910.32666,N,12304.20822,W,0.0,0.0,160419,,,A*7B
$GPGGA,161936.000,4910.32666,N,12304.20822,W,1,16,0.7,016.34,M,-16.8,M,,*53
$GPRMC,161936.000,A,4910.32666,N,12304.20822,W,0.0,0.0,160419,,,A*78
$GPGGA,161937.000,4910.32666,N,12304.20822,W,1,17,0.7,016.34,M,-16.8,M,,*53
$GPRMC,161937.000,A,4910.32666,N,12304.20822,W,0.1,0.0,160419,,,A*78
$GPGGA,161938.000,4910.32666,N,12304.20822,W,1,17,0.7,016.34,M,-16.8,M,,*5C
$GPRMC,161938.000,A,4910.32666,N,12304.20822,W,0.0,0.0,160419,,,A*76
$GPGGA,161939.000,4910.32666,N,12304.20822,W,1,17,0.7,016.34,M,-16.8,M,,*5D
$GPRMC,161939.000,A,4910.32666,N,12304.20822,W,0.1,0.0,160419,,,A*76
$GPGGA,161940.000,4910.32666,N,12304.20822,W,1,17,0.7,016.34,M,-16.8,M,,*53
$GPRMC,161940.000,A,4910.32666,N,12304.20822,W,0.1,0.0,160419,,,A*78
$GPGGA,161941.000,4910.32666,N,12304.20822,W,1,17,0.7,016.34,M,-16.8,M,,*52
$GPRMC,161941.000,A,4910.32666,N,12304.20822,W,0.0,0.0,160419,,,A*78
$GPGGA,161942.000,4910.32666,N,12304.20822,W,1,17,0.7,016.34,M,-16.8,M,,*51
$GPRMC,161942.000,A,4910.32666,N,12304.20822,W,0.0,0.0,160419,,,A*7B
$GPGGA,161943.000,4910.32666,N,12304.20822,W,1,17,0.7,016.34,M,-16.8,M,,*50
$GPRMC,161943.000,A,4910.32666,N,12304.20822,W,0.1,0.0,160419,,,A*7B
$GPGGA,161944.000,4910.32666,N,12304.20822,W,1,16,0.7,016.34,M,-16.8,M,,*56
$GPRMC,161944.000,A,4910.32666,N,12304.20822,W,0.1,0.0,160419,,,A*7C
$GPGGA,161945.000,4910.32666,N,12304.20822,W,1,17,0.7,016.34,M,-16.8,M,,*56
$GPRMC,161945.000,A,4910.32666,N,12304.20822,W,0.0,0.0,160419,,,A*7C
$GPGGA,161946.000,4910.32666,N,12304.20822,W,1,16,0.7,016.34,M,-16.8,M,,*54
$GPRMC,161946.000,A,4910.32666,N,12304.20822,W,0.1,0.0,160419,,,A*7E
$GPGGA,161947.000,4910.32666,N,12304.20822,W,1,17,0.7,016.34,M,-16.8,M,,*54
$GPRMC,161947.000,A,4910.32666,N,12304.20822,W,0.0,0.0,160419,,,A*7E
$GPGGA,161948.000,4910.32666,N,12304.20822,W,1,17,0.7,016.34,M,-16.8,M,,*5B
$GPRMC,161948.000,A,4910.32666,N,12304.20822,W,0.1,0.0,160419,,,A*70
$GPGGA,161949.000,4910.32666,N,12304.20822,W,1,17,0.7,016.34,M,-16.8,M,,*5A
$GPRMC,161949.000,A,4910.32666,N,12304.20822,W,0.0,0.0,160419,,,A*70
$GPGGA,161950.000,4910.32666,N,12304.20822,W,1,17,0.7,016.34,M,-16.8,M,,*52
