$GPGGA,223952.000,4910.32678,N,12304.20942,W,1,15,0.6,-00.82,M,-16.8,M,,*49
$GPRMC,223952.000,A,4910.32678,N,12304.20942,W,0.1,0.0,180319,,,A*7F
$GPGGA,224002.000,4910.32678,N,12304.20942,W,1,18,0.6,-00.82,M,-16.8,M,,*4F
$GPRMC,224002.000,A,4910.32678,N,12304.20942,W,0.0,0.0,180319,,,A*75
$GPGGA,224012.000,4910.32678,N,12304.20942,W,1,17,0.7,001.05,M,-16.8,M,,*53
$GPRMC,224012.000,A,4910.32678,N,12304.20942,W,0.0,0.0,180319,,,A*74
$GPGGA,224025.000,4910.32636,N,12304.20918,W,1,17,0.7,001.05,M,-16.8,M,,*52
$GPRMC,224025.000,A,4910.32636,N,12304.20918,W,0.0,0.0,180319,,,A*75
$GPGGA,224035.000,4910.32636,N,12304.20919,W,1,17,0.7,001.05,M,-16.8,M,,*52
$GPRMC,224035.000,A,4910.32636,N,12304.20919,W,0.1,0.0,180319,,,A*74
$GPGGA,224046.000,4910.32636,N,12304.20918,W,1,17,0.7,001.78,M,-16.8,M,,*5D
$GPRMC,224046.000,A,4910.32636,N,12304.20918,W,0.1,0.0,180319,,,A*71
$GPGGA,224056.000,4910.32636,N,12304.20918,W,1,17,0.7,001.78,M,-16.8,M,,*5C
$GPRMC,224056.000,A,4910.32636,N,12304.20918,W,0.0,0.0,180319,,,A*71
$GPGGA,224109.000,4910.32594,N,12304.20876,W,1,18,0.6,001.73,M,-16.8,M,,*50
$GPRMC,224109.000,A,4910.32594,N,12304.20876,W,0.1,0.0,180319,,,A*79
$GPGGA,224122.000,4910.32552,N,12304.20894,W,1,18,0.6,001.53,M,-16.8,M,,*5D
$GPRMC,224122.000,A,4910.32552,N,12304.20894,W,0.0,0.0,180319,,,A*77
$GPGGA,224135.000,4910.32552,N,12304.20894,W,1,17,0.6,001.53,M,-16.8,M,,*54
$GPRMC,224135.000,A,4910.32552,N,12304.20894,W,0.0,0.0,180319,,,A*71
$GPGGA,224356.000,4910.32504,N,12304.20702,W,1,18,0.6,010.74,M,-16.8,M,,*5A
$GPRMC,224356.000,A,4910.32504,N,12304.20702,W,0.0,0.0,180319,,,A*75
$GPGGA,224406.000,4910.32504,N,12304.20702,W,1,18,0.6,010.09,M,-16.8,M,,*52
$GPRMC,224406.000,A,4910.32504,N,12304.20702,W,0.0,0.0,180319,,,A*77
$GPGGA,224416.000,4910.32504,N,12304.20702,W,1,17,0.6,010.79,M,-16.8,M,,*5B
$GPRMC,224416.000,A,4910.32504,N,12304.20702,W,0.0,0.0,180319,,,A*76
$GPGGA,224427.000,4910.32660,N,12304.20852,W,1,18,0.6,015.67,M,-16.8,M,,*57
$GPRMC,224427.000,A,4910.32660,N,12304.20852,W,0.1,0.0,180319,,,A*7E
$GPGGA,224437.000,4910.32660,N,12304.20852,W,1,18,0.6,015.67,M,-16.8,M,,*56
$GPRMC,224437.000,A,4910.32660,N,12304.20852,W,0.1,0.0,180319,,,A*7F
$GPGGA,224447.000,4910.32660,N,12304.20852,W,1,18,0.6,015.67,M,-16.8,M,,*51
$GPRMC,224447.000,A,4910.32660,N,12304.20852,W,0.1,0.0,180319,,,A*78
$GPGGA,224457.000,4910.32642,N,12304.21026,W,1,15,0.6,015.67,M,-16.8,M,,*57
$GPRMC,224457.000,A,4910.32642,N,12304.21026,W,0.0,0.0,180319,,,A*72
$GPGGA,224507.000,4910.32642,N,12304.21026,W,1,16,0.6,016.87,M,-16.8,M,,*5D
$GPRMC,224507.000,A,4910.32642,N,12304.21026,W,0.1,0.0,180319,,,A*77
$GPGGA,224517.000,4910.32626,N,12304.21077,W,1,18,0.6,016.87,M,-16.8,M,,*54
$GPRMC,224517.000,A,4910.32626,N,12304.21077,W,0.0,0.0,180319,,,A*71
$GPGGA,224527.000,4910.32626,N,12304.21077,W,1,18,0.6,016.87,M,-16.8,M,,*57
$GPRMC,224527.000,A,4910.32626,N,12304.21077,W,0.0,0.0,180319,,,A*72
$GPGGA,224537.000,4910.32626,N,12304.21077,W,1,17,0.6,016.87,M,-16.8,M,,*59
$GPRMC,224537.000,A,4910.32626,N,12304.21077,W,0.0,0.0,180319,,,A*73
$GPGGA,224547.000,4910.32617,N,12304.21015,W,1,18,0.6,014.02,M,-16.8,M,,*58
$GPRMC,224547.000,A,4910.32617,N,12304.21015,W,0.3,168.9,180319,,,A*77
$GPGGA,224557.000,4910.32617,N,12304.21015,W,1,17,0.6,014.02,M,-16.8,M,,*56
$GPRMC,224557.000,A,4910.32617,N,12304.21015,W,0.0,0.0,180319,,,A*73
$GPGGA,224607.000,4910.32617,N,12304.21015,W,1,17,0.6,014.02,M,-16.8,M,,*50
$GPRMC,224607.000,A,4910.32617,N,12304.21015,W,0.1,0.0,180319,,,A*74
$GPGGA,224617.000,4910.32617,N,12304.21015,W,1,17,0.6,014.02,M,-16.8,M,,*51
$GPRMC,224617.000,A,4910.32617,N,12304.21015,W,0.0,0.0,180319,,,A*74
$GPGGA,224627.000,4910.32606,N,12304.20930,W,1,18,0.6,013.40,M,-16.8,M,,*53
$GPRMC,224627.000,A,4910.32606,N,12304.20930,W,0.1,0.0,180319,,,A*79
$GPGGA,224637.000,4910.32606,N,12304.20930,W,1,18,0.6,013.40,M,-16.8,M,,*52
$GPRMC,224637.000,A,4910.32606,N,12304.20930,W,0.2,0.0,180319,,,A*7B
$GPGGA,224647.000,4910.32606,N,12304.20930,W,1,16,0.6,013.40,M,-16.8,M,,*5B
$GPRMC,224647.000,A,4910.32606,N,12304.20930,W,0.0,0.0,180319,,,A*7E
$GPGGA,224657.000,4910.32606,N,12304.20930,W,1,17,0.6,013.40,M,-16.8,M,,*5B
$GPRMC,224657.000,A,4910.32606,N,12304.20930,W,0.0,0.0,180319,,,A*7F
$GPGGA,224707.000,4910.32603,N,12304.20979,W,1,18,0.6,012.74,M,-16.8,M,,*5E
$GPRMC,224707.000,A,4910.32603,N,12304.20979,W,0.1,0.0,180319,,,A*72
$GPGGA,224717.000,4910.32603,N,12304.20979,W,1,18,0.6,012.74,M,-16.8,M,,*5F
$GPRMC,224717.000,A,4910.32603,N,12304.20979,W,0.0,0.0,180319,,,A*72
$GPGGA,224727.000,4910.32603,N,12304.20979,W,1,18,0.6,012.74,M,-16.8,M,,*5C
$GPRMC,224727.000,A,4910.32603,N,12304.20979,W,0.0,0.0,180319,,,A*71
$GPGGA,224737.000,4910.32600,N,12304.20978,W,1,18,0.6,012.74,M,-16.8,M,,*5F
$GPRMC,224737.000,A,4910.32600,N,12304.20978,W,0.0,0.0,180319,,,A*72
$GPGGA,224747.000,4910.32597,N,12304.20911,W,1,17,0.6,011.35,M,-16.8,M,,*53
$GPRMC,224747.000,A,4910.32597,N,12304.20911,W,0.1,0.0,180319,,,A*76
$GPGGA,224757.000,4910.32600,N,12304.20912,W,1,16,0.7,011.35,M,-16.8,M,,*5C
$GPRMC,224757.000,A,4910.32600,N,12304.20912,W,0.0,0.0,180319,,,A*78
$GPGGA,224807.000,4910.32600,N,12304.20912,W,1,14,0.7,011.35,M,-16.8,M,,*54
$GPRMC,224807.000,A,4910.32600,N,12304.20912,W,0.0,0.0,180319,,,A*72
$GPGGA,224817.000,4910.32600,N,12304.20912,W,1,16,0.6,011.35,M,-16.8,M,,*56
$GPRMC,224817.000,A,4910.32600,N,12304.20912,W,0.2,0.0,180319,,,A*71
$GPGGA,224830.000,4910.32594,N,12304.20894,W,1,15,0.6,010.92,M,-16.8,M,,*5D
$GPRMC,224830.000,A,4910.32594,N,12304.20894,W,0.1,0.0,180319,,,A*76
$GPGGA,224844.000,4910.32594,N,12304.20894,W,1,16,0.6,010.92,M,-16.8,M,,*5D
$GPRMC,224844.000,A,4910.32594,N,12304.20894,W,0.0,0.0,180319,,,A*74
$GPGGA,224854.000,4910.32594,N,12304.20894,W,1,17,0.6,010.92,M,-16.8,M,,*5D
$GPRMC,224854.000,A,4910.32594,N,12304.20894,W,0.0,0.0,180319,,,A*75
$GPGGA,224904.000,4910.32594,N,12304.20894,W,1,16,0.6,010.92,M,-16.8,M,,*58
$GPRMC,224904.000,A,4910.32594,N,12304.20894,W,0.0,0.0,180319,,,A*71
$GPGGA,224914.000,4910.32592,N,12304.20876,W,1,16,0.6,010.67,M,-16.8,M,,*59
$GPRMC,224914.000,A,4910.32592,N,12304.20876,W,0.0,0.0,180319,,,A*7A
