$GPGGA,214516.000,4910.32534,N,12304.14125,W,1,14,0.6,067.98,M,-16.8,M,,*52
$GPRMC,214516.000,A,4910.32534,N,12304.14125,W,0.1,0.0,230419,,,A*7D
$GPGGA,214517.000,4910.32534,N,12304.14125,W,1,14,0.6,067.98,M,-16.8,M,,*53
$GPRMC,214517.000,A,4910.32534,N,12304.14125,W,0.0,0.0,230419,,,A*7D
$GPGGA,214518.000,4910.32534,N,12304.14125,W,1,15,0.6,067.98,M,-16.8,M,,*5D
$GPRMC,214518.000,A,4910.32534,N,12304.14125,W,0.1,0.0,230419,,,A*73
$GPGGA,214519.000,4910.32534,N,12304.14125,W,1,13,0.6,067.98,M,-16.8,M,,*5A
$GPRMC,214519.000,A,4910.32534,N,12304.14125,W,0.1,0.0,230419,,,A*72
$GPGGA,214520.000,4910.32534,N,12304.14125,W,1,14,0.6,067.98,M,-16.8,M,,*57
$GPRMC,214520.000,A,4910.32534,N,12304.14125,W,0.1,0.0,230419,,,A*78
$GPGGA,214521.000,4910.32534,N,12304.14125,W,1,13,0.7,067.98,M,-16.8,M,,*50
$GPRMC,214521.000,A,4910.32534,N,12304.14125,W,0.1,0.0,230419,,,A*79
$GPGGA,214522.000,4910.32534,N,12304.14125,W,1,14,0.6,067.98,M,-16.8,M,,*55
$GPRMC,214522.000,A,4910.32534,N,12304.14125,W,0.0,0.0,230419,,,A*7B
$GPGGA,214523.000,4910.32534,N,12304.14125,W,1,13,0.7,067.98,M,-16.8,M,,*52
$GPRMC,214523.000,A,4910.32534,N,12304.14125,W,0.1,0.0,230419,,,A*7B
$GPGGA,214524.000,4910.32534,N,12304.14125,W,1,13,0.7,067.98,M,-16.8,M,,*55
$GPRMC,214524.000,A,4910.32534,N,12304.14125,W,0.1,0.0,230419,,,A*7C
$GPGGA,214525.000,4910.32534,N,12304.14125,W,1,13,0.7,067.98,M,-16.8,M,,*54
$GPRMC,214525.000,A,4910.32534,N,12304.14125,W,0.0,0.0,230419,,,A*7C
$GPGGA,214526.000,4910.32534,N,12304.14125,W,1,12,0.7,067.98,M,-16.8,M,,*56
$GPRMC,214526.000,A,4910.32534,N,12304.14125,W,0.1,0.0,230419,,,A*7E
$GPGGA,214527.000,4910.32534,N,12304.14125,W,1,13,0.7,067.98,M,-16.8,M,,*56
$GPRMC,214527.000,A,4910.32534,N,12304.14125,W,0.1,0.0,230419,,,A*7F
$GPGGA,214528.000,4910.32534,N,12304.14125,W,1,12,0.7,067.98,M,-16.8,M,,*58
$GPRMC,214528.000,A,4910.32534,N,12304.14125,W,0.1,0.0,230419,,,A*70
$GPGGA,214529.000,4910.32534,N,12304.14125,W,1,12,0.7,067.98,M,-16.8,M,,*59
$GPRMC,214529.000,A,4910.32534,N,12304.14125,W,0.1,0.0,230419,,,A*71
$GPGGA,214530.000,4910.32534,N,12304.14125,W,1,11,0.8,067.98,M,-16.8,M,,*5D
$GPRMC,214530.000,A,4910.32534,N,12304.14125,W,0.0,0.0,230419,,,A*78
$GPGGA,214531.000,4910.32523,N,12304.14217,W,1,12,0.7,067.62,M,-16.8,M,,*51
$GPRMC,214531.000,A,4910.32523,N,12304.14217,W,0.1,0.0,230419,,,A*7C
$GPGGA,214532.000,4910.32523,N,12304.14217,W,1,12,0.7,067.62,M,-16.8,M,,*52
$GPRMC,214532.000,A,4910.32523,N,12304.14217,W,0.1,0.0,230419,,,A*7F
$GPGGA,214533.000,4910.32523,N,12304.14217,W,1,14,0.6,067.62,M,-16.8,M,,*54
$GPRMC,214533.000,A,4910.32523,N,12304.14217,W,0.1,0.0,230419,,,A*7E
$GPGGA,214534.000,4910.32523,N,12304.14217,W,1,12,0.7,067.62,M,-16.8,M,,*54
$GPRMC,214534.000,A,4910.32523,N,12304.14217,W,0.1,0.0,230419,,,A*79
$GPGGA,214535.000,4910.32523,N,12304.14217,W,1,14,0.6,067.62,M,-16.8,M,,*52
$GPRMC,214535.000,A,4910.32523,N,12304.14217,W,0.1,0.0,230419,,,A*78
$GPGGA,214536.000,4910.32523,N,12304.14217,W,1,14,0.6,067.62,M,-16.8,M,,*51
$GPRMC,214536.000,A,4910.32523,N,12304.14217,W,0.1,0.0,230419,,,A*7B
$GPGGA,214537.000,4910.32523,N,12304.14217,W,1,14,0.6,067.62,M,-16.8,M,,*50
$GPRMC,214537.000,A,4910.32523,N,12304.14217,W,0.1,0.0,230419,,,A*7A
$GPGGA,214538.000,4910.32523,N,12304.14217,W,1,14,0.6,067.62,M,-16.8,M,,*5F
$GPRMC,214538.000,A,4910.32523,N,12304.14217,W,0.1,0.0,230419,,,A*75
$GPGGA,214539.000,4910.32523,N,12304.14217,W,1,14,0.6,067.62,M,-16.8,M,,*5E
$GPRMC,214539.000,A,4910.32523,N,12304.14217,W,0.2,0.0,230419,,,A*77
$GPGGA,214540.000,4910.32523,N,12304.14217,W,1,15,0.6,067.62,M,-16.8,M,,*51
$GPRMC,214540.000,A,4910.32523,N,12304.14217,W,0.1,0.0,230419,,,A*7A
$GPGGA,214541.000,4910.32523,N,12304.14217,W,1,14,0.6,067.62,M,-16.8,M,,*51
$GPRMC,214541.000,A,4910.32523,N,12304.14217,W,0.1,0.0,230419,,,A*7B
$GPGGA,214542.000,4910.32523,N,12304.14217,W,1,15,0.6,067.62,M,-16.8,M,,*53
$GPRMC,214542.000,A,4910.32523,N,12304.14217,W,0.1,0.0,230419,,,A*78
$GPGGA,214543.000,4910.32523,N,12304.14217,W,1,15,0.6,067.62,M,-16.8,M,,*52
$GPRMC,214543.000,A,4910.32523,N,12304.14217,W,0.0,0.0,230419,,,A*78
$GPGGA,214544.000,4910.32523,N,12304.14217,W,1,15,0.6,067.62,M,-16.8,M,,*55
$GPRMC,214544.000,A,4910.32523,N,12304.14217,W,0.0,0.0,230419,,,A*7F
$GPGGA,214545.000,4910.32523,N,12304.14217,W,1,15,0.6,067.62,M,-16.8,M,,*54
$GPRMC,214545.000,A,4910.32523,N,12304.14217,W,0.0,0.0,230419,,,A*7E
$GPGGA,214546.000,4910.32523,N,12304.14217,W,1,14,0.6,067.62,M,-16.8,M,,*56
$GPRMC,214546.000,A,4910.32523,N,12304.14217,W,0.0,0.0,230419,,,A*7D
$GPGGA,214547.000,4910.32523,N,12304.14217,W,1,14,0.6,067.62,M,-16.8,M,,*57
$GPRMC,214547.000,A,4910.32523,N,12304.14217,W,0.0,0.0,230419,,,A*7C
$GPGGA,214548.000,4910.32523,N,12304.14217,W,1,14,0.6,067.62,M,-16.8,M,,*58
$GPRMC,214548.000,A,4910.32523,N,12304.14217,W,0.0,0.0,230419,,,A*73
$GPGGA,214549.000,4910.32523,N,12304.14217,W,1,15,0.6,067.62,M,-16.8,M,,*58
$GPRMC,214549.000,A,4910.32523,N,12304.14217,W,0.0,0.0,230419,,,A*72
$GPGGA,214550.000,4910.32523,N,12304.14217,W,1,15,0.6,067.62,M,-16.8,M,,*50
$GPRMC,214550.000,A,4910.32523,N,12304.14217,W,0.1,0.0,230419,,,A*7B
$GPGGA,214551.000,4910.32523,N,12304.14217,W,1,15,0.6,067.62,M,-16.8,M,,*51
$GPRMC,214551.000,A,4910.32523,N,12304.14217,W,0.0,0.0,230419,,,A*7B
$GPGGA,214552.000,4910.32523,N,12304.14217,W,1,15,0.6,067.62,M,-16.8,M,,*52
$GPRMC,214552.000,A,4910.32523,N,12304.14217,W,0.1,0.0,230419,,,A*79
$GPGGA,214553.000,4910.32523,N,12304.14217,W,1,15,0.6,067.62,M,-16.8,M,,*53
$GPRMC,214553.000,A,4910.32523,N,12304.14217,W,0.1,0.0,230419,,,A*78
$GPGGA,214554.000,4910.32523,N,12304.14217,W,1,15,0.6,067.62,M,-16.8,M,,*54
$GPRMC,214554.000,A,4910.32523,N,12304.14217,W,0.1,0.0,230419,,,A*7F
$GPGGA,214555.000,4910.32523,N,12304.14217,W,1,15,0.6,067.62,M,-16.8,M,,*55
$GPRMC,214555.000,A,4910.32523,N,12304.14217,W,0.1,0.0,230419,,,A*7E
$GPGGA,214556.000,4910.32523,N,12304.14217,W,1,15,0.6,067.62,M,-16.8,M,,*56
$GPRMC,214556.000,A,4910.32523,N,12304.14217,W,0.1,0.0,230419,,,A*7D
$GPGGA,214557.000,4910.32523,N,12304.14217,W,1,15,0.6,067.62,M,-16.8,M,,*57
$GPRMC,214557.000,A,4910.32523,N,12304.14217,W,0.0,0.0,230419,,,A*7D
$GPGGA,214558.000,4910.32523,N,12304.14217,W,1,15,0.6,067.62,M,-16.8,M,,*58
$GPRMC,214558.000,A,4910.32523,N,12304.14217,W,0.0,0.0,230419,,,A*72
$GPGGA,214559.000,4910.32523,N,12304.14217,W,1,15,0.6,067.62,M,-16.8,M,,*59
$GPRMC,214559.000,A,4910.32523,N,12304.14217,W,0.0,0.0,230419,,,A*73
$GPGGA,214600.000,4910.32523,N,12304.14217,W,1,15,0.6,067.62,M,-16.8,M,,*56
$GPRMC,214600.000,A,4910.32523,N,12304.14217,W,0.0,0.0,230419,,,A*7C
$GPGGA,214601.000,4910.32523,N,12304.14217,W,1,15,0.6,067.62,M,-16.8,M,,*57
$GPRMC,214601.000,A,4910.32523,N,12304.14217,W,0.1,0.0,230419,,,A*7C
$GPGGA,214602.000,4910.32523,N,12304.14217,W,1,13,0.7,067.62,M,-16.8,M,,*53
$GPRMC,214602.000,A,4910.32523,N,12304.14217,W,0.0,0.0,230419,,,A*7E
$GPGGA,214603.000,4910.32523,N,12304.14217,W,1,13,0.7,067.62,M,-16.8,M,,*52
$GPRMC,214603.000,A,4910.32523,N,12304.14217,W,0.0,0.0,230419,,,A*7F
$GPGGA,214604.000,4910.32523,N,12304.14217,W,1,13,0.7,067.62,M,-16.8,M,,*55
$GPRMC,214604.000,A,4910.32523,N,12304.14217,W,0.1,0.0,230419,,,A*79
$GPGGA,214605.000,4910.32523,N,12304.14217,W,1,13,0.7,067.62,M,-16.8,M,,*54
$GPRMC,214605.000,A,4910.32523,N,12304.14217,W,0.1,0.0,230419,,,A*78
$GPGGA,214606.000,4910.32523,N,12304.14217,W,1,13,0.7,067.62,M,-16.8,M,,*57
$GPRMC,214606.000,A,4910.32523,N,12304.14217,W,0.0,0.0,230419,,,A*7A
$GPGGA,214607.000,4910.32523,N,12304.14217,W,1,13,0.7,067.62,M,-16.8,M,,*56
$GPRMC,214607.000,A,4910.32523,N,12304.14217,W,0.0,0.0,230419,,,A*7B
$GPGGA,214608.000,4910.32523,N,12304.14217,W,1,13,0.7,067.62,M,-16.8,M,,*59
$GPRMC,214608.000,A,4910.32523,N,12304.14217,W,0.1,0.0,230419,,,A*75
$GPGGA,214609.000,4910.32523,N,12304.14217,W,1,13,0.7,067.62,M,-16.8,M,,*58
$GPRMC,214609.000,A,4910.32523,N,12304.14217,W,0.1,0.0,230419,,,A*74
$GPGGA,214610.000,4910.32523,N,12304.14217,W,1,13,0.7,067.62,M,-16.8,M,,*50
$GPRMC,214610.000,A,4910.32523,N,12304.14217,W,0.0,0.0,230419,,,A*7D
$GPGGA,214611.000,4910.32436,N,12304.14179,W,1,13,0.7,064.94,M,-16.8,M,,*55
$GPRMC,214611.000,A,4910.32436,N,12304.14179,W,0.0,0.0,230419,,,A*72
$GPGGA,214612.000,4910.32436,N,12304.14179,W,1,13,0.7,064.94,M,-16.8,M,,*56
$GPRMC,214612.000,A,4910.32436,N,12304.14179,W,0.1,0.0,230419,,,A*70
$GPGGA,214613.000,4910.32436,N,12304.14179,W,1,13,0.7,064.94,M,-16.8,M,,*57
$GPRMC,214613.000,A,4910.32436,N,12304.14179,W,0.1,0.0,230419,,,A*71
$GPGGA,214614.000,4910.32436,N,12304.14179,W,1,13,0.7,064.94,M,-16.8,M,,*50
$GPRMC,214614.000,A,4910.32436,N,12304.14179,W,0.0,0.0,230419,,,A*77
$GPGGA,214615.000,4910.32436,N,12304.14179,W,1,13,0.7,064.94,M,-16.8,M,,*51
$GPRMC,214615.000,A,4910.32436,N,12304.14179,W,0.0,0.0,230419,,,A*76
$GPGGA,214616.000,4910.32436,N,12304.14179,W,1,13,0.7,064.94,M,-16.8,M,,*52
$GPRMC,214616.000,A,4910.32436,N,12304.14179,W,0.0,0.0,230419,,,A*75
$GPGGA,214617.000,4910.32436,N,12304.14179,W,1,14,0.6,064.94,M,-16.8,M,,*55
$GPRMC,214617.000,A,4910.32436,N,12304.14179,W,0.1,0.0,230419,,,A*75
$GPGGA,214618.000,4910.32436,N,12304.14179,W,1,14,0.6,064.94,M,-16.8,M,,*5A
$GPRMC,214618.000,A,4910.32436,N,12304.14179,W,0.1,0.0,230419,,,A*7A
$GPGGA,214619.000,4910.32436,N,12304.14179,W,1,14,0.6,064.94,M,-16.8,M,,*5B
$GPRMC,214619.000,A,4910.32436,N,12304.14179,W,0.1,0.0,230419,,,A*7B
$GPGGA,214620.000,4910.32436,N,12304.14179,W,1,14,0.6,064.94,M,-16.8,M,,*51
$GPRMC,214620.000,A,4910.32436,N,12304.14179,W,0.0,0.0,230419,,,A*70
$GPGGA,214621.000,4910.32436,N,12304.14179,W,1,14,0.6,064.94,M,-16.8,M,,*50
$GPRMC,214621.000,A,4910.32436,N,12304.14179,W,0.0,0.0,230419,,,A*71
$GPGGA,214622.000,4910.32436,N,12304.14179,W,1,14,0.6,064.94,M,-16.8,M,,*53
$GPRMC,214622.000,A,4910.32436,N,12304.14179,W,0.1,0.0,230419,,,A*73
$GPGGA,214623.000,4910.32436,N,12304.14179,W,1,14,0.6,064.94,M,-16.8,M,,*52
$GPRMC,214623.000,A,4910.32436,N,12304.14179,W,0.1,0.0,230419,,,A*72
$GPGGA,214624.000,4910.32436,N,12304.14179,W,1,14,0.6,064.94,M,-16.8,M,,*55
$GPRMC,214624.000,A,4910.32436,N,12304.14179,W,0.0,0.0,230419,,,A*74
$GPGGA,214625.000,4910.32436,N,12304.14179,W,1,14,0.6,064.94,M,-16.8,M,,*54
$GPRMC,214625.000,A,4910.32436,N,12304.14179,W,0.0,0.0,230419,,,A*75
$GPGGA,214626.000,4910.32436,N,12304.14179,W,1,14,0.6,064.94,M,-16.8,M,,*57
$GPRMC,214626.000,A,4910.32436,N,12304.14179,W,0.0,0.0,230419,,,A*76
$GPGGA,214627.000,4910.32436,N,12304.14179,W,1,14,0.6,064.94,M,-16.8,M,,*56
$GPRMC,214627.000,A,4910.32436,N,12304.14179,W,0.0,0.0,230419,,,A*77
$GPGGA,214628.000,4910.32436,N,12304.14179,W,1,14,0.6,064.94,M,-16.8,M,,*59
$GPRMC,214628.000,A,4910.32436,N,12304.14179,W,0.0,0.0,230419,,,A*78
$GPGGA,214629.000,4910.32436,N,12304.14179,W,1,14,0.6,064.94,M,-16.8,M,,*58
$GPRMC,214629.000,A,4910.32436,N,12304.14179,W,0.1,0.0,230419,,,A*78
$GPGGA,214630.000,4910.32436,N,12304.14179,W,1,14,0.6,064.94,M,-16.8,M,,*50
$GPRMC,214630.000,A,4910.32436,N,12304.14179,W,0.0,0.0,230419,,,A*71
$GPGGA,214631.000,4910.32436,N,12304.14179,W,1,13,0.6,064.94,M,-16.8,M,,*56
$GPRMC,214631.000,A,4910.32436,N,12304.14179,W,0.0,0.0,230419,,,A*70
$GPGGA,214632.000,4910.32436,N,12304.14179,W,1,14,0.6,064.94,M,-16.8,M,,*52
$GPRMC,214632.000,A,4910.32436,N,12304.14179,W,0.1,0.0,230419,,,A*72
$GPGGA,214633.000,4910.32436,N,12304.14179,W,1,14,0.6,064.94,M,-16.8,M,,*53
$GPRMC,214633.000,A,4910.32436,N,12304.14179,W,0.0,0.0,230419,,,A*72
$GPGGA,214634.000,4910.32436,N,12304.14179,W,1,14,0.6,064.94,M,-16.8,M,,*54
$GPRMC,214634.000,A,4910.32436,N,12304.14179,W,0.1,0.0,230419,,,A*74
$GPGGA,214635.000,4910.32436,N,12304.14179,W,1,15,0.6,064.94,M,-16.8,M,,*54
$GPRMC,214635.000,A,4910.32436,N,12304.14179,W,0.0,0.0,230419,,,A*74
$GPGGA,214636.000,4910.32436,N,12304.14179,W,1,15,0.6,064.94,M,-16.8,M,,*57
$GPRMC,214636.000,A,4910.32436,N,12304.14179,W,0.1,0.0,230419,,,A*76
$GPGGA,214637.000,4910.32436,N,12304.14179,W,1,15,0.6,064.94,M,-16.8,M,,*56
$GPRMC,214637.000,A,4910.32436,N,12304.14179,W,0.1,0.0,230419,,,A*77
$GPGGA,214638.000,4910.32436,N,12304.14179,W,1,15,0.6,064.94,M,-16.8,M,,*59
$GPRMC,214638.000,A,4910.32436,N,12304.14179,W,0.1,0.0,230419,,,A*78
$GPGGA,214639.000,4910.32436,N,12304.14179,W,1,15,0.6,064.94,M,-16.8,M,,*58
$GPRMC,214639.000,A,4910.32436,N,12304.14179,W,0.0,0.0,230419,,,A*78
$GPGGA,214640.000,4910.32436,N,12304.14179,W,1,15,0.6,064.94,M,-16.8,M,,*56
$GPRMC,214640.000,A,4910.32436,N,12304.14179,W,0.0,0.0,230419,,,A*76
$GPGGA,214641.000,4910.32436,N,12304.14179,W,1,15,0.6,064.94,M,-16.8,M,,*57
$GPRMC,214641.000,A,4910.32436,N,12304.14179,W,0.1,0.0,230419,,,A*76
$GPGGA,214642.000,4910.32436,N,12304.14179,W,1,15,0.6,064.94,M,-16.8,M,,*54
$GPRMC,214642.000,A,4910.32436,N,12304.14179,W,0.1,0.0,230419,,,A*75
$GPGGA,214643.000,4910.32436,N,12304.14179,W,1,14,0.6,064.94,M,-16.8,M,,*54
$GPRMC,214643.000,A,4910.32436,N,12304.14179,W,0.0,0.0,230419,,,A*75
$GPGGA,214644.000,4910.32436,N,12304.14179,W,1,14,0.6,064.94,M,-16.8,M,,*53
$GPRMC,214644.000,A,4910.32436,N,12304.14179,W,0.1,0.0,230419,,,A*73
$GPGGA,214645.000,4910.32436,N,12304.14179,W,1,15,0.6,064.94,M,-16.8,M,,*53
$GPRMC,214645.000,A,4910.32436,N,12304.14179,W,0.0,0.0,230419,,,A*73
$GPGGA,214646.000,4910.32436,N,12304.14179,W,1,14,0.6,064.94,M,-16.8,M,,*51
$GPRMC,214646.000,A,4910.32436,N,12304.14179,W,0.1,0.0,230419,,,A*71
$GPGGA,214647.000,4910.32436,N,12304.14179,W,1,14,0.7,064.94,M,-16.8,M,,*51
$GPRMC,214647.000,A,4910.32436,N,12304.14179,W,0.0,0.0,230419,,,A*71
$GPGGA,214648.000,4910.32436,N,12304.14179,W,1,14,0.7,064.94,M,-16.8,M,,*5E
$GPRMC,214648.000,A,4910.32436,N,12304.14179,W,0.0,0.0,230419,,,A*7E
$GPGGA,214649.000,4910.32436,N,12304.14179,W,1,14,0.7,064.94,M,-16.8,M,,*5F
$GPRMC,214649.000,A,4910.32436,N,12304.14179,W,0.0,0.0,230419,,,A*7F
$GPGGA,214650.000,4910.32436,N,12304.14179,W,1,14,0.6,064.94,M,-16.8,M,,*56
$GPRMC,214650.000,A,4910.32436,N,12304.14179,W,0.1,0.0,230419,,,A*76
$GPGGA,214651.000,4910.32391,N,12304.14141,W,1,14,0.6,061.29,M,-16.8,M,,*55
$GPRMC,214651.000,A,4910.32391,N,12304.14141,W,0.1,0.0,230419,,,A*76
$GPGGA,214652.000,4910.32391,N,12304.14141,W,1,14,0.6,061.29,M,-16.8,M,,*56
$GPRMC,214652.000,A,4910.32391,N,12304.14141,W,0.1,0.0,230419,,,A*75
$GPGGA,214653.000,4910.32391,N,12304.14141,W,1,15,0.6,061.29,M,-16.8,M,,*56
$GPRMC,214653.000,A,4910.32391,N,12304.14141,W,0.1,0.0,230419,,,A*74
$GPGGA,214654.000,4910.32391,N,12304.14141,W,1,15,0.6,061.29,M,-16.8,M,,*51
$GPRMC,214654.000,A,4910.32391,N,12304.14141,W,0.0,0.0,230419,,,A*72
$GPGGA,214655.000,4910.32391,N,12304.14141,W,1,14,0.6,061.29,M,-16.8,M,,*51
$GPRMC,214655.000,A,4910.32391,N,12304.14141,W,0.1,0.0,230419,,,A*72
$GPGGA,214656.000,4910.32391,N,12304.14141,W,1,14,0.6,061.29,M,-16.8,M,,*52
$GPRMC,214656.000,A,4910.32391,N,12304.14141,W,0.0,0.0,230419,,,A*70
$GPGGA,214657.000,4910.32391,N,12304.14141,W,1,14,0.6,061.29,M,-16.8,M,,*53
$GPRMC,214657.000,A,4910.32391,N,12304.14141,W,0.1,0.0,230419,,,A*70
$GPGGA,214658.000,4910.32391,N,12304.14141,W,1,14,0.6,061.29,M,-16.8,M,,*5C
$GPRMC,214658.000,A,4910.32391,N,12304.14141,W,0.0,0.0,230419,,,A*7E
$GPGGA,214659.000,4910.32391,N,12304.14141,W,1,14,0.6,061.29,M,-16.8,M,,*5D
$GPRMC,214659.000,A,4910.32391,N,12304.14141,W,0.1,0.0,230419,,,A*7E
$GPGGA,214700.000,4910.32391,N,12304.14141,W,1,14,0.6,061.29,M,-16.8,M,,*50
$GPRMC,214700.000,A,4910.32391,N,12304.14141,W,0.0,0.0,230419,,,A*72
$GPGGA,214701.000,4910.32391,N,12304.14141,W,1,14,0.6,061.29,M,-16.8,M,,*51
$GPRMC,214701.000,A,4910.32391,N,12304.14141,W,0.0,0.0,230419,,,A*73
$GPGGA,214702.000,4910.32391,N,12304.14141,W,1,14,0.6,061.29,M,-16.8,M,,*52
$GPRMC,214702.000,A,4910.32391,N,12304.14141,W,0.1,0.0,230419,,,A*71
$GPGGA,214703.000,4910.32391,N,12304.14141,W,1,14,0.6,061.29,M,-16.8,M,,*53
$GPRMC,214703.000,A,4910.32391,N,12304.14141,W,0.0,0.0,230419,,,A*71
$GPGGA,214704.000,4910.32391,N,12304.14141,W,1,14,0.6,061.29,M,-16.8,M,,*54
$GPRMC,214704.000,A,4910.32391,N,12304.14141,W,0.0,0.0,230419,,,A*76
$GPGGA,214705.000,4910.32391,N,12304.14141,W,1,14,0.6,061.29,M,-16.8,M,,*55
$GPRMC,214705.000,A,4910.32391,N,12304.14141,W,0.1,0.0,230419,,,A*76
$GPGGA,214706.000,4910.32391,N,12304.14141,W,1,14,0.6,061.29,M,-16.8,M,,*56
$GPRMC,214706.000,A,4910.32391,N,12304.14141,W,0.0,0.0,230419,,,A*74
$GPGGA,214707.000,4910.32391,N,12304.14141,W,1,14,0.6,061.29,M,-16.8,M,,*57
$GPRMC,214707.000,A,4910.32391,N,12304.14141,W,0.0,0.0,230419,,,A*75
$GPGGA,214708.000,4910.32391,N,12304.14141,W,1,14,0.6,061.29,M,-16.8,M,,*58
$GPRMC,214708.000,A,4910.32391,N,12304.14141,W,0.1,0.0,230419,,,A*7B
$GPGGA,214709.000,4910.32391,N,12304.14141,W,1,14,0.6,061.29,M,-16.8,M,,*59
$GPRMC,214709.000,A,4910.32391,N,12304.14141,W,0.1,0.0,230419,,,A*7A
$GPGGA,214710.000,4910.32391,N,12304.14141,W,1,14,0.6,061.29,M,-16.8,M,,*51
$GPRMC,214710.000,A,4910.32391,N,12304.14141,W,0.1,0.0,230419,,,A*72
$GPGGA,214711.000,4910.32391,N,12304.14141,W,1,14,0.6,061.29,M,-16.8,M,,*50
$GPRMC,214711.000,A,4910.32391,N,12304.14141,W,0.1,0.0,230419,,,A*73
$GPGGA,214712.000,4910.32391,N,12304.14141,W,1,14,0.6,061.29,M,-16.8,M,,*53
$GPRMC,214712.000,A,4910.32391,N,12304.14141,W,0.0,0.0,230419,,,A*71
$GPGGA,214713.000,4910.32391,N,12304.14141,W,1,14,0.6,061.29,M,-16.8,M,,*52
$GPRMC,214713.000,A,4910.32391,N,12304.14141,W,0.1,0.0,230419,,,A*71
$GPGGA,214714.000,4910.32391,N,12304.14141,W,1,14,0.6,061.29,M,-16.8,M,,*55
$GPRMC,214714.000,A,4910.32391,N,12304.14141,W,0.0,0.0,230419,,,A*77
$GPGGA,214715.000,4910.32391,N,12304.14141,W,1,14,0.6,061.29,M,-16.8,M,,*54
$GPRMC,214715.000,A,4910.32391,N,12304.14141,W,0.1,0.0,230419,,,A*77
$GPGGA,214716.000,4910.32391,N,12304.14141,W,1,14,0.6,061.29,M,-16.8,M,,*57
$GPRMC,214716.000,A,4910.32391,N,12304.14141,W,0.1,0.0,230419,,,A*74
$GPGGA,214717.000,4910.32391,N,12304.14141,W,1,14,0.6,061.29,M,-16.8,M,,*56
$GPRMC,214717.000,A,4910.32391,N,12304.14141,W,0.0,0.0,230419,,,A*74
$GPGGA,214718.000,4910.32391,N,12304.14141,W,1,14,0.6,061.29,M,-16.8,M,,*59
$GPRMC,214718.000,A,4910.32391,N,12304.14141,W,0.0,0.0,230419,,,A*7B
$GPGGA,214719.000,4910.32391,N,12304.14141,W,1,15,0.6,061.29,M,-16.8,M,,*59
$GPRMC,214719.000,A,4910.32391,N,12304.14141,W,0.0,0.0,230419,,,A*7A
$GPGGA,214720.000,4910.32391,N,12304.14141,W,1,13,0.7,061.29,M,-16.8,M,,*54
$GPRMC,214720.000,A,4910.32391,N,12304.14141,W,0.0,0.0,230419,,,A*70
$GPGGA,214721.000,4910.32391,N,12304.14141,W,1,14,0.7,061.29,M,-16.8,M,,*52
$GPRMC,214721.000,A,4910.32391,N,12304.14141,W,0.1,0.0,230419,,,A*70
$GPGGA,214722.000,4910.32391,N,12304.14141,W,1,14,0.6,061.29,M,-16.8,M,,*50
$GPRMC,214722.000,A,4910.32391,N,12304.14141,W,0.1,0.0,230419,,,A*73
$GPGGA,214723.000,4910.32391,N,12304.14141,W,1,15,0.6,061.29,M,-16.8,M,,*50
$GPRMC,214723.000,A,4910.32391,N,12304.14141,W,0.0,0.0,230419,,,A*73
$GPGGA,214724.000,4910.32391,N,12304.14141,W,1,15,0.7,061.29,M,-16.8,M,,*56
$GPRMC,214724.000,A,4910.32391,N,12304.14141,W,0.1,0.0,230419,,,A*75
$GPGGA,214725.000,4910.32391,N,12304.14141,W,1,16,0.6,061.29,M,-16.8,M,,*55
$GPRMC,214725.000,A,4910.32391,N,12304.14141,W,0.0,0.0,230419,,,A*75
$GPGGA,214726.000,4910.32391,N,12304.14141,W,1,14,0.7,061.29,M,-16.8,M,,*55
$GPRMC,214726.000,A,4910.32391,N,12304.14141,W,0.0,0.0,230419,,,A*76
$GPGGA,214727.000,4910.32391,N,12304.14141,W,1,15,0.7,061.29,M,-16.8,M,,*55
$GPRMC,214727.000,A,4910.32391,N,12304.14141,W,0.0,0.0,230419,,,A*77
$GPGGA,214728.000,4910.32391,N,12304.14141,W,1,14,0.7,061.29,M,-16.8,M,,*5B
$GPRMC,214728.000,A,4910.32391,N,12304.14141,W,0.0,0.0,230419,,,A*78
$GPGGA,214729.000,4910.32391,N,12304.14141,W,1,14,0.7,061.29,M,-16.8,M,,*5A
$GPRMC,214729.000,A,4910.32391,N,12304.14141,W,0.1,0.0,230419,,,A*78
$GPGGA,214730.000,4910.32391,N,12304.14141,W,1,15,0.6,061.29,M,-16.8,M,,*52
$GPRMC,214730.000,A,4910.32391,N,12304.14141,W,0.1,0.0,230419,,,A*70
$GPGGA,214731.000,4910.32297,N,12304.14269,W,1,15,0.6,059.30,M,-16.8,M,,*5E
$GPRMC,214731.000,A,4910.32297,N,12304.14269,W,0.1,0.0,230419,,,A*7F
$GPGGA,214732.000,4910.32297,N,12304.14269,W,1,15,0.6,059.30,M,-16.8,M,,*5D
$GPRMC,214732.000,A,4910.32297,N,12304.14269,W,0.0,0.0,230419,,,A*7D
$GPGGA,214733.000,4910.32297,N,12304.14269,W,1,15,0.6,059.30,M,-16.8,M,,*5C
$GPRMC,214733.000,A,4910.32297,N,12304.14269,W,0.0,0.0,230419,,,A*7C
$GPGGA,214734.000,4910.32297,N,12304.14269,W,1,15,0.6,059.30,M,-16.8,M,,*5B
$GPRMC,214734.000,A,4910.32297,N,12304.14269,W,0.0,0.0,230419,,,A*7B
$GPGGA,214735.000,4910.32297,N,12304.14269,W,1,15,0.6,059.30,M,-16.8,M,,*5A
$GPRMC,214735.000,A,4910.32297,N,12304.14269,W,0.1,0.0,230419,,,A*7B
$GPGGA,214736.000,4910.32297,N,12304.14269,W,1,15,0.6,059.30,M,-16.8,M,,*59
$GPRMC,214736.000,A,4910.32297,N,12304.14269,W,0.0,0.0,230419,,,A*79
$GPGGA,214737.000,4910.32297,N,12304.14269,W,1,15,0.6,059.30,M,-16.8,M,,*58
$GPRMC,214737.000,A,4910.32297,N,12304.14269,W,0.1,0.0,230419,,,A*79
$GPGGA,214738.000,4910.32297,N,12304.14269,W,1,16,0.6,059.30,M,-16.8,M,,*54
$GPRMC,214738.000,A,4910.32297,N,12304.14269,W,0.1,0.0,230419,,,A*76
$GPGGA,214739.000,4910.32297,N,12304.14269,W,1,16,0.6,059.30,M,-16.8,M,,*55
$GPRMC,214739.000,A,4910.32297,N,12304.14269,W,0.1,0.0,230419,,,A*77
$GPGGA,214740.000,4910.32297,N,12304.14269,W,1,16,0.6,059.30,M,-16.8,M,,*5B
$GPRMC,214740.000,A,4910.32297,N,12304.14269,W,0.0,0.0,230419,,,A*78
$GPGGA,214741.000,4910.32297,N,12304.14269,W,1,16,0.6,059.30,M,-16.8,M,,*5A
$GPRMC,214741.000,A,4910.32297,N,12304.14269,W,0.0,0.0,230419,,,A*79
$GPGGA,214742.000,4910.32297,N,12304.14269,W,1,16,0.6,059.30,M,-16.8,M,,*59
$GPRMC,214742.000,A,4910.32297,N,12304.14269,W,0.0,0.0,230419,,,A*7A
$GPGGA,214743.000,4910.32297,N,12304.14269,W,1,16,0.6,059.30,M,-16.8,M,,*58
$GPRMC,214743.000,A,4910.32297,N,12304.14269,W,0.1,0.0,230419,,,A*7A
$GPGGA,214744.000,4910.32297,N,12304.14269,W,1,16,0.6,059.30,M,-16.8,M,,*5F
$GPRMC,214744.000,A,4910.32297,N,12304.14269,W,0.1,0.0,230419,,,A*7D
$GPGGA,214745.000,4910.32297,N,12304.14269,W,1,15,0.6,059.30,M,-16.8,M,,*5D
$GPRMC,214745.000,A,4910.32297,N,12304.14269,W,0.1,0.0,230419,,,A*7C
$GPGGA,214746.000,4910.32297,N,12304.14269,W,1,15,0.6,059.30,M,-16.8,M,,*5E
$GPRMC,214746.000,A,4910.32297,N,12304.14269,W,0.1,0.0,230419,,,A*7F
$GPGGA,214747.000,4910.32297,N,12304.14269,W,1,15,0.6,059.30,M,-16.8,M,,*5F
$GPRMC,214747.000,A,4910.32297,N,12304.14269,W,0.1,0.0,230419,,,A*7E
$GPGGA,214748.000,4910.32297,N,12304.14269,W,1,14,0.7,059.30,M,-16.8,M,,*50
$GPRMC,214748.000,A,4910.32297,N,12304.14269,W,0.1,0.0,230419,,,A*71
$GPGGA,214749.000,4910.32297,N,12304.14269,W,1,15,0.6,059.30,M,-16.8,M,,*51
$GPRMC,214749.000,A,4910.32297,N,12304.14269,W,0.0,0.0,230419,,,A*71
$GPGGA,214750.000,4910.32297,N,12304.14269,W,1,15,0.6,059.30,M,-16.8,M,,*59
$GPRMC,214750.000,A,4910.32297,N,12304.14269,W,0.1,0.0,230419,,,A*78
$GPGGA,214751.000,4910.32297,N,12304.14269,W,1,15,0.6,059.30,M,-16.8,M,,*58
$GPRMC,214751.000,A,4910.32297,N,12304.14269,W,0.0,0.0,230419,,,A*78
$GPGGA,214752.000,4910.32297,N,12304.14269,W,1,15,0.6,059.30,M,-16.8,M,,*5B
$GPRMC,214752.000,A,4910.32297,N,12304.14269,W,0.0,0.0,230419,,,A*7B
$GPGGA,214753.000,4910.32297,N,12304.14269,W,1,14,0.7,059.30,M,-16.8,M,,*5A
$GPRMC,214753.000,A,4910.32297,N,12304.14269,W,0.0,0.0,230419,,,A*7A
$GPGGA,214754.000,4910.32297,N,12304.14269,W,1,14,0.7,059.30,M,-16.8,M,,*5D
$GPRMC,214754.000,A,4910.32297,N,12304.14269,W,0.0,0.0,230419,,,A*7D
$GPGGA,214755.000,4910.32297,N,12304.14269,W,1,14,0.6,059.30,M,-16.8,M,,*5D
$GPRMC,214755.000,A,4910.32297,N,12304.14269,W,0.0,0.0,230419,,,A*7C
$GPGGA,214756.000,4910.32297,N,12304.14269,W,1,14,0.6,059.30,M,-16.8,M,,*5E
$GPRMC,214756.000,A,4910.32297,N,12304.14269,W,0.1,0.0,230419,,,A*7E
$GPGGA,214757.000,4910.32297,N,12304.14269,W,1,13,0.7,059.30,M,-16.8,M,,*59
$GPRMC,214757.000,A,4910.32297,N,12304.14269,W,0.0,0.0,230419,,,A*7E
$GPGGA,214758.000,4910.32297,N,12304.14269,W,1,14,0.6,059.30,M,-16.8,M,,*50
$GPRMC,214758.000,A,4910.32297,N,12304.14269,W,0.0,0.0,230419,,,A*71
$GPGGA,214759.000,4910.32297,N,12304.14269,W,1,13,0.6,059.30,M,-16.8,M,,*56
$GPRMC,214759.000,A,4910.32297,N,12304.14269,W,0.0,0.0,230419,,,A*70
$GPGGA,214800.000,4910.32297,N,12304.14269,W,1,12,0.7,059.30,M,-16.8,M,,*55
$GPRMC,214800.000,A,4910.32297,N,12304.14269,W,0.0,0.0,230419,,,A*73
$GPGGA,214801.000,4910.32297,N,12304.14269,W,1,12,0.7,059.30,M,-16.8,M,,*54
$GPRMC,214801.000,A,4910.32297,N,12304.14269,W,0.0,0.0,230419,,,A*72
$GPGGA,214802.000,4910.32297,N,12304.14269,W,1,13,0.6,059.30,M,-16.8,M,,*57
$GPRMC,214802.000,A,4910.32297,N,12304.14269,W,0.0,0.0,230419,,,A*71
$GPGGA,214803.000,4910.32297,N,12304.14269,W,1,15,0.6,059.30,M,-16.8,M,,*50
$GPRMC,214803.000,A,4910.32297,N,12304.14269,W,0.1,0.0,230419,,,A*71
$GPGGA,214804.000,4910.32297,N,12304.14269,W,1,15,0.6,059.30,M,-16.8,M,,*57
$GPRMC,214804.000,A,4910.32297,N,12304.14269,W,0.0,0.0,230419,,,A*77
$GPGGA,214805.000,4910.32297,N,12304.14269,W,1,15,0.6,059.30,M,-16.8,M,,*56
$GPRMC,214805.000,A,4910.32297,N,12304.14269,W,0.0,0.0,230419,,,A*76
$GPGGA,214806.000,4910.32297,N,12304.14269,W,1,13,0.7,059.30,M,-16.8,M,,*52
$GPRMC,214806.000,A,4910.32297,N,12304.14269,W,0.0,0.0,230419,,,A*75
$GPGGA,214807.000,4910.32297,N,12304.14269,W,1,13,0.7,059.30,M,-16.8,M,,*53
$GPRMC,214807.000,A,4910.32297,N,12304.14269,W,0.0,0.0,230419,,,A*74
$GPGGA,214808.000,4910.32297,N,12304.14269,W,1,13,0.7,059.30,M,-16.8,M,,*5C
$GPRMC,214808.000,A,4910.32297,N,12304.14269,W,0.0,0.0,230419,,,A*7B
$GPGGA,214809.000,4910.32297,N,12304.14269,W,1,14,0.6,059.30,M,-16.8,M,,*5B
$GPRMC,214809.000,A,4910.32297,N,12304.14269,W,0.1,0.0,230419,,,A*7B
$GPGGA,214810.000,4910.32297,N,12304.14269,W,1,14,0.6,059.30,M,-16.8,M,,*53
$GPRMC,214810.000,A,4910.32297,N,12304.14269,W,0.0,0.0,230419,,,A*72
$GPGGA,214811.000,4910.32332,N,12304.14308,W,1,14,0.6,056.47,M,-16.8,M,,*55
$GPRMC,214811.000,A,4910.32332,N,12304.14308,W,0.0,0.0,230419,,,A*7B
$GPGGA,214812.000,4910.32332,N,12304.14308,W,1,14,0.6,056.47,M,-16.8,M,,*56
$GPRMC,214812.000,A,4910.32332,N,12304.14308,W,0.1,0.0,230419,,,A*79
$GPGGA,214813.000,4910.32332,N,12304.14308,W,1,14,0.6,056.47,M,-16.8,M,,*57
$GPRMC,214813.000,A,4910.32332,N,12304.14308,W,0.0,0.0,230419,,,A*79
$GPGGA,214814.000,4910.32332,N,12304.14308,W,1,14,0.6,056.47,M,-16.8,M,,*50
$GPRMC,214814.000,A,4910.32332,N,12304.14308,W,0.0,0.0,230419,,,A*7E
$GPGGA,214815.000,4910.32332,N,12304.14308,W,1,14,0.6,056.47,M,-16.8,M,,*51
$GPRMC,214815.000,A,4910.32332,N,12304.14308,W,0.1,0.0,230419,,,A*7E
$GPGGA,214816.000,4910.32332,N,12304.14308,W,1,14,0.6,056.47,M,-16.8,M,,*52
$GPRMC,214816.000,A,4910.32332,N,12304.14308,W,0.1,0.0,230419,,,A*7D
$GPGGA,214817.000,4910.32332,N,12304.14308,W,1,14,0.6,056.47,M,-16.8,M,,*53
$GPRMC,214817.000,A,4910.32332,N,12304.14308,W,0.0,0.0,230419,,,A*7D
$GPGGA,214818.000,4910.32332,N,12304.14308,W,1,15,0.6,056.47,M,-16.8,M,,*5D
$GPRMC,214818.000,A,4910.32332,N,12304.14308,W,0.0,0.0,230419,,,A*72
$GPGGA,214819.000,4910.32332,N,12304.14308,W,1,15,0.6,056.47,M,-16.8,M,,*5C
$GPRMC,214819.000,A,4910.32332,N,12304.14308,W,0.0,0.0,230419,,,A*73
$GPGGA,214820.000,4910.32332,N,12304.14308,W,1,15,0.6,056.47,M,-16.8,M,,*56
$GPRMC,214820.000,A,4910.32332,N,12304.14308,W,0.0,0.0,230419,,,A*79
$GPGGA,214821.000,4910.32332,N,12304.14308,W,1,15,0.6,056.47,M,-16.8,M,,*57
$GPRMC,214821.000,A,4910.32332,N,12304.14308,W,0.0,0.0,230419,,,A*78
$GPGGA,214822.000,4910.32332,N,12304.14308,W,1,15,0.6,056.47,M,-16.8,M,,*54
$GPRMC,214822.000,A,4910.32332,N,12304.14308,W,0.0,0.0,230419,,,A*7B
$GPGGA,214823.000,4910.32332,N,12304.14308,W,1,15,0.6,056.47,M,-16.8,M,,*55
$GPRMC,214823.000,A,4910.32332,N,12304.14308,W,0.0,0.0,230419,,,A*7A
$GPGGA,214824.000,4910.32332,N,12304.14308,W,1,15,0.6,056.47,M,-16.8,M,,*52
$GPRMC,214824.000,A,4910.32332,N,12304.14308,W,0.0,0.0,230419,,,A*7D
$GPGGA,214825.000,4910.32332,N,12304.14308,W,1,15,0.6,056.47,M,-16.8,M,,*53
$GPRMC,214825.000,A,4910.32332,N,12304.14308,W,0.1,0.0,230419,,,A*7D
$GPGGA,214826.000,4910.32332,N,12304.14308,W,1,15,0.6,056.47,M,-16.8,M,,*50
$GPRMC,214826.000,A,4910.32332,N,12304.14308,W,0.0,0.0,230419,,,A*7F
$GPGGA,214827.000,4910.32332,N,12304.14308,W,1,15,0.6,056.47,M,-16.8,M,,*51
$GPRMC,214827.000,A,4910.32332,N,12304.14308,W,0.0,0.0,230419,,,A*7E
$GPGGA,214828.000,4910.32332,N,12304.14308,W,1,15,0.6,056.47,M,-16.8,M,,*5E
$GPRMC,214828.000,A,4910.32332,N,12304.14308,W,0.1,0.0,230419,,,A*70
$GPGGA,214829.000,4910.32332,N,12304.14308,W,1,15,0.6,056.47,M,-16.8,M,,*5F
$GPRMC,214829.000,A,4910.32332,N,12304.14308,W,0.0,0.0,230419,,,A*70
$GPGGA,214830.000,4910.32332,N,12304.14308,W,1,15,0.6,056.47,M,-16.8,M,,*57
$GPRMC,214830.000,A,4910.32332,N,12304.14308,W,0.0,0.0,230419,,,A*78
$GPGGA,214831.000,4910.32332,N,12304.14308,W,1,15,0.6,056.47,M,-16.8,M,,*56
$GPRMC,214831.000,A,4910.32332,N,12304.14308,W,0.0,0.0,230419,,,A*79
$GPGGA,214832.000,4910.32332,N,12304.14308,W,1,14,0.7,056.47,M,-16.8,M,,*55
$GPRMC,214832.000,A,4910.32332,N,12304.14308,W,0.1,0.0,230419,,,A*7B
$GPGGA,214833.000,4910.32332,N,12304.14308,W,1,14,0.7,056.47,M,-16.8,M,,*54
$GPRMC,214833.000,A,4910.32332,N,12304.14308,W,0.0,0.0,230419,,,A*7B
$GPGGA,214834.000,4910.32332,N,12304.14308,W,1,14,0.7,056.47,M,-16.8,M,,*53
$GPRMC,214834.000,A,4910.32332,N,12304.14308,W,0.1,0.0,230419,,,A*7D
$GPGGA,214835.000,4910.32332,N,12304.14308,W,1,14,0.6,056.47,M,-16.8,M,,*53
$GPRMC,214835.000,A,4910.32332,N,12304.14308,W,0.0,0.0,230419,,,A*7D
$GPGGA,214836.000,4910.32332,N,12304.14308,W,1,13,0.6,056.47,M,-16.8,M,,*57
$GPRMC,214836.000,A,4910.32332,N,12304.14308,W,0.0,0.0,230419,,,A*7E
$GPGGA,214837.000,4910.32332,N,12304.14308,W,1,13,0.6,056.47,M,-16.8,M,,*56
$GPRMC,214837.000,A,4910.32332,N,12304.14308,W,0.0,0.0,230419,,,A*7F
$GPGGA,214838.000,4910.32332,N,12304.14308,W,1,14,0.6,056.47,M,-16.8,M,,*5E
$GPRMC,214838.000,A,4910.32332,N,12304.14308,W,0.0,0.0,230419,,,A*70
$GPGGA,214839.000,4910.32332,N,12304.14308,W,1,15,0.6,056.47,M,-16.8,M,,*5E
$GPRMC,214839.000,A,4910.32332,N,12304.14308,W,0.1,0.0,230419,,,A*70
$GPGGA,214840.000,4910.32332,N,12304.14308,W,1,14,0.6,056.47,M,-16.8,M,,*51
$GPRMC,214840.000,A,4910.32332,N,12304.14308,W,0.0,0.0,230419,,,A*7F
$GPGGA,214841.000,4910.32332,N,12304.14308,W,1,13,0.7,056.47,M,-16.8,M,,*56
$GPRMC,214841.000,A,4910.32332,N,12304.14308,W,0.0,0.0,230419,,,A*7E
$GPGGA,214842.000,4910.32332,N,12304.14308,W,1,13,0.7,056.47,M,-16.8,M,,*55
$GPRMC,214842.000,A,4910.32332,N,12304.14308,W,0.1,0.0,230419,,,A*7C
$GPGGA,214843.000,4910.32332,N,12304.14308,W,1,14,0.6,056.47,M,-16.8,M,,*52
$GPRMC,214843.000,A,4910.32332,N,12304.14308,W,0.0,0.0,230419,,,A*7C
$GPGGA,214844.000,4910.32332,N,12304.14308,W,1,12,0.7,056.47,M,-16.8,M,,*52
$GPRMC,214844.000,A,4910.32332,N,12304.14308,W,0.1,0.0,230419,,,A*7A
$GPGGA,214845.000,4910.32332,N,12304.14308,W,1,12,0.6,056.47,M,-16.8,M,,*52
$GPRMC,214845.000,A,4910.32332,N,12304.14308,W,0.1,0.0,230419,,,A*7B
$GPGGA,214846.000,4910.32332,N,12304.14308,W,1,12,0.7,056.47,M,-16.8,M,,*50
$GPRMC,214846.000,A,4910.32332,N,12304.14308,W,0.0,0.0,230419,,,A*79
$GPGGA,214847.000,4910.32332,N,12304.14308,W,1,13,0.6,056.47,M,-16.8,M,,*51
$GPRMC,214847.000,A,4910.32332,N,12304.14308,W,0.0,0.0,230419,,,A*78
$GPGGA,214848.000,4910.32332,N,12304.14308,W,1,13,0.7,056.47,M,-16.8,M,,*5F
$GPRMC,214848.000,A,4910.32332,N,12304.14308,W,0.1,0.0,230419,,,A*76
$GPGGA,214849.000,4910.32332,N,12304.14308,W,1,12,0.6,056.47,M,-16.8,M,,*5E
$GPRMC,214849.000,A,4910.32332,N,12304.14308,W,0.1,0.0,230419,,,A*77
$GPGGA,214850.000,4910.32332,N,12304.14308,W,1,14,0.6,056.47,M,-16.8,M,,*50
$GPRMC,214850.000,A,4910.32332,N,12304.14308,W,0.0,0.0,230419,,,A*7E
$GPGGA,214851.000,4910.32301,N,12304.14352,W,1,14,0.6,056.37,M,-16.8,M,,*59
$GPRMC,214851.000,A,4910.32301,N,12304.14352,W,0.4,267.2,230419,,,A*75
$GPGGA,214852.000,4910.32301,N,12304.14352,W,1,15,0.6,056.37,M,-16.8,M,,*5B
$GPRMC,214852.000,A,4910.32301,N,12304.14352,W,0.7,95.3,230419,,,A*4B
$GPGGA,214853.000,4910.32301,N,12304.14352,W,1,15,0.7,056.37,M,-16.8,M,,*5B
$GPRMC,214853.000,A,4910.32301,N,12304.14352,W,1.9,69.5,230419,,,A*40
$GPGGA,214854.000,4910.32330,N,12304.14351,W,1,14,0.7,054.96,M,-16.8,M,,*55
$GPRMC,214854.000,A,4910.32330,N,12304.14351,W,2.2,76.6,230419,,,A*43
$GPGGA,214855.000,4910.32391,N,12304.14295,W,1,14,0.6,053.42,M,-16.8,M,,*59
$GPRMC,214855.000,A,4910.32391,N,12304.14295,W,3.1,49.8,230419,,,A*40
$GPGGA,214856.000,4910.32417,N,12304.14216,W,1,13,0.6,054.57,M,-16.8,M,,*5C
$GPRMC,214856.000,A,4910.32417,N,12304.14216,W,3.0,66.6,230419,,,A*43
$GPGGA,214857.000,4910.32431,N,12304.14093,W,1,10,0.7,055.73,M,-16.8,M,,*53
$GPRMC,214857.000,A,4910.32431,N,12304.14093,W,2.3,43.5,230419,,,A*4F
$GPGGA,214858.000,4910.32421,N,12304.14102,W,1,11,0.7,056.73,M,-16.8,M,,*56
$GPRMC,214858.000,A,4910.32421,N,12304.14102,W,2.3,28.6,230419,,,A*46
$GPGGA,214859.000,4910.32398,N,12304.14084,W,1,13,0.6,058.01,M,-16.8,M,,*55
$GPRMC,214859.000,A,4910.32398,N,12304.14084,W,2.7,26.0,230419,,,A*41
$GPGGA,214900.000,4910.32436,N,12304.14147,W,1,12,0.6,058.96,M,-1                                                                       6.8,M,,*5A
$GPRMC,214900.000,A,4910.32436,N,12304.14147,W,3.2,11.9,230419,,,                                                                       A*48
$GPGGA,214901.000,4910.32511,N,12304.14266,W,1,13,0.6,059.55,M,-1                                                                       6.8,M,,*50
$GPRMC,214901.000,A,4910.32511,N,12304.14266,W,3.6,9.0,230419,,,A                                                                       *79
$GPGGA,214902.000,4910.32596,N,12304.14392,W,1,13,0.6,060.26,M,-1                                                                       6.8,M,,*58
$GPRMC,214902.000,A,4910.32596,N,12304.14392,W,3.8,9.0,230419,,,A                                                                       *71
$GPGGA,214903.000,4910.32711,N,12304.14504,W,1,14,0.6,061.42,M,-1                                                                       6.8,M,,*59
$GPRMC,214903.000,A,4910.32711,N,12304.14504,W,4.0,8.8,230419,,,A                                                                       *72
$GPGGA,214904.000,4910.32827,N,12304.14646,W,1,11,0.6,061.99,M,-1                                                                       6.8,M,,*52
$GPRMC,214904.000,A,4910.32827,N,12304.14646,W,4.4,7.1,230419,,,A                                                                       *78
$GPGGA,214905.000,4910.32922,N,12304.14757,W,1,12,0.7,062.36,M,-1                                                                       6.8,M,,*52
$GPRMC,214905.000,A,4910.32922,N,12304.14757,W,4.1,7.7,230419,,,A                                                                       *7F
$GPGGA,214906.000,4910.33019,N,12304.14860,W,1,12,0.7,063.10,M,-1                                                                       6.8,M,,*5F
$GPRMC,214906.000,A,4910.33019,N,12304.14860,W,3.3,3.9,230419,,,A                                                                       *78
$GPGGA,214907.000,4910.33092,N,12304.14895,W,1,12,0.6,062.96,M,-1                                                                       6.8,M,,*59
$GPRMC,214907.000,A,4910.33092,N,12304.14895,W,2.6,5.3,230419,,,A                                                                       *78
$GPGGA,214908.000,4910.33126,N,12304.15008,W,1,15,0.6,062.73,M,-1                                                                       6.8,M,,*59
$GPRMC,214908.000,A,4910.33126,N,12304.15008,W,1.4,359.8,230419,,                                                                       ,A*74
$GPGGA,214909.000,4910.33171,N,12304.15160,W,1,14,0.6,062.68,M,-1                                                                       6.8,M,,*5E
$GPRMC,214909.000,A,4910.33171,N,12304.15160,W,0.3,347.9,230419,,                                                                       ,A*70
$GPGGA,214910.000,4910.33171,N,12304.15160,W,1,14,0.6,062.68,M,-1                                                                       6.8,M,,*56
$GPRMC,214910.000,A,4910.33171,N,12304.15160,W,0.1,0.0,230419,,,A                                                                       *73
$GPGGA,214911.000,4910.33171,N,12304.15160,W,1,15,0.6,062.68,M,-1                                                                       6.8,M,,*56
$GPRMC,214911.000,A,4910.33171,N,12304.15160,W,0.1,0.0,230419,,,A                                                                       *72
$GPGGA,214912.000,4910.33171,N,12304.15160,W,1,14,0.7,062.68,M,-1                                                                       6.8,M,,*55
$GPRMC,214912.000,A,4910.33171,N,12304.15160,W,0.1,0.0,230419,,,A                                                                       *71
$GPGGA,214913.000,4910.33171,N,12304.15160,W,1,14,0.6,062.68,M,-1                                                                       6.8,M,,*55
$GPRMC,214913.000,A,4910.33171,N,12304.15160,W,0.3,123.8,230419,,                                                                       ,A*7A
$GPGGA,214914.000,4910.33171,N,12304.15160,W,1,14,0.6,062.68,M,-1                                                                       6.8,M,,*52
$GPRMC,214914.000,A,4910.33171,N,12304.15160,W,0.1,0.0,230419,,,A                                                                       *77
$GPGGA,214915.000,4910.33171,N,12304.15160,W,1,14,0.6,062.68,M,-1                                                                       6.8,M,,*53
$GPRMC,214915.000,A,4910.33171,N,12304.15160,W,0.1,0.0,230419,,,A                                                                       *76
$GPGGA,214916.000,4910.33171,N,12304.15160,W,1,13,0.7,062.68,M,-1                                                                       6.8,M,,*56
$GPRMC,214916.000,A,4910.33171,N,12304.15160,W,0.0,0.0,230419,,,A                                                                       *74
$GPGGA,214917.000,4910.33171,N,12304.15160,W,1,13,0.7,062.68,M,-1                                                                       6.8,M,,*57
$GPRMC,214917.000,A,4910.33171,N,12304.15160,W,0.1,0.0,230419,,,A                                                                       *74
$GPGGA,214918.000,4910.33171,N,12304.15160,W,1,14,0.6,062.68,M,-1                                                                       6.8,M,,*5E
$GPRMC,214918.000,A,4910.33171,N,12304.15160,W,0.0,0.0,230419,,,A                                                                       *7A
$GPGGA,214919.000,4910.33171,N,12304.15160,W,1,14,0.6,062.68,M,-1                                                                       6.8,M,,*5F
$GPRMC,214919.000,A,4910.33171,N,12304.15160,W,0.0,0.0,230419,,,A                                                                       *7B
$GPGGA,214920.000,4910.33171,N,12304.15160,W,1,13,0.6,062.68,M,-16.8,M,,*52
$GPRMC,214920.000,A,4910.33171,N,12304.15160,W,0.0,0.0,230419,,,A*71
$GPGGA,214921.000,4910.33171,N,12304.15160,W,1,13,0.7,062.68,M,-16.8,M,,*52
$GPRMC,214921.000,A,4910.33171,N,12304.15160,W,0.1,0.0,230419,,,A*71
$GPGGA,214922.000,4910.33171,N,12304.15160,W,1,14,0.6,062.68,M,-16.8,M,,*57
$GPRMC,214922.000,A,4910.33171,N,12304.15160,W,0.0,0.0,230419,,,A*73
$GPGGA,214923.000,4910.33171,N,12304.15160,W,1,14,0.6,062.68,M,-16.8,M,,*56
$GPRMC,214923.000,A,4910.33171,N,12304.15160,W,0.0,0.0,230419,,,A*72
$GPGGA,214924.000,4910.33171,N,12304.15160,W,1,14,0.6,062.68,M,-16.8,M,,*51
$GPRMC,214924.000,A,4910.33171,N,12304.15160,W,0.0,0.0,230419,,,A*75
$GPGGA,214925.000,4910.33171,N,12304.15160,W,1,14,0.6,062.68,M,-16.8,M,,*50
$GPRMC,214925.000,A,4910.33171,N,12304.15160,W,0.0,0.0,230419,,,A*74
$GPGGA,214926.000,4910.33171,N,12304.15160,W,1,14,0.6,062.68,M,-16.8,M,,*53
$GPRMC,214926.000,A,4910.33171,N,12304.15160,W,0.0,0.0,230419,,,A*77
$GPGGA,214927.000,4910.33171,N,12304.15160,W,1,14,0.6,062.68,M,-16.8,M,,*52
$GPRMC,214927.000,A,4910.33171,N,12304.15160,W,0.0,0.0,230419,,,A*76
$GPGGA,214928.000,4910.33171,N,12304.15160,W,1,14,0.6,062.68,M,-16.8,M,,*5D
$GPRMC,214928.000,A,4910.33171,N,12304.15160,W,0.0,0.0,230419,,,A*79
$GPGGA,214929.000,4910.33171,N,12304.15160,W,1,14,0.6,062.68,M,-16.8,M,,*5C
$GPRMC,214929.000,A,4910.33171,N,12304.15160,W,0.0,0.0,230419,,,A*78
$GPGGA,214930.000,4910.33171,N,12304.15160,W,1,14,0.6,062.68,M,-16.8,M,,*54
$GPRMC,214930.000,A,4910.33171,N,12304.15160,W,0.0,0.0,230419,,,A*70
$GPGGA,214931.000,4910.33171,N,12304.15160,W,1,14,0.6,062.68,M,-16.8,M,,*55
$GPRMC,214931.000,A,4910.33171,N,12304.15160,W,0.0,0.0,230419,,,A*71
$GPGGA,214932.000,4910.33171,N,12304.15160,W,1,13,0.7,062.68,M,-16.8,M,,*50
$GPRMC,214932.000,A,4910.33171,N,12304.15160,W,0.0,0.0,230419,,,A*72
$GPGGA,214933.000,4910.33171,N,12304.15160,W,1,14,0.6,062.68,M,-16.8,M,,*57
$GPRMC,214933.000,A,4910.33171,N,12304.15160,W,0.0,0.0,230419,,,A*73
$GPGGA,214934.000,4910.33171,N,12304.15160,W,1,14,0.6,062.68,M,-16.8,M,,*50
$GPRMC,214934.000,A,4910.33171,N,12304.15160,W,0.1,0.0,230419,,,A*75
$GPGGA,214935.000,4910.33171,N,12304.15160,W,1,15,0.6,062.68,M,-16.8,M,,*50
$GPRMC,214935.000,A,4910.33171,N,12304.15160,W,0.0,0.0,230419,,,A*75
$GPGGA,214936.000,4910.33171,N,12304.15160,W,1,15,0.6,062.68,M,-16.8,M,,*53
$GPRMC,214936.000,A,4910.33171,N,12304.15160,W,0.1,0.0,230419,,,A*77
$GPGGA,214937.000,4910.33171,N,12304.15160,W,1,15,0.6,062.68,M,-16.8,M,,*52
$GPRMC,214937.000,A,4910.33171,N,12304.15160,W,0.0,0.0,230419,,,A*77
$GPGGA,214938.000,4910.33171,N,12304.15160,W,1,15,0.6,062.68,M,-16.8,M,,*5D
$GPRMC,214938.000,A,4910.33171,N,12304.15160,W,0.0,0.0,230419,,,A*78
$GPGGA,214939.000,4910.33171,N,12304.15160,W,1,15,0.6,062.68,M,-16.8,M,,*5C
$GPRMC,214939.000,A,4910.33171,N,12304.15160,W,0.0,0.0,230419,,,A*79
$GPGGA,214940.000,4910.33171,N,12304.15160,W,1,15,0.6,062.68,M,-16.8,M,,*52
$GPRMC,214940.000,A,4910.33171,N,12304.15160,W,0.1,0.0,230419,,,A*76
$GPGGA,214941.000,4910.33171,N,12304.15160,W,1,15,0.6,062.68,M,-16.8,M,,*53
$GPRMC,214941.000,A,4910.33171,N,12304.15160,W,0.1,0.0,230419,,,A*77
$GPGGA,214942.000,4910.33171,N,12304.15160,W,1,15,0.6,062.68,M,-16.8,M,,*50
$GPRMC,214942.000,A,4910.33171,N,12304.15160,W,0.1,0.0,230419,,,A*74
$GPGGA,214943.000,4910.33171,N,12304.15160,W,1,15,0.6,062.68,M,-16.8,M,,*51
$GPRMC,214943.000,A,4910.33171,N,12304.15160,W,0.1,0.0,230419,,,A*75
$GPGGA,214944.000,4910.33171,N,12304.15160,W,1,14,0.6,062.68,M,-16.8,M,,*57
$GPRMC,214944.000,A,4910.33171,N,12304.15160,W,0.1,0.0,230419,,,A*72
$GPGGA,214945.000,4910.33171,N,12304.15160,W,1,15,0.6,062.68,M,-16.8,M,,*57
$GPRMC,214945.000,A,4910.33171,N,12304.15160,W,0.0,0.0,230419,,,A*72
$GPGGA,214946.000,4910.33171,N,12304.15160,W,1,14,0.6,062.68,M,-16.8,M,,*55
$GPRMC,214946.000,A,4910.33171,N,12304.15160,W,0.3,18.4,230419,,,A*4F
$GPGGA,214947.000,4910.33171,N,12304.15160,W,1,15,0.6,062.68,M,-16.8,M,,*55
$GPRMC,214947.000,A,4910.33171,N,12304.15160,W,1.5,6.4,230419,,,A*76
$GPGGA,214948.000,4910.33171,N,12304.15160,W,1,14,0.6,062.68,M,-16.8,M,,*5B
$GPRMC,214948.000,A,4910.33171,N,12304.15160,W,2.1,6.8,230419,,,A*72
$GPGGA,214949.000,4910.33263,N,12304.15329,W,1,14,0.6,061.14,M,-16.8,M,,*5D
$GPRMC,214949.000,A,4910.33263,N,12304.15329,W,2.8,4.0,230419,,,A*7F
$GPGGA,214950.000,4910.33340,N,12304.15405,W,1,14,0.6,059.84,M,-16.8,M,,*5E
$GPRMC,214950.000,A,4910.33340,N,12304.15405,W,3.3,355.0,230419,,,A*73
$GPGGA,214951.000,4910.33452,N,12304.15471,W,1,14,0.6,058.16,M,-16.8,M,,*52
$GPRMC,214951.000,A,4910.33452,N,12304.15471,W,3.6,347.4,230419,,,A*77
$GPGGA,214952.000,4910.33634,N,12304.15705,W,1,13,0.6,056.49,M,-16.8,M,,*50
$GPRMC,214952.000,A,4910.33634,N,12304.15705,W,4.8,332.3,230419,,,A*7A
$GPGGA,214953.000,4910.33775,N,12304.15951,W,1,11,0.6,055.07,M,-16.8,M,,*51
$GPRMC,214953.000,A,4910.33775,N,12304.15951,W,6.0,317.1,230419,,,A*7F
$GPGGA,214954.000,4910.33940,N,12304.16272,W,1,13,0.6,053.15,M,-16.8,M,,*50
$GPRMC,214954.000,A,4910.33940,N,12304.16272,W,6.7,301.1,230419,,,A*79
$GPGGA,214955.000,4910.34067,N,12304.16592,W,1,12,0.7,051.57,M,-16.8,M,,*57
$GPRMC,214955.000,A,4910.34067,N,12304.16592,W,7.1,285.8,230419,,,A*79
$GPGGA,214956.000,4910.34203,N,12304.16942,W,1,13,0.6,049.67,M,-16.8,M,,*5F
$GPRMC,214956.000,A,4910.34203,N,12304.16942,W,7.3,278.0,230419,,,A*73
$GPGGA,214957.000,4910.34340,N,12304.17289,W,1,13,0.6,047.81,M,-16.8,M,,*53
$GPRMC,214957.000,A,4910.34340,N,12304.17289,W,7.3,272.6,230419,,,A*75
$GPGGA,214958.000,4910.34473,N,12304.17602,W,1,12,0.6,045.66,M,-16.8,M,,*56
$GPRMC,214958.000,A,4910.34473,N,12304.17602,W,7.2,270.5,230419,,,A*7A
$GPGGA,214959.000,4910.34581,N,12304.17963,W,1,14,0.6,043.63,M,-16.8,M,,*56
$GPRMC,214959.000,A,4910.34581,N,12304.17963,W,7.1,271.9,230419,,,A*71
$GPGGA,215000.000,4910.34681,N,12304.18301,W,1,14,0.6,041.71,M,-16.8,M,,*51
$GPRMC,215000.000,A,4910.34681,N,12304.18301,W,7.2,271.1,230419,,,A*7C
$GPGGA,215001.000,4910.34824,N,12304.18701,W,1,14,0.6,039.46,M,-16.8,M,,*5E
$GPRMC,215001.000,A,4910.34824,N,12304.18701,W,7.2,269.9,230419,,,A*79
$GPGGA,215002.000,4910.34927,N,12304.19095,W,1,14,0.6,037.48,M,-16.8,M,,*54
$GPRMC,215002.000,A,4910.34927,N,12304.19095,W,7.5,270.2,230419,,,A*77
$GPGGA,215003.000,4910.35006,N,12304.19445,W,1,14,0.6,035.65,M,-16.8,M,,*5A
$GPRMC,215003.000,A,4910.35006,N,12304.19445,W,7.6,269.5,230419,,,A*78
$GPGGA,215004.000,4910.34956,N,12304.20017,W,1,14,0.6,032.37,M,-16.8,M,,*59
$GPRMC,215004.000,A,4910.34956,N,12304.20017,W,7.3,264.4,230419,,,A*72
$GPGGA,215005.000,4910.34916,N,12304.20459,W,1,14,0.6,029.87,M,-16.8,M,,*53
$GPRMC,215005.000,A,4910.34916,N,12304.20459,W,5.6,259.9,230419,,,A*7D
$GPGGA,215006.000,4910.34892,N,12304.20716,W,1,14,0.6,027.77,M,-16.8,M,,*54
$GPRMC,215006.000,A,4910.34892,N,12304.20716,W,3.2,256.0,230419,,,A*7F
$GPGGA,215007.000,4910.34864,N,12304.20866,W,1,14,0.6,026.20,M,-16.8,M,,*57
$GPRMC,215007.000,A,4910.34864,N,12304.20866,W,2.2,249.4,230419,,,A*74
$GPGGA,215008.000,4910.34869,N,12304.20979,W,1,14,0.6,024.52,M,-16.8,M,,*5D
$GPRMC,215008.000,A,4910.34869,N,12304.20979,W,2.5,254.6,230419,,,A*70
$GPGGA,215009.000,4910.34875,N,12304.21106,W,1,14,0.6,023.17,M,-16.8,M,,*56
$GPRMC,215009.000,A,4910.34875,N,12304.21106,W,2.6,252.0,230419,,,A*7E
$GPGGA,215010.000,4910.34880,N,12304.21224,W,1,14,0.6,021.89,M,-16.8,M,,*52
$GPRMC,215010.000,A,4910.34880,N,12304.21224,W,2.8,256.2,230419,,,A*77
$GPGGA,215011.000,4910.34868,N,12304.21280,W,1,14,0.6,021.15,M,-16.8,M,,*5E
$GPRMC,215011.000,A,4910.34868,N,12304.21280,W,2.7,258.7,230419,,,A*7A
$GPGGA,215012.000,4910.34878,N,12304.21353,W,1,14,0.6,020.29,M,-16.8,M,,*5D
$GPRMC,215012.000,A,4910.34878,N,12304.21353,W,2.9,258.4,230419,,,A*7A
$GPGGA,215013.000,4910.34846,N,12304.21533,W,1,14,0.6,019.05,M,-16.8,M,,*55
$GPRMC,215013.000,A,4910.34846,N,12304.21533,W,3.0,262.3,230419,,,A*70
$GPGGA,215014.000,4910.34805,N,12304.21699,W,1,14,0.6,017.79,M,-16.8,M,,*53
$GPRMC,215014.000,A,4910.34805,N,12304.21699,W,3.9,262.8,230419,,,A*71
$GPGGA,215015.000,4910.34780,N,12304.21933,W,1,14,0.6,017.00,M,-16.8,M,,*51
$GPRMC,215015.000,A,4910.34780,N,12304.21933,W,4.9,265.5,230419,,,A*70
$GPGGA,215016.000,4910.34765,N,12304.22190,W,1,14,0.6,015.87,M,-16.8,M,,*56
$GPRMC,215016.000,A,4910.34765,N,12304.22190,W,6.3,268.5,230419,,,A*7F
$GPGGA,215017.000,4910.34753,N,12304.22484,W,1,14,0.6,015.02,M,-16.8,M,,*5F
$GPRMC,215017.000,A,4910.34753,N,12304.22484,W,7.2,267.6,230419,,,A*77
$GPGGA,215018.000,4910.34767,N,12304.22768,W,1,14,0.6,014.32,M,-16.8,M,,*54
$GPRMC,215018.000,A,4910.34767,N,12304.22768,W,7.5,272.0,230419,,,A*7B
$GPGGA,215019.000,4910.34769,N,12304.23097,W,1,14,0.6,013.70,M,-16.8,M,,*5C
$GPRMC,215019.000,A,4910.34769,N,12304.23097,W,7.6,270.1,230419,,,A*72
$GPGGA,215020.000,4910.34764,N,12304.23392,W,1,14,0.6,012.81,M,-16.8,M,,*52
$GPRMC,215020.000,A,4910.34764,N,12304.23392,W,7.0,262.2,230419,,,A*75
$GPGGA,215021.000,4910.34775,N,12304.23676,W,1,13,0.6,011.79,M,-16.8,M,,*5F
$GPRMC,215021.000,A,4910.34775,N,12304.23676,W,7.3,266.7,230419,,,A*79
$GPGGA,215022.000,4910.34791,N,12304.23991,W,1,13,0.6,011.33,M,-16.8,M,,*5E
$GPRMC,215022.000,A,4910.34791,N,12304.23991,W,7.7,271.9,230419,,,A*7A
$GPGGA,215023.000,4910.34813,N,12304.24306,W,1,13,0.6,010.90,M,-16.8,M,,*51
$GPRMC,215023.000,A,4910.34813,N,12304.24306,W,7.1,271.3,230419,,,A*71
$GPGGA,215024.000,4910.34847,N,12304.24609,W,1,14,0.6,010.47,M,-16.8,M,,*50
$GPRMC,215024.000,A,4910.34847,N,12304.24609,W,6.9,267.0,230419,,,A*70
$GPGGA,215025.000,4910.34854,N,12304.24882,W,1,14,0.6,010.46,M,-16.8,M,,*5F
$GPRMC,215025.000,A,4910.34854,N,12304.24882,W,6.9,256.6,230419,,,A*7A
$GPGGA,215026.000,4910.34820,N,12304.25124,W,1,13,0.6,010.54,M,-16.8,M,,*5F
$GPRMC,215026.000,A,4910.34820,N,12304.25124,W,6.5,244.8,230419,,,A*7F
$GPGGA,215027.000,4910.34738,N,12304.25337,W,1,12,0.6,010.70,M,-16.8,M,,*5F
$GPRMC,215027.000,A,4910.34738,N,12304.25337,W,6.2,231.8,230419,,,A*7D
$GPGGA,215028.000,4910.34631,N,12304.25510,W,1,12,0.6,010.71,M,-16.8,M,,*5A
$GPRMC,215028.000,A,4910.34631,N,12304.25510,W,5.8,219.1,230419,,,A*73
$GPGGA,215029.000,4910.34494,N,12304.25631,W,1,13,0.6,010.52,M,-16.8,M,,*56
$GPRMC,215029.000,A,4910.34494,N,12304.25631,W,5.7,204.6,230419,,,A*7B
$GPGGA,215030.000,4910.34351,N,12304.25701,W,1,13,0.6,010.44,M,-16.8,M,,*55
$GPRMC,215030.000,A,4910.34351,N,12304.25701,W,5.7,190.8,230419,,,A*7F
$GPGGA,215031.000,4910.34175,N,12304.25745,W,1,13,0.6,010.46,M,-16.8,M,,*52
$GPRMC,215031.000,A,4910.34175,N,12304.25745,W,5.9,175.5,230419,,,A*72
$GPGGA,215032.000,4910.33989,N,12304.25734,W,1,13,0.6,010.19,M,-16.8,M,,*51
$GPRMC,215032.000,A,4910.33989,N,12304.25734,W,6.2,164.1,230419,,,A*77
$GPGGA,215033.000,4910.33797,N,12304.25683,W,1,14,0.6,009.74,M,-16.8,M,,*58
$GPRMC,215033.000,A,4910.33797,N,12304.25683,W,6.9,157.2,230419,,,A*72
$GPGGA,215034.000,4910.33612,N,12304.25599,W,1,15,0.6,009.41,M,-16.8,M,,*5C
$GPRMC,215034.000,A,4910.33612,N,12304.25599,W,7.0,153.8,230419,,,A*77
$GPGGA,215035.000,4910.33423,N,12304.25494,W,1,15,0.6,008.89,M,-16.8,M,,*54
$GPRMC,215035.000,A,4910.33423,N,12304.25494,W,7.3,162.4,230419,,,A*77
$GPGGA,215036.000,4910.33226,N,12304.25419,W,1,15,0.6,008.57,M,-16.8,M,,*52
$GPRMC,215036.000,A,4910.33226,N,12304.25419,W,7.5,170.3,230419,,,A*70
$GPGGA,215037.000,4910.33004,N,12304.25410,W,1,16,0.6,008.37,M,-16.8,M,,*5D
$GPRMC,215037.000,A,4910.33004,N,12304.25410,W,8.0,176.7,230419,,,A*72
$GPGGA,215038.000,4910.32789,N,12304.25403,W,1,16,0.6,007.76,M,-16.8,M,,*59
$GPRMC,215038.000,A,4910.32789,N,12304.25403,W,7.2,178.8,230419,,,A*70
$GPGGA,215042.000,4910.32209,N,12304.25417,W,1,15,0.6,005.95,M,-16.8,M,,*50
$GPRMC,215042.000,A,4910.32209,N,12304.25417,W,5.7,180.0,230419,,,A*7D
$GPGGA,215043.000,4910.32064,N,12304.25417,W,1,15,0.6,005.73,M,-16.8,M,,*50
$GPRMC,215043.000,A,4910.32064,N,12304.25417,W,5.9,178.8,230419,,,A*74
$GPGGA,215044.000,4910.31925,N,12304.25397,W,1,15,0.6,005.45,M,-16.8,M,,*52
$GPRMC,215044.000,A,4910.31925,N,12304.25397,W,6.0,179.9,230419,,,A*79
$GPGGA,215045.000,4910.31768,N,12304.25361,W,1,14,0.6,005.25,M,-16.8,M,,*5A
$GPRMC,215045.000,A,4910.31768,N,12304.25361,W,5.9,181.3,230419,,,A*71
$GPGGA,215046.000,4910.31608,N,12304.25369,W,1,15,0.6,004.98,M,-16.8,M,,*50
$GPRMC,215046.000,A,4910.31608,N,12304.25369,W,5.7,182.0,230419,,,A*73
$GPGGA,215047.000,4910.31445,N,12304.25366,W,1,14,0.6,004.65,M,-16.8,M,,*56
$GPRMC,215047.000,A,4910.31445,N,12304.25366,W,5.4,180.7,230419,,,A*70
$GPGGA,215048.000,4910.31289,N,12304.25355,W,1,15,0.6,004.23,M,-16.8,M,,*5C
$GPRMC,215048.000,A,4910.31289,N,12304.25355,W,5.5,178.3,230419,,,A*7B
$GPGGA,215049.000,4910.31143,N,12304.25353,W,1,15,0.7,003.91,M,-16.8,M,,*51
$GPRMC,215049.000,A,4910.31143,N,12304.25353,W,5.1,180.0,230419,,,A*79
$GPGGA,215050.000,4910.31060,N,12304.25347,W,1,14,0.6,003.65,M,-16.8,M,,*57
$GPRMC,215050.000,A,4910.31060,N,12304.25347,W,1.7,178.1,230419,,,A*70
$GPGGA,215051.000,4910.31025,N,12304.25296,W,1,15,0.6,003.46,M,-16.8,M,,*5A
$GPRMC,215051.000,A,4910.31025,N,12304.25296,W,0.9,168.3,230419,,,A*71
$GPGGA,215052.000,4910.30979,N,12304.25263,W,1,15,0.6,003.44,M,-16.8,M,,*50
$GPRMC,215052.000,A,4910.30979,N,12304.25263,W,0.2,185.5,230419,,,A*77
$GPGGA,215053.000,4910.30979,N,12304.25263,W,1,15,0.6,003.44,M,-16.8,M,,*51
$GPRMC,215053.000,A,4910.30979,N,12304.25263,W,1.7,176.4,230419,,,A*7F
$GPGGA,215054.000,4910.30914,N,12304.25261,W,1,15,0.6,003.31,M,-16.8,M,,*5D
$GPRMC,215054.000,A,4910.30914,N,12304.25261,W,2.4,171.5,230419,,,A*77
$GPGGA,215055.000,4910.30818,N,12304.25262,W,1,14,0.6,003.00,M,-16.8,M,,*51
$GPRMC,215055.000,A,4910.30818,N,12304.25262,W,3.8,160.4,230419,,,A*74
$GPGGA,215056.000,4910.30711,N,12304.25204,W,1,14,0.6,002.58,M,-16.8,M,,*58
$GPRMC,215056.000,A,4910.30711,N,12304.25204,W,4.8,146.4,230419,,,A*72
$GPGGA,215057.000,4910.30589,N,12304.25055,W,1,14,0.6,002.30,M,-16.8,M,,*52
$GPRMC,215057.000,A,4910.30589,N,12304.25055,W,7.2,127.5,230419,,,A*79
$GPGGA,215058.000,4910.30482,N,12304.24796,W,1,15,0.6,001.97,M,-16.8,M,,*51
$GPRMC,215058.000,A,4910.30482,N,12304.24796,W,8.1,108.5,230419,,,A*74
$GPGGA,000000.000,4910.30434,N,12304.24542,W,6,00,0.000000,003.27,M,0.000000,M,,*42
$GPGGA,215059.000,4910.30422,N,12304.24158,W,6,15,0.600000,001.48,M,-16.800000,M,,*5B
$GPRMC,215059.000,A,4910.30422,N,12304.24158,W,006.7,103.1,230419,,,E*78
$GPGGA,215100.000,4910.30404,N,12304.23684,W,6,15,0.600000,001.61,M,-16.800000,M,,*58
$GPRMC,215100.000,A,4910.30404,N,12304.23684,W,009.4,092.2,230419,,,E*76
$GPGGA,215101.000,4910.30392,N,12304.23192,W,6,16,0.600000,001.39,M,-16.800000,M,,*5F
$GPRMC,215101.000,A,4910.30392,N,12304.23192,W,011.6,092.0,230419,,,E*76
$GPGGA,215102.000,4910.30374,N,12304.22622,W,6,16,0.600000,001.24,M,-16.800000,M,,*55
$GPRMC,215102.000,A,4910.30374,N,12304.22622,W,011.8,091.7,230419,,,E*7A
$GPGGA,215103.000,4910.30368,N,12304.21992,W,6,16,0.600000,001.03,M,-16.800000,M,,*5B
$GPRMC,215103.000,A,4910.30368,N,12304.21992,W,013.8,091.4,230419,,,E*70
$GPGGA,215104.000,4910.30368,N,12304.21278,W,6,16,0.600000,001.04,M,-16.800000,M,,*54
$GPRMC,215104.000,A,4910.30368,N,12304.21278,W,015.4,091.1,230419,,,E*77
$GPGGA,215105.000,4910.30368,N,12304.20552,W,6,15,0.600000,000.96,M,-16.800000,M,,*52
$GPRMC,215105.000,A,4910.30368,N,12304.20552,W,017.2,090.8,230419,,,E*74
$GPGGA,215106.000,4910.30368,N,12304.19802,W,6,15,0.600000,000.56,M,-16.800000,M,,*5F
$GPRMC,215106.000,A,4910.30368,N,12304.19802,W,018.6,091.1,230419,,,E*76
$GPGGA,215107.000,4910.30374,N,12304.19076,W,6,15,0.600000,000.41,M,-16.800000,M,,*5E
$GPRMC,215107.000,A,4910.30374,N,12304.19076,W,019.5,091.2,230419,,,E*70
$GPGGA,215108.000,4910.30350,N,12304.18392,W,6,16,0.600000,000.49,M,-16.800000,M,,*54
$GPRMC,215108.000,A,4910.30350,N,12304.18392,W,019.2,091.2,230419,,,E*76
$GPGGA,215109.000,4910.30332,N,12304.17732,W,6,16,0.600000,000.40,M,-16.800000,M,,*59
$GPRMC,215109.000,A,4910.30332,N,12304.17732,W,018.8,091.9,230419,,,E*72
$GPGGA,215110.000,4910.30314,N,12304.17144,W,6,16,0.600000,000.25,M,-16.800000,M,,*51
$GPRMC,215110.000,A,4910.30314,N,12304.17144,W,018.5,093.5,230419,,,E*7A
$GPGGA,215111.000,4910.30272,N,12304.16682,W,6,14,0.600000,-00.05,M,-16.800000,M,,*40
$GPRMC,215111.000,A,4910.30272,N,12304.16682,W,017.5,096.5,230419,,,E*7C
$GPGGA,215112.000,4910.30224,N,12304.16400,W,6,14,0.600000,-00.15,M,-16.800000,M,,*49
$GPRMC,215112.000,A,4910.30224,N,12304.16400,W,014.6,100.3,230419,,,E*7C
$GPGGA,215113.000,4910.30188,N,12304.16298,W,6,15,0.600000,-00.65,M,-16.800000,M,,*4C
$GPRMC,215113.000,A,4910.30188,N,12304.16298,W,010.5,105.1,230419,,,E*7F
$GPGGA,215114.000,4910.30158,N,12304.16214,W,6,16,0.600000,-00.24,M,-16.800000,M,,*44
$GPRMC,215114.000,A,4910.30158,N,12304.16214,W,004.2,109.5,230419,,,E*7B
$GPGGA,215115.000,4910.30164,N,12304.16220,W,6,15,0.600000,-00.82,M,-16.800000,M,,*42
$GPRMC,215115.000,A,4910.30164,N,12304.16220,W,000.5,118.0,230419,,,E*74
$GPGGA,215116.000,4910.30164,N,12304.16142,W,6,16,0.600000,-00.32,M,-16.800000,M,,*4E
$GPRMC,215116.000,A,4910.30164,N,12304.16142,W,003.5,132.9,230419,,,E*72
$GPGGA,215117.000,4910.30050,N,12304.15944,W,6,15,0.600000,000.01,M,-16.800000,M,,*5A
$GPRMC,215117.000,A,4910.30050,N,12304.15944,W,004.8,153.7,230419,,,E*7B
$GPGGA,215118.000,4910.29858,N,12304.15818,W,6,15,0.600000,000.01,M,-16.800000,M,,*55
$GPRMC,215118.000,A,4910.29858,N,12304.15818,W,003.2,172.6,230419,,,E*7B
$GPGGA,215119.000,4910.29480,N,12304.15740,W,6,12,0.600000,000.18,M,-16.800000,M,,*50
$GPRMC,215119.000,A,4910.29480,N,12304.15740,W,001.1,179.5,230419,,,E*78
$GPGGA,215120.000,4910.28970,N,12304.15722,W,6,14,0.600000,000.18,M,-16.800000,M,,*5B
$GPRMC,215120.000,A,4910.28970,N,12304.15722,W,004.5,180.4,230419,,,E*73
$GPGGA,215121.000,4910.28376,N,12304.15716,W,6,16,0.600000,000.01,M,-16.800000,M,,*5B
$GPRMC,215121.000,A,4910.28376,N,12304.15716,W,010.3,181.2,230419,,,E*7D
$GPGGA,215122.000,4910.27764,N,12304.15710,W,6,17,0.600000,000.26,M,-16.800000,M,,*52
$GPRMC,215122.000,A,4910.27764,N,12304.15710,W,015.2,181.7,230419,,,E*71
$GPGGA,215123.000,4910.27140,N,12304.15680,W,6,17,0.600000,000.51,M,-16.800000,M,,*5B
$GPRMC,215123.000,A,4910.27140,N,12304.15680,W,019.0,181.7,230419,,,E*76
$GPGGA,215124.000,4910.26516,N,12304.15644,W,6,16,0.600000,000.59,M,-16.800000,M,,*5B
$GPRMC,215124.000,A,4910.26516,N,12304.15644,W,021.8,181.1,230419,,,E*7A
$GPGGA,215125.000,4910.25898,N,12304.15614,W,6,17,0.600000,000.59,M,-16.800000,M,,*56
$GPRMC,215125.000,A,4910.25898,N,12304.15614,W,024.0,180.5,230419,,,E*7E
$GPGGA,215126.000,4910.25304,N,12304.15590,W,6,16,0.600000,000.91,M,-16.800000,M,,*51
$GPRMC,215126.000,A,4910.25304,N,12304.15590,W,025.3,180.2,230419,,,E*79
$GPGGA,215127.000,4910.24734,N,12304.15572,W,6,16,0.600000,001.00,M,-16.800000,M,,*53
$GPRMC,215127.000,A,4910.24734,N,12304.15572,W,025.9,180.0,230419,,,E*7A
$GPGGA,215128.000,4910.24200,N,12304.15566,W,6,16,0.600000,000.83,M,-16.800000,M,,*51
$GPRMC,215128.000,A,4910.24200,N,12304.15566,W,025.8,179.9,230419,,,E*7C
$GPGGA,215129.000,4910.23702,N,12304.15560,W,6,16,0.600000,000.91,M,-16.800000,M,,*55
$GPRMC,215129.000,A,4910.23702,N,12304.15560,W,024.8,179.6,230419,,,E*75
$GPGGA,215130.000,4910.23222,N,12304.15554,W,6,16,0.600000,000.66,M,-16.800000,M,,*55
$GPRMC,215130.000,A,4910.23222,N,12304.15554,W,023.7,179.4,230419,,,E*77
$GPGGA,215131.000,4910.22778,N,12304.15548,W,6,15,0.600000,000.74,M,-16.800000,M,,*52
$GPRMC,215131.000,A,4910.22778,N,12304.15548,W,022.5,179.2,230419,,,E*75
$GPGGA,215132.000,4910.22364,N,12304.15560,W,6,16,0.600000,000.74,M,-16.800000,M,,*51
$GPRMC,215132.000,A,4910.22364,N,12304.15560,W,021.8,179.0,230419,,,E*79
$GPGGA,215133.000,4910.22100,N,12304.15662,W,6,16,0.600000,001.07,M,-16.800000,M,,*54
$GPRMC,215133.000,A,4910.22100,N,12304.15662,W,020.9,183.4,230419,,,E*78
$GPGGA,215134.000,4910.22058,N,12304.15788,W,6,15,0.600000,000.74,M,-16.800000,M,,*5C
$GPRMC,215134.000,A,4910.22058,N,12304.15788,W,016.5,203.1,230419,,,E*71
$GPGGA,215135.000,4910.22022,N,12304.15872,W,6,15,0.600000,000.74,M,-16.800000,M,,*5A
$GPRMC,215135.000,A,4910.22022,N,12304.15872,W,009.6,234.6,230419,,,E*79
$GPGGA,215136.000,4910.21914,N,12304.16226,W,6,16,0.600000,000.99,M,-16.800000,M,,*5E
$GPRMC,215136.000,A,4910.21914,N,12304.16226,W,005.1,259.2,230419,,,E*79
$GPGGA,215137.000,4910.21836,N,12304.16916,W,6,14,0.600000,001.32,M,-16.800000,M,,*54
$GPRMC,215137.000,A,4910.21836,N,12304.16916,W,004.0,267.6,230419,,,E*78
$GPGGA,215138.000,4910.21824,N,12304.17858,W,6,15,0.600000,001.57,M,-16.800000,M,,*50
$GPRMC,215138.000,A,4910.21824,N,12304.17858,W,009.1,270.7,230419,,,E*75
$GPGGA,215139.000,4910.21836,N,12304.18914,W,6,16,0.600000,002.56,M,-16.800000,M,,*55
$GPRMC,215139.000,A,4910.21836,N,12304.18914,W,015.2,271.3,230419,,,E*7A
$GPGGA,215140.000,4910.21860,N,12304.20006,W,6,17,0.600000,002.39,M,-16.800000,M,,*51
$GPRMC,215140.000,A,4910.21860,N,12304.20006,W,020.5,271.5,230419,,,E*71
$GPGGA,215141.000,4910.21878,N,12304.21134,W,6,17,0.600000,002.89,M,-16.800000,M,,*53
$GPRMC,215141.000,A,4910.21878,N,12304.21134,W,024.2,271.3,230419,,,E*7D
$GPGGA,215142.000,4910.21896,N,12304.22280,W,6,17,0.600000,002.80,M,-16.800000,M,,*56
$GPRMC,215142.000,A,4910.21896,N,12304.22280,W,026.7,271.2,230419,,,E*77
$GPGGA,215143.000,4910.21914,N,12304.23438,W,6,17,0.600000,002.79,M,-16.800000,M,,*5E
$GPRMC,215143.000,A,4910.21914,N,12304.23438,W,028.4,271.5,230419,,,E*73
$GPGGA,215144.000,4910.21932,N,12304.24608,W,6,17,0.600000,002.87,M,-16.800000,M,,*5A
$GPRMC,215144.000,A,4910.21932,N,12304.24608,W,030.1,271.6,230419,,,E*79
$GPGGA,215145.000,4910.21938,N,12304.25772,W,6,17,0.600000,002.70,M,-16.800000,M,,*54
$GPRMC,215145.000,A,4910.21938,N,12304.25772,W,031.4,271.5,230419,,,E*78
$GPGGA,215146.000,4910.21938,N,12304.26834,W,6,17,0.600000,002.29,M,-16.800000,M,,*55
