$GPGGA,224229.000,4910.35948,N,12304.16718,W,1,14,0.7,-06.15,M,-16.8,M,,*4E
$GPRMC,224229.000,A,4910.35948,N,12304.16718,W,0.0,0.0,250419,,,A*78
$GPGGA,224230.000,4910.35948,N,12304.16718,W,1,13,0.7,-06.15,M,-16.8,M,,*41
$GPRMC,224230.000,A,4910.35948,N,12304.16718,W,0.0,0.0,250419,,,A*70
$GPGGA,224231.000,4910.35948,N,12304.16718,W,1,14,0.7,-06.15,M,-16.8,M,,*47
$GPRMC,224231.000,A,4910.35948,N,12304.16718,W,0.1,0.0,250419,,,A*70
$GPGGA,224232.000,4910.35948,N,12304.16718,W,1,15,0.7,-06.15,M,-16.8,M,,*45
$GPRMC,224232.000,A,4910.35948,N,12304.16718,W,0.1,0.0,250419,,,A*73
$GPGGA,224233.000,4910.35948,N,12304.16718,W,1,14,0.7,-04.44,M,-16.8,M,,*43
$GPRMC,224233.000,A,4910.35948,N,12304.16718,W,0.0,0.0,250419,,,A*73
$GPGGA,224234.000,4910.35948,N,12304.16718,W,1,14,0.7,-04.44,M,-16.8,M,,*44
$GPRMC,224234.000,A,4910.35948,N,12304.16718,W,0.0,0.0,250419,,,A*74
$GPGGA,224235.000,4910.35948,N,12304.16718,W,1,13,0.7,-04.44,M,-16.8,M,,*42
$GPRMC,224235.000,A,4910.35948,N,12304.16718,W,0.1,0.0,250419,,,A*74
$GPGGA,224236.000,4910.35948,N,12304.16718,W,1,14,0.7,-04.44,M,-16.8,M,,*46
$GPRMC,224236.000,A,4910.35948,N,12304.16718,W,0.0,0.0,250419,,,A*76
$GPGGA,224237.000,4910.35948,N,12304.16718,W,1,14,0.7,-04.44,M,-16.8,M,,*47
$GPRMC,224237.000,A,4910.35948,N,12304.16718,W,0.0,0.0,250419,,,A*77
$GPGGA,224238.000,4910.35948,N,12304.16718,W,1,13,0.7,-04.44,M,-16.8,M,,*4F
$GPRMC,224238.000,A,4910.35948,N,12304.16718,W,0.0,0.0,250419,,,A*78
$GPGGA,224239.000,4910.35948,N,12304.16718,W,1,14,0.7,-04.44,M,-16.8,M,,*49
$GPRMC,224239.000,A,4910.35948,N,12304.16718,W,0.0,0.0,250419,,,A*79
$GPGGA,224240.000,4910.35948,N,12304.16718,W,1,14,0.7,-04.44,M,-16.8,M,,*47
$GPRMC,224240.000,A,4910.35948,N,12304.16718,W,0.0,0.0,250419,,,A*77
$GPGGA,224241.000,4910.35948,N,12304.16718,W,1,13,0.7,-04.44,M,-16.8,M,,*41
$GPRMC,224241.000,A,4910.35948,N,12304.16718,W,0.0,0.0,250419,,,A*76
$GPGGA,224242.000,4910.35948,N,12304.16718,W,1,13,0.7,-04.44,M,-16.8,M,,*42
$GPRMC,224242.000,A,4910.35948,N,12304.16718,W,0.0,0.0,250419,,,A*75
$GPGGA,224243.000,4910.35948,N,12304.16718,W,1,13,0.7,-04.44,M,-16.8,M,,*43
$GPRMC,224243.000,A,4910.35948,N,12304.16718,W,0.0,0.0,250419,,,A*74
$GPGGA,224244.000,4910.35948,N,12304.16718,W,1,14,0.7,-04.44,M,-16.8,M,,*43
$GPRMC,224244.000,A,4910.35948,N,12304.16718,W,0.1,0.0,250419,,,A*72
$GPGGA,224245.000,4910.35948,N,12304.16718,W,1,14,0.7,-04.44,M,-16.8,M,,*42
$GPRMC,224245.000,A,4910.35948,N,12304.16718,W,0.0,0.0,250419,,,A*72
$GPGGA,224246.000,4910.35948,N,12304.16718,W,1,14,0.7,-04.44,M,-16.8,M,,*41
$GPRMC,224246.000,A,4910.35948,N,12304.16718,W,0.1,0.0,250419,,,A*70
$GPGGA,224247.000,4910.35948,N,12304.16718,W,1,14,0.7,-04.44,M,-16.8,M,,*40
$GPRMC,224247.000,A,4910.35948,N,12304.16718,W,0.0,0.0,250419,,,A*70
$GPGGA,224248.000,4910.35948,N,12304.16718,W,1,14,0.7,-04.44,M,-16.8,M,,*4F
$GPRMC,224248.000,A,4910.35948,N,12304.16718,W,0.0,0.0,250419,,,A*7F
$GPGGA,224249.000,4910.35948,N,12304.16718,W,1,14,0.7,-04.44,M,-16.8,M,,*4E
$GPRMC,224249.000,A,4910.35948,N,12304.16718,W,0.0,0.0,250419,,,A*7E
$GPGGA,224250.000,4910.35948,N,12304.16718,W,1,15,0.7,-04.44,M,-16.8,M,,*47
$GPRMC,224250.000,A,4910.35948,N,12304.16718,W,0.0,0.0,250419,,,A*76
$GPGGA,224251.000,4910.35948,N,12304.16718,W,1,15,0.7,-04.44,M,-16.8,M,,*46
$GPRMC,224251.000,A,4910.35948,N,12304.16718,W,0.0,0.0,250419,,,A*77
$GPGGA,224252.000,4910.35948,N,12304.16718,W,1,15,0.7,-04.44,M,-16.8,M,,*45
$GPRMC,224252.000,A,4910.35948,N,12304.16718,W,0.0,0.0,250419,,,A*74
$GPGGA,224257.000,4910.35948,N,12304.16718,W,1,15,0.7,-04.44,M,-16.8,M,,*40
$GPRMC,224257.000,A,4910.35948,N,12304.16718,W,0.1,0.0,250419,,,A*70
$GPGGA,224258.000,4910.35948,N,12304.16718,W,1,15,0.7,-04.44,M,-16.8,M,,*4F
$GPRMC,224258.000,A,4910.35948,N,12304.16718,W,0.0,0.0,250419,,,A*7E
$GPGGA,224259.000,4910.35948,N,12304.16718,W,1,14,0.7,-04.44,M,-16.8,M,,*4F
$GPRMC,224259.000,A,4910.35948,N,12304.16718,W,0.0,0.0,250419,,,A*7F
$GPGGA,224300.000,4910.35948,N,12304.16718,W,1,15,0.7,-04.44,M,-16.8,M,,*43
$GPRMC,224300.000,A,4910.35948,N,12304.16718,W,0.1,0.0,250419,,,A*73
$GPGGA,224301.000,4910.35948,N,12304.16718,W,1,15,0.7,-04.44,M,-16.8,M,,*42
$GPRMC,224301.000,A,4910.35948,N,12304.16718,W,0.0,0.0,250419,,,A*73
$GPGGA,224302.000,4910.35948,N,12304.16718,W,1,15,0.7,-04.44,M,-16.8,M,,*41
$GPRMC,224302.000,A,4910.35948,N,12304.16718,W,0.1,0.0,250419,,,A*71
$GPGGA,224303.000,4910.35948,N,12304.16718,W,1,15,0.7,-04.44,M,-16.8,M,,*40
$GPRMC,224303.000,A,4910.35948,N,12304.16718,W,0.1,0.0,250419,,,A*70
$GPGGA,224304.000,4910.35948,N,12304.16718,W,1,15,0.7,-04.44,M,-16.8,M,,*47
$GPRMC,224304.000,A,4910.35948,N,12304.16718,W,0.0,0.0,250419,,,A*76
$GPGGA,224305.000,4910.35948,N,12304.16718,W,1,14,0.7,-04.44,M,-16.8,M,,*47
$GPRMC,224305.000,A,4910.35948,N,12304.16718,W,0.0,0.0,250419,,,A*77
$GPGGA,224306.000,4910.35948,N,12304.16718,W,1,14,0.7,-04.44,M,-16.8,M,,*44
$GPRMC,224306.000,A,4910.35948,N,12304.16718,W,0.0,0.0,250419,,,A*74
$GPGGA,224307.000,4910.35948,N,12304.16718,W,1,14,0.7,-04.44,M,-16.8,M,,*45
$GPRMC,224307.000,A,4910.35948,N,12304.16718,W,0.0,0.0,250419,,,A*75
$GPGGA,224308.000,4910.35948,N,12304.16718,W,1,14,0.7,-04.44,M,-16.8,M,,*4A
$GPRMC,224308.000,A,4910.35948,N,12304.16718,W,0.0,0.0,250419,,,A*7A
$GPGGA,224309.000,4910.35948,N,12304.16718,W,1,15,0.7,-04.44,M,-16.8,M,,*4A
$GPRMC,224309.000,A,4910.35948,N,12304.16718,W,0.1,0.0,250419,,,A*7A
$GPGGA,224310.000,4910.35948,N,12304.16718,W,1,15,0.7,-04.44,M,-16.8,M,,*42
$GPRMC,224310.000,A,4910.35948,N,12304.16718,W,0.0,0.0,250419,,,A*73
$GPGGA,224311.000,4910.35948,N,12304.16718,W,1,15,0.7,-04.44,M,-16.8,M,,*43
$GPRMC,224311.000,A,4910.35948,N,12304.16718,W,0.1,0.0,250419,,,A*73
$GPGGA,224312.000,4910.35948,N,12304.16718,W,1,15,0.7,-04.44,M,-16.8,M,,*40
$GPRMC,224312.000,A,4910.35948,N,12304.16718,W,0.1,0.0,250419,,,A*70
$GPGGA,224313.000,4910.35948,N,12304.16718,W,1,15,0.7,-03.44,M,-16.8,M,,*46
$GPRMC,224313.000,A,4910.35948,N,12304.16718,W,0.0,0.0,250419,,,A*70
$GPGGA,224314.000,4910.35948,N,12304.16718,W,1,14,0.7,-03.44,M,-16.8,M,,*40
$GPRMC,224314.000,A,4910.35948,N,12304.16718,W,0.0,0.0,250419,,,A*77
$GPGGA,224315.000,4910.35948,N,12304.16718,W,1,13,0.7,-03.44,M,-16.8,M,,*46
$GPRMC,224315.000,A,4910.35948,N,12304.16718,W,0.1,0.0,250419,,,A*77
$GPGGA,224316.000,4910.35948,N,12304.16718,W,1,13,0.7,-03.44,M,-16.8,M,,*45
$GPRMC,224316.000,A,4910.35948,N,12304.16718,W,0.1,0.0,250419,,,A*74
$GPGGA,224317.000,4910.35948,N,12304.16718,W,1,14,0.7,-03.44,M,-16.8,M,,*43
$GPRMC,224317.000,A,4910.35948,N,12304.16718,W,0.0,0.0,250419,,,A*74
$GPGGA,224318.000,4910.35948,N,12304.16718,W,1,15,0.7,-03.44,M,-16.8,M,,*4D
$GPRMC,224318.000,A,4910.35948,N,12304.16718,W,0.0,0.0,250419,,,A*7B
$GPGGA,224319.000,4910.35948,N,12304.16718,W,1,13,0.8,-03.44,M,-16.8,M,,*45
$GPRMC,224319.000,A,4910.35948,N,12304.16718,W,0.0,0.0,250419,,,A*7A
$GPGGA,224320.000,4910.35948,N,12304.16718,W,1,14,0.7,-03.44,M,-16.8,M,,*47
$GPRMC,224320.000,A,4910.35948,N,12304.16718,W,0.1,0.0,250419,,,A*71
$GPGGA,224321.000,4910.35948,N,12304.16718,W,1,14,0.7,-03.44,M,-16.8,M,,*46
$GPRMC,224321.000,A,4910.35948,N,12304.16718,W,0.0,0.0,250419,,,A*71
$GPGGA,224322.000,4910.35948,N,12304.16718,W,1,14,0.7,-03.44,M,-16.8,M,,*45
$GPRMC,224322.000,A,4910.35948,N,12304.16718,W,0.1,0.0,250419,,,A*73
$GPGGA,224323.000,4910.35948,N,12304.16718,W,1,14,0.7,-03.44,M,-16.8,M,,*44
$GPRMC,224323.000,A,4910.35948,N,12304.16718,W,0.0,0.0,250419,,,A*73
$GPGGA,224324.000,4910.35948,N,12304.16718,W,1,14,0.7,-03.44,M,-16.8,M,,*43
$GPRMC,224324.000,A,4910.35948,N,12304.16718,W,0.0,0.0,250419,,,A*74
$GPGGA,224325.000,4910.35948,N,12304.16718,W,1,14,0.7,-03.44,M,-16.8,M,,*42
$GPRMC,224325.000,A,4910.35948,N,12304.16718,W,0.1,0.0,250419,,,A*74
$GPGGA,224326.000,4910.35948,N,12304.16718,W,1,15,0.7,-03.44,M,-16.8,M,,*40
$GPRMC,224326.000,A,4910.35948,N,12304.16718,W,0.0,0.0,250419,,,A*76
$GPGGA,224327.000,4910.35948,N,12304.16718,W,1,15,0.7,-03.44,M,-16.8,M,,*41
$GPRMC,224327.000,A,4910.35948,N,12304.16718,W,0.0,0.0,250419,,,A*77
$GPGGA,224328.000,4910.35948,N,12304.16718,W,1,15,0.7,-03.44,M,-16.8,M,,*4E
$GPRMC,224328.000,A,4910.35948,N,12304.16718,W,0.0,0.0,250419,,,A*78
$GPGGA,224329.000,4910.35948,N,12304.16718,W,1,15,0.7,-03.44,M,-16.8,M,,*4F
$GPRMC,224329.000,A,4910.35948,N,12304.16718,W,0.0,0.0,250419,,,A*79
$GPGGA,224330.000,4910.35948,N,12304.16718,W,1,15,0.7,-03.44,M,-16.8,M,,*47
$GPRMC,224330.000,A,4910.35948,N,12304.16718,W,0.1,0.0,250419,,,A*70
$GPGGA,224331.000,4910.35948,N,12304.16718,W,1,14,0.7,-03.44,M,-16.8,M,,*47
$GPRMC,224331.000,A,4910.35948,N,12304.16718,W,0.1,0.0,250419,,,A*71
$GPGGA,224332.000,4910.35948,N,12304.16718,W,1,14,0.8,-03.44,M,-16.8,M,,*4B
$GPRMC,224332.000,A,4910.35948,N,12304.16718,W,0.0,0.0,250419,,,A*73
$GPGGA,224333.000,4910.35948,N,12304.16718,W,1,15,0.7,-03.44,M,-16.8,M,,*44
$GPRMC,224333.000,A,4910.35948,N,12304.16718,W,0.0,0.0,250419,,,A*72
$GPGGA,224334.000,4910.35948,N,12304.16718,W,1,15,0.7,-03.44,M,-16.8,M,,*43
$GPRMC,224334.000,A,4910.35948,N,12304.16718,W,0.1,0.0,250419,,,A*74
$GPGGA,224335.000,4910.35948,N,12304.16718,W,1,15,0.7,-03.44,M,-16.8,M,,*42
$GPRMC,224335.000,A,4910.35948,N,12304.16718,W,0.1,0.0,250419,,,A*75
$GPGGA,224336.000,4910.35948,N,12304.16718,W,1,15,0.7,-03.44,M,-16.8,M,,*41
$GPRMC,224336.000,A,4910.35948,N,12304.16718,W,0.2,0.0,250419,,,A*75
$GPGGA,224337.000,4910.35948,N,12304.16718,W,1,15,0.7,-03.44,M,-16.8,M,,*40
$GPRMC,224337.000,A,4910.35948,N,12304.16718,W,0.0,0.0,250419,,,A*76
$GPGGA,224338.000,4910.35948,N,12304.16718,W,1,15,0.7,-03.44,M,-16.8,M,,*4F
$GPRMC,224338.000,A,4910.35948,N,12304.16718,W,0.0,0.0,250419,,,A*79
$GPGGA,224339.000,4910.35948,N,12304.16718,W,1,15,0.7,-03.44,M,-16.8,M,,*4E
$GPRMC,224339.000,A,4910.35948,N,12304.16718,W,0.1,0.0,250419,,,A*79
$GPGGA,224340.000,4910.35948,N,12304.16718,W,1,15,0.7,-03.44,M,-16.8,M,,*40
$GPRMC,224340.000,A,4910.35948,N,12304.16718,W,0.1,0.0,250419,,,A*77
$GPGGA,224341.000,4910.35948,N,12304.16718,W,1,15,0.7,-03.44,M,-16.8,M,,*41
$GPRMC,224341.000,A,4910.35948,N,12304.16718,W,0.0,0.0,250419,,,A*77
$GPGGA,224342.000,4910.35948,N,12304.16718,W,1,14,0.7,-03.44,M,-16.8,M,,*43
$GPRMC,224342.000,A,4910.35948,N,12304.16718,W,0.0,0.0,250419,,,A*74
$GPGGA,224343.000,4910.35948,N,12304.16718,W,1,14,0.7,-03.44,M,-16.8,M,,*42
$GPRMC,224343.000,A,4910.35948,N,12304.16718,W,0.5,0.0,250419,,,A*70
$GPGGA,224344.000,4910.35948,N,12304.16718,W,1,15,0.7,-03.44,M,-16.8,M,,*44
$GPRMC,224344.000,A,4910.35948,N,12304.16718,W,1.0,0.0,250419,,,A*73
$GPGGA,224345.000,4910.35948,N,12304.16718,W,1,15,0.7,-03.44,M,-16.8,M,,*45
$GPRMC,224345.000,A,4910.35948,N,12304.16718,W,1.4,0.0,250419,,,A*76
$GPGGA,224346.000,4910.35948,N,12304.16718,W,1,15,0.7,-03.44,M,-16.8,M,,*46
$GPRMC,224346.000,A,4910.35948,N,12304.16718,W,1.9,0.0,250419,,,A*78
$GPGGA,224347.000,4910.35821,N,12304.16948,W,1,15,0.7,-03.09,M,-16.8,M,,*4B
$GPRMC,224347.000,A,4910.35821,N,12304.16948,W,2.3,270.9,250419,,,A*79
$GPGGA,224348.000,4910.35814,N,12304.17088,W,1,14,0.7,-02.77,M,-16.8,M,,*4F
$GPRMC,224348.000,A,4910.35814,N,12304.17088,W,2.4,275.8,250419,,,A*77
$GPGGA,224349.000,4910.35816,N,12304.17227,W,1,14,0.7,-02.79,M,-16.8,M,,*45
$GPRMC,224349.000,A,4910.35816,N,12304.17227,W,2.8,277.8,250419,,,A*7D
$GPGGA,224350.000,4910.35820,N,12304.17341,W,1,14,0.7,-02.50,M,-16.8,M,,*42
$GPRMC,224350.000,A,4910.35820,N,12304.17341,W,3.0,281.9,250419,,,A*70
$GPGGA,224351.000,4910.35825,N,12304.17491,W,1,14,0.7,-02.04,M,-16.8,M,,*4D
$GPRMC,224351.000,A,4910.35825,N,12304.17491,W,3.3,281.8,250419,,,A*7C
$GPGGA,224352.000,4910.35830,N,12304.17647,W,1,14,0.7,-01.93,M,-16.8,M,,*4E
$GPRMC,224352.000,A,4910.35830,N,12304.17647,W,3.7,280.7,250419,,,A*78
$GPGGA,224353.000,4910.35839,N,12304.17785,W,1,14,0.7,-01.69,M,-16.8,M,,*4C
$GPRMC,224353.000,A,4910.35839,N,12304.17785,W,3.8,279.3,250419,,,A*72
$GPGGA,224354.000,4910.35845,N,12304.17943,W,1,14,0.7,-01.43,M,-16.8,M,,*4C
$GPRMC,224354.000,A,4910.35845,N,12304.17943,W,3.8,279.1,250419,,,A*78
$GPGGA,224355.000,4910.35850,N,12304.18109,W,1,14,0.7,-01.57,M,-16.8,M,,*45
$GPRMC,224355.000,A,4910.35850,N,12304.18109,W,4.1,278.2,250419,,,A*78
$GPGGA,224356.000,4910.35858,N,12304.18303,W,1,15,0.7,-01.56,M,-16.8,M,,*46
$GPRMC,224356.000,A,4910.35858,N,12304.18303,W,4.1,277.3,250419,,,A*75
$GPGGA,224357.000,4910.35847,N,12304.18476,W,1,13,0.7,-01.62,M,-16.8,M,,*4D
$GPRMC,224357.000,A,4910.35847,N,12304.18476,W,4.0,273.8,250419,,,A*71
$GPGGA,224358.000,4910.35852,N,12304.18643,W,1,13,0.7,-01.70,M,-16.8,M,,*41
$GPRMC,224358.000,A,4910.35852,N,12304.18643,W,4.0,274.5,250419,,,A*74
$GPGGA,224359.000,4910.35856,N,12304.18808,W,1,14,0.7,-01.78,M,-16.8,M,,*4A
$GPRMC,224359.000,A,4910.35856,N,12304.18808,W,4.1,272.9,250419,,,A*7B
$GPGGA,224400.000,4910.35864,N,12304.18981,W,1,13,0.7,-01.76,M,-16.8,M,,*49
$GPRMC,224400.000,A,4910.35864,N,12304.18981,W,4.1,272.7,250419,,,A*7F
$GPGGA,224401.000,4910.35869,N,12304.19144,W,1,13,0.7,-01.91,M,-16.8,M,,*4C
$GPRMC,224401.000,A,4910.35869,N,12304.19144,W,4.1,272.5,250419,,,A*71
$GPGGA,224402.000,4910.35887,N,12304.19317,W,1,13,0.7,-01.92,M,-16.8,M,,*48
$GPRMC,224402.000,A,4910.35887,N,12304.19317,W,4.2,271.0,250419,,,A*73
$GPGGA,224403.000,4910.35901,N,12304.19512,W,1,13,0.7,-01.94,M,-16.8,M,,*43
$GPRMC,224403.000,A,4910.35901,N,12304.19512,W,4.4,272.0,250419,,,A*7B
$GPGGA,224404.000,4910.35914,N,12304.19687,W,1,12,0.8,-02.08,M,-16.8,M,,*47
$GPRMC,224404.000,A,4910.35914,N,12304.19687,W,4.4,271.3,250419,,,A*77
$GPGGA,224405.000,4910.35912,N,12304.19860,W,1,12,0.7,-02.08,M,-16.8,M,,*48
$GPRMC,224405.000,A,4910.35912,N,12304.19860,W,4.3,271.3,250419,,,A*70
$GPGGA,224406.000,4910.35928,N,12304.20046,W,1,14,0.7,-02.14,M,-16.8,M,,*4F
$GPRMC,224406.000,A,4910.35928,N,12304.20046,W,4.4,270.5,250419,,,A*7C
$GPGGA,224407.000,4910.35928,N,12304.20231,W,1,13,0.7,-01.98,M,-16.8,M,,*4C
$GPRMC,224407.000,A,4910.35928,N,12304.20231,W,4.6,269.3,250419,,,A*73
$GPGGA,224408.000,4910.35934,N,12304.20423,W,1,13,0.7,-02.14,M,-16.8,M,,*4C
$GPRMC,224408.000,A,4910.35934,N,12304.20423,W,4.6,269.6,250419,,,A*71
$GPGGA,224409.000,4910.35934,N,12304.20622,W,1,13,0.7,-02.29,M,-16.8,M,,*40
$GPRMC,224409.000,A,4910.35934,N,12304.20622,W,4.5,269.3,250419,,,A*75
$GPGGA,224410.000,4910.35918,N,12304.20800,W,1,13,0.7,-01.93,M,-16.8,M,,*4A
$GPRMC,224410.000,A,4910.35918,N,12304.20800,W,4.3,270.1,250419,,,A*71
$GPGGA,224411.000,4910.35915,N,12304.20965,W,1,13,0.7,-01.86,M,-16.8,M,,*40
$GPRMC,224411.000,A,4910.35915,N,12304.20965,W,4.0,267.4,250419,,,A*7F
$GPGGA,224412.000,4910.35901,N,12304.21133,W,1,13,0.7,-01.44,M,-16.8,M,,*42
$GPRMC,224412.000,A,4910.35901,N,12304.21133,W,3.7,263.3,250419,,,A*70
$GPGGA,224413.000,4910.35876,N,12304.21272,W,1,13,0.7,-01.20,M,-16.8,M,,*46
$GPRMC,224413.000,A,4910.35876,N,12304.21272,W,3.3,255.3,250419,,,A*77
$GPGGA,224414.000,4910.35852,N,12304.21399,W,1,12,0.7,-01.14,M,-16.8,M,,*45
$GPRMC,224414.000,A,4910.35852,N,12304.21399,W,3.5,246.3,250419,,,A*76
$GPGGA,224415.000,4910.35808,N,12304.21534,W,1,12,0.8,-01.00,M,-16.8,M,,*40
$GPRMC,224415.000,A,4910.35808,N,12304.21534,W,3.7,235.6,250419,,,A*7A
$GPGGA,224416.000,4910.35738,N,12304.21665,W,1,12,0.8,-00.75,M,-16.8,M,,*4B
$GPRMC,224416.000,A,4910.35738,N,12304.21665,W,4.0,221.9,250419,,,A*78
$GPGGA,224417.000,4910.35655,N,12304.21761,W,1,12,0.8,-00.60,M,-16.8,M,,*41
$GPRMC,224417.000,A,4910.35655,N,12304.21761,W,4.3,207.2,250419,,,A*7A
$GPGGA,224418.000,4910.35562,N,12304.21808,W,1,12,0.8,-00.61,M,-16.8,M,,*48
$GPRMC,224418.000,A,4910.35562,N,12304.21808,W,4.4,195.6,250419,,,A*79
$GPGGA,224419.000,4910.35437,N,12304.21852,W,1,13,0.8,-00.31,M,-16.8,M,,*43
$GPRMC,224419.000,A,4910.35437,N,12304.21852,W,4.8,187.9,250419,,,A*76
$GPGGA,224420.000,4910.35296,N,12304.21850,W,1,13,0.8,-00.12,M,-16.8,M,,*47
$GPRMC,224420.000,A,4910.35296,N,12304.21850,W,5.3,185.9,250419,,,A*7B
$GPGGA,224421.000,4910.35150,N,12304.21877,W,1,11,0.8,-00.07,M,-16.8,M,,*4C
$GPRMC,224421.000,A,4910.35150,N,12304.21877,W,5.2,192.5,250419,,,A*7D
$GPGGA,224422.000,4910.35020,N,12304.21930,W,1,13,0.7,000.04,M,-16.8,M,,*58
$GPRMC,224422.000,A,4910.35020,N,12304.21930,W,5.0,202.1,250419,,,A*76
$GPGGA,224423.000,4910.34924,N,12304.22030,W,1,12,0.7,000.22,M,-16.8,M,,*5A
$GPRMC,224423.000,A,4910.34924,N,12304.22030,W,4.5,215.1,250419,,,A*73
$GPGGA,224424.000,4910.34836,N,12304.22138,W,1,13,0.7,000.12,M,-16.8,M,,*54
$GPRMC,224424.000,A,4910.34836,N,12304.22138,W,4.6,229.0,250419,,,A*72
$GPGGA,224425.000,4910.34766,N,12304.22318,W,1,12,0.7,000.44,M,-16.8,M,,*5D
$GPRMC,224425.000,A,4910.34766,N,12304.22318,W,4.8,244.0,250419,,,A*7C
$GPGGA,224426.000,4910.34713,N,12304.22532,W,1,11,0.7,000.49,M,-16.8,M,,*5C
$GPRMC,224426.000,A,4910.34713,N,12304.22532,W,5.3,255.3,250419,,,A*7A
$GPGGA,224427.000,4910.34683,N,12304.22745,W,1,12,0.7,000.37,M,-16.8,M,,*5D
$GPRMC,224427.000,A,4910.34683,N,12304.22745,W,5.7,266.3,250419,,,A*75
$GPGGA,224428.000,4910.34680,N,12304.22963,W,1,12,0.7,000.01,M,-16.8,M,,*5E
$GPRMC,224428.000,A,4910.34680,N,12304.22963,W,6.0,268.5,250419,,,A*7F
$GPGGA,224429.000,4910.34687,N,12304.23211,W,1,12,0.7,000.02,M,-16.8,M,,*54
$GPRMC,224429.000,A,4910.34687,N,12304.23211,W,6.0,270.1,250419,,,A*7B
$GPGGA,224430.000,4910.34682,N,12304.23473,W,1,12,0.7,000.31,M,-16.8,M,,*5B
$GPRMC,224430.000,A,4910.34682,N,12304.23473,W,6.0,268.7,250419,,,A*7B
$GPGGA,224431.000,4910.34683,N,12304.23719,W,1,12,0.7,000.26,M,-16.8,M,,*52
$GPRMC,224431.000,A,4910.34683,N,12304.23719,W,5.7,269.7,250419,,,A*71
$GPGGA,224432.000,4910.34689,N,12304.23935,W,1,12,0.7,-00.37,M,-16.8,M,,*46
$GPRMC,224432.000,A,4910.34689,N,12304.23935,W,5.1,272.1,250419,,,A*72
$GPGGA,224433.000,4910.34726,N,12304.24163,W,1,12,0.7,-00.62,M,-16.8,M,,*4F
$GPRMC,224433.000,A,4910.34726,N,12304.24163,W,5.5,269.7,250419,,,A*73
$GPGGA,224434.000,4910.34762,N,12304.24361,W,1,12,0.7,-00.88,M,-16.8,M,,*4C
$GPRMC,224434.000,A,4910.34762,N,12304.24361,W,4.7,276.5,250419,,,A*7B
$GPGGA,224435.000,4910.34775,N,12304.24588,W,1,11,0.7,-00.52,M,-16.8,M,,*4E
$GPRMC,224435.000,A,4910.34775,N,12304.24588,W,5.0,271.1,250419,,,A*78
$GPGGA,224436.000,4910.34773,N,12304.24791,W,1,12,0.7,000.04,M,-16.8,M,,*5C
$GPRMC,224436.000,A,4910.34773,N,12304.24791,W,4.6,266.7,250419,,,A*70
$GPGGA,224437.000,4910.34756,N,12304.24993,W,1,12,0.7,000.44,M,-16.8,M,,*52
$GPRMC,224437.000,A,4910.34756,N,12304.24993,W,4.6,260.3,250419,,,A*78
$GPGGA,224438.000,4910.34700,N,12304.25182,W,1,12,0.7,001.02,M,-16.8,M,,*54
$GPRMC,224438.000,A,4910.34700,N,12304.25182,W,4.7,254.3,250419,,,A*7B
$GPGGA,224439.000,4910.34632,N,12304.25350,W,1,12,0.7,001.42,M,-16.8,M,,*5C
$GPRMC,224439.000,A,4910.34632,N,12304.25350,W,4.5,248.1,250419,,,A*7A
$GPGGA,224440.000,4910.34563,N,12304.25546,W,1,12,0.7,002.13,M,-16.8,M,,*53
$GPRMC,224440.000,A,4910.34563,N,12304.25546,W,4.8,239.2,250419,,,A*7A
$GPGGA,224441.000,4910.34461,N,12304.25659,W,1,12,0.7,002.96,M,-16.8,M,,*51
$GPRMC,224441.000,A,4910.34461,N,12304.25659,W,4.7,223.6,250419,,,A*75
$GPGGA,224442.000,4910.34354,N,12304.25773,W,1,11,0.8,003.86,M,-16.8,M,,*56
$GPRMC,224442.000,A,4910.34354,N,12304.25773,W,5.0,212.1,250419,,,A*7D
$GPGGA,224443.000,4910.34250,N,12304.25908,W,1,11,0.7,004.97,M,-16.8,M,$GPGGA,224545.000,4910.33604,N,12304.28126,W,1,14,0.7,007.00,M,-16.8,M,,*5C
$GPRMC,224545.000,A,4910.33604,N,12304.28126,W,0.0,0.0,250419,,,A*72
$GPGGA,224546.000,4910.33595,N,12304.28110,W,1,14,0.7,007.32,M,-16.8,M,,*50
$GPRMC,224546.000,A,4910.33595,N,12304.28110,W,0.0,0.0,250419,,,A*7F
$GPGGA,224547.000,4910.33596,N,12304.28112,W,1,14,0.7,007.62,M,-16.8,M,,*55
$GPRMC,224547.000,A,4910.33596,N,12304.28112,W,0.1,0.0,250419,,,A*7E
$GPGGA,224549.000,4910.33596,N,12304.28112,W,1,13,0.7,008.01,M,-16.8,M,,*56
$GPRMC,224549.000,A,4910.33596,N,12304.28112,W,0.0,0.0,250419,,,A*71
$GPRMC,224550.000,A,4910.33596,N,12304.28112,W,0.0,0.0,250419,,,A*79
$GPGGA,224551.000,4910.33596,N,12304.28112,W,1,13,0.7,008.62,M,-16.8,M,,*5A
$GPRMC,224551.000,A,4910.33596,N,12304.28112,W,0.0,0.0,250419,,,A*78
$GPGGA,224552.000,4910.33596,N,12304.28112,W,1,13,0.7,009.13,M,-16.8,M,,*5E
$GPRMC,224552.000,A,4910.33596,N,12304.28112,W,0.0,0.0,250419,,,A*7B
$GPGGA,224554.000,4910.33596,N,12304.28112,W,1,14,0.7,010.29,M,-16.8,M,,*5E
$GPRMC,224554.000,A,4910.33596,N,12304.28112,W,0.0,0.0,250419,,,A*7D
$GPGGA,224555.000,4910.33596,N,12304.28112,W,1,14,0.7,010.44,M,-16.8,M,,*54
$GPRMC,224555.000,A,4910.33596,N,12304.28112,W,0.0,0.0,250419,,,A*7C
$GPGGA,224556.000,4910.33596,N,12304.28112,W,1,14,0.7,010.60,M,-16.8,M,,*51
$GPRMC,224556.000,A,4910.33596,N,12304.28112,W,0.1,0.0,250419,,,A*7E
$GPGGA,224557.000,4910.33596,N,12304.28112,W,1,14,0.7,010.65,M,-16.8,M,,*55
$GPRMC,224557.000,A,4910.33596,N,12304.28112,W,0.0,0.0,250419,,,A*7E
$GPGGA,224558.000,4910.33596,N,12304.28112,W,1,14,0.7,010.72,M,-16.8,M,,*5C
$GPRMC,224558.000,A,4910.33596,N,12304.28112,W,0.0,0.0,250419,,,A*71
$GPGGA,224559.000,4910.33596,N,12304.28112,W,1,14,0.7,010.84,M,-16.8,M,,*54
$GPRMC,224559.000,A,4910.33596,N,12304.28112,W,0.0,0.0,250419,,,A*70
$GPGGA,224600.000,4910.33596,N,12304.28112,W,1,14,0.7,011.13,M,-16.8,M,,*54
$GPRMC,224600.000,A,4910.33596,N,12304.28112,W,0.1,0.0,250419,,,A*7E
$GPGGA,224601.000,4910.33596,N,12304.28112,W,1,14,0.7,011.37,M,-16.8,M,,*53
$GPRMC,224601.000,A,4910.33596,N,12304.28112,W,0.0,0.0,250419,,,A*7E
$GPGGA,224602.000,4910.33596,N,12304.28112,W,1,14,0.7,011.26,M,-16.8,M,,*50
$GPRMC,224602.000,A,4910.33596,N,12304.28112,W,0.0,0.0,250419,,,A*7D
$GPGGA,224603.000,4910.33596,N,12304.28112,W,1,14,0.7,010.99,M,-16.8,M,,*54
$GPRMC,224603.000,A,4910.33596,N,12304.28112,W,0.3,0.0,250419,,,A*7F
$GPGGA,224605.000,4910.33596,N,12304.28112,W,1,13,0.7,010.79,M,-16.8,M,,*5B
$GPRMC,224605.000,A,4910.33596,N,12304.28112,W,2.2,0.0,250419,,,A*7A
$GPGGA,224611.000,4910.33389,N,12304.29089,W,1,13,0.7,008.21,M,-16.8,M,,*50
$GPRMC,224611.000,A,4910.33389,N,12304.29089,W,4.3,254.5,250419,,,A*74
$GPGGA,224612.000,4910.33358,N,12304.29300,W,1,15,0.7,008.04,M,-16.8,M,,*5C
$GPRMC,224612.000,A,4910.33358,N,12304.29300,W,4.6,254.9,250419,,,A*70
$GPGGA,224613.000,4910.33339,N,12304.29493,W,1,15,0.7,007.91,M,-16.8,M,,*54
$GPRMC,224613.000,A,4910.33339,N,12304.29493,W,4.4,256.5,250419,,,A*77
$GPGGA,224614.000,4910.33317,N,12304.29692,W,1,14,0.7,007.21,M,-16.8,M,,*56
$GPRMC,224614.000,A,4910.33317,N,12304.29692,W,4.2,258.7,250419,,,A*75
$GPGGA,224615.000,4910.33324,N,12304.29869,W,1,14,0.7,006.47,M,-16.8,M,,*5C
$GPRMC,224615.000,A,4910.33324,N,12304.29869,W,3.5,262.1,250419,,,A*71
$GPGGA,224616.000,4910.33325,N,12304.30024,W,1,15,0.7,005.80,M,-16.8,M,,*5E
$GPRMC,224616.000,A,4910.33325,N,12304.30024,W,2.9,263.8,250419,,,A*7F
$GPGGA,224617.000,4910.33348,N,12304.30146,W,1,13,0.7,005.03,M,-16.8,M,,*5C
$GPRMC,224617.000,A,4910.33348,N,12304.30146,W,1.9,270.2,250419,,,A*7B
$GPGGA,224618.000,4910.33366,N,12304.30250,W,1,15,0.7,004.65,M,-16.8,M,,*5C
$GPRMC,224618.000,A,4910.33366,N,12304.30250,W,2.2,278.1,250419,,,A*7F
$GPGGA,224619.000,4910.33394,N,12304.30322,W,1,16,0.7,004.16,M,-16.8,M,,*53
$GPRMC,224619.000,A,4910.33394,N,12304.30322,W,2.1,297.7,250419,,,A*73
$GPGGA,224620.000,4910.33410,N,12304.30376,W,1,16,0.7,003.62,M,-16.8,M,,*57
$GPRMC,224620.000,A,4910.33410,N,12304.30376,W,1.9,312.6,250419,,,A*75
$GPGGA,224621.000,4910.33445,N,12304.30388,W,1,15,0.7,003.40,M,-16.8,M,,*54
$GPRMC,224621.000,A,4910.33445,N,12304.30388,W,2.1,325.7,250419,,,A*7B
$GPGGA,224622.000,4910.33498,N,12304.30400,W,1,16,0.7,003.29,M,-16.8,M,,*5C
$GPRMC,224622.000,A,4910.33498,N,12304.30400,W,2.1,337.2,250419,,,A*79
$GPGGA,224623.000,4910.33564,N,12304.30413,W,1,16,0.7,003.23,M,-16.8,M,,*57
$GPRMC,224623.000,A,4910.33564,N,12304.30413,W,2.3,345.6,250419,,,A*7B
$GPGGA,224624.000,4910.33633,N,12304.30417,W,1,15,0.7,003.14,M,-16.8,M,,*52
$GPRMC,224624.000,A,4910.33633,N,12304.30417,W,2.5,351.1,250419,,,A*7D
$GPGGA,224625.000,4910.33720,N,12304.30430,W,1,14,0.7,003.23,M,-16.8,M,,*50
$GPRMC,224625.000,A,4910.33720,N,12304.30430,W,2.6,352.3,250419,,,A*78
$GPGGA,224626.000,4910.33813,N,12304.30444,W,1,15,0.7,003.14,M,-16.8,M,,*5A
$GPRMC,224626.000,A,4910.33813,N,12304.30444,W,2.6,353.2,250419,,,A*77
$GPGGA,224627.000,4910.33892,N,12304.30439,W,1,15,0.7,003.11,M,-16.8,M,,*5D
$GPRMC,224627.000,A,4910.33892,N,12304.30439,W,2.3,354.9,250419,,,A*7C
$GPGGA,224628.000,4910.33944,N,12304.30420,W,1,15,0.7,003.22,M,-16.8,M,,*50
$GPRMC,224628.000,A,4910.33944,N,12304.30420,W,2.2,355.5,250419,,,A*7D
$GPGGA,224629.000,4910.33997,N,12304.30435,W,1,15,0.7,002.99,M,-16.8,M,,*5A
$GPRMC,224629.000,A,4910.33997,N,12304.30435,W,2.2,352.6,250419,,,A*72
$GPGGA,224630.000,4910.34059,N,12304.30459,W,1,15,0.7,003.05,M,-16.8,M,,*50
$GPRMC,224630.000,A,4910.34059,N,12304.30459,W,2.3,355.7,250419,,,A*7B
$GPGGA,224631.000,4910.34116,N,12304.30466,W,1,15,0.7,003.19,M,-16.8,M,,*5A
$GPRMC,224631.000,A,4910.34116,N,12304.30466,W,2.2,355.1,250419,,,A*7B
$GPGGA,224632.000,4910.34180,N,12304.30477,W,1,15,0.7,003.23,M,-16.8,M,,*5F
$GPRMC,224632.000,A,4910.34180,N,12304.30477,W,2.1,356.7,250419,,,A*71
$GPGGA,224633.000,4910.34248,N,12304.30474,W,1,14,0.7,003.56,M,-16.8,M,,*59
$GPRMC,224633.000,A,4910.34248,N,12304.30474,W,2.6,355.9,250419,,,A*7E
$GPGGA,224634.000,4910.34313,N,12304.30493,W,1,14,0.7,003.74,M,-16.8,M,,*58
$GPRMC,224634.000,A,4910.34313,N,12304.30493,W,2.5,356.1,250419,,,A*77
$GPGGA,224635.000,4910.34368,N,12304.30512,W,1,14,0.7,003.98,M,-16.8,M,,*5F
$GPRMC,224635.000,A,4910.34368,N,12304.30512,W,2.1,356.1,250419,,,A*76
$GPGGA,224636.000,4910.34421,N,12304.30540,W,1,14,0.7,004.51,M,-16.8,M,,*53
$GPRMC,224636.000,A,4910.34421,N,12304.30540,W,1.6,359.7,250419,,,A*75
$GPGGA,224637.000,4910.34457,N,12304.30519,W,1,14,0.7,004.88,M,-16.8,M,,*5B
$GPRMC,224637.000,A,4910.34457,N,12304.30519,W,0.9,359.8,250419,,,A*78
$GPGGA,224638.000,4910.34483,N,12304.30488,W,1,14,0.7,004.69,M,-16.8,M,,*5B
$GPRMC,224638.000,A,4910.34483,N,12304.30488,W,0.3,350.9,250419,,,A*75
$GPGGA,224639.000,4910.34484,N,12304.30488,W,1,13,0.7,004.69,M,-16.8,M,,*5A
$GPRMC,224639.000,A,4910.34484,N,12304.30488,W,0.3,0.0,250419,,,A*7C
$GPGGA,224640.000,4910.34484,N,12304.30488,W,1,14,0.7,004.69,M,-16.8,M,,*53
$GPRMC,224640.000,A,4910.34484,N,12304.30488,W,0.7,0.0,250419,,,A*76
$GPGGA,224641.000,4910.34484,N,12304.30488,W,1,13,0.7,004.69,M,-16.8,M,,*55
$GPRMC,224641.000,A,4910.34484,N,12304.30488,W,1.0,0.0,250419,,,A*71
$GPGGA,224642.000,4910.34484,N,12304.30488,W,1,13,0.7,004.69,M,-16.8,M,,*56
$GPRMC,224642.000,A,4910.34484,N,12304.30488,W,0.8,0.0,250419,,,A*7B
$GPGGA,224643.000,4910.34484,N,12304.30488,W,1,13,0.7,004.69,M,-16.8,M,,*57
$GPRMC,224643.000,A,4910.34484,N,12304.30488,W,1.3,0.0,250419,,,A*70
$GPGGA,224644.000,4910.34484,N,12304.30488,W,1,14,0.7,004.69,M,-16.8,M,,*57
$GPRMC,224644.000,A,4910.34484,N,12304.30488,W,1.9,0.0,250419,,,A*7D
$GPGGA,224645.000,4910.34577,N,12304.30485,W,1,14,0.7,005.44,M,-16.8,M,,*58
$GPRMC,224645.000,A,4910.34577,N,12304.30485,W,1.6,1.5,250419,,,A*77
$GPGGA,224646.000,4910.34639,N,12304.30485,W,1,14,0.7,005.87,M,-16.8,M,,*5D
$GPRMC,224646.000,A,4910.34639,N,12304.30485,W,1.0,0.3,250419,,,A*7C
$GPGGA,224647.000,4910.34682,N,12304.30471,W,1,14,0.7,006.09,M,-16.8,M,,*52
$GPRMC,224647.000,A,4910.34682,N,12304.30471,W,0.1,0.0,250419,,,A*75
$GPGGA,224648.000,4910.34682,N,12304.30470,W,1,13,0.7,006.09,M,-16.8,M,,*5B
$GPRMC,224648.000,A,4910.34682,N,12304.30470,W,0.1,0.0,250419,,,A*7B
$GPGGA,224649.000,4910.34682,N,12304.30470,W,1,13,0.7,006.09,M,-16.8,M,,*5A
$GPRMC,224649.000,A,4910.34682,N,12304.30470,W,0.1,0.0,250419,,,A*7A
$GPGGA,224650.000,4910.34682,N,12304.30470,W,1,13,0.7,006.09,M,-16.8,M,,*52
$GPRMC,224650.000,A,4910.34682,N,12304.30470,W,0.0,0.0,250419,,,A*73
$GPGGA,224651.000,4910.34682,N,12304.30470,W,1,13,0.7,006.09,M,-16.8,M,,*53
$GPRMC,224651.000,A,4910.34682,N,12304.30470,W,0.0,0.0,250419,,,A*72
$GPGGA,224652.000,4910.34682,N,12304.30470,W,1,14,0.7,006.09,M,-16.8,M,,*57
$GPRMC,224652.000,A,4910.34682,N,12304.30470,W,0.7,0.0,250419,,,A*76
$GPGGA,224653.000,4910.34682,N,12304.30470,W,1,13,0.7,006.09,M,-16.8,M,,*51
$GPRMC,224653.000,A,4910.34682,N,12304.30470,W,1.1,0.0,250419,,,A*70
$GPGGA,224654.000,4910.34682,N,12304.30470,W,1,14,0.7,006.09,M,-16.8,M,,*51
$GPRMC,224654.000,A,4910.34682,N,12304.30470,W,0.9,0.0,250419,,,A*7E
$GPGGA,224655.000,4910.34682,N,12304.30470,W,1,14,0.7,006.09,M,-16.8,M,,*50
$GPRMC,224655.000,A,4910.34682,N,12304.30470,W,0.7,0.0,250419,,,A*71
$GPGGA,224656.000,4910.34682,N,12304.30470,W,1,14,0.7,006.09,M,-16.8,M,,*53
$GPRMC,224656.000,A,4910.34682,N,12304.30470,W,0.3,0.0,250419,,,A*76
$GPGGA,224657.000,4910.34682,N,12304.30470,W,1,15,0.7,006.09,M,-16.8,M,,*53
$GPRMC,224657.000,A,4910.34682,N,12304.30470,W,0.1,0.0,250419,,,A*75
$GPGGA,224658.000,4910.34682,N,12304.30470,W,1,15,0.7,006.09,M,-16.8,M,,*5C
$GPRMC,224658.000,A,4910.34682,N,12304.30470,W,0.0,0.0,250419,,,A*7B
$GPGGA,224659.000,4910.34682,N,12304.30470,W,1,13,0.7,006.09,M,-16.8,M,,*5B
$GPRMC,224659.000,A,4910.34682,N,12304.30470,W,0.5,0.0,250419,,,A*7F
$GPGGA,224700.000,4910.34682,N,12304.30470,W,1,14,0.7,006.09,M,-16.8,M,,*51
$GPRMC,224700.000,A,4910.34682,N,12304.30470,W,0.5,0.0,250419,,,A*72
$GPGGA,224701.000,4910.34682,N,12304.30470,W,1,15,0.7,006.09,M,-16.8,M,,*51
$GPRMC,224701.000,A,4910.34682,N,12304.30470,W,0.3,0.0,250419,,,A*75
$GPGGA,224702.000,4910.34682,N,12304.30470,W,1,14,0.7,006.09,M,-16.8,M,,*53
$GPRMC,224702.000,A,4910.34682,N,12304.30470,W,0.1,0.0,250419,,,A*74
$GPGGA,224703.000,4910.34682,N,12304.30470,W,1,14,0.7,006.09,M,-16.8,M,,*52
$GPRMC,224703.000,A,4910.34682,N,12304.30470,W,0.1,0.0,250419,,,A*75
$GPGGA,224704.000,4910.34682,N,12304.30470,W,1,15,0.7,006.09,M,-16.8,M,,*54
$GPRMC,224704.000,A,4910.34682,N,12304.30470,W,0.6,0.0,250419,,,A*75
$GPGGA,224705.000,4910.34682,N,12304.30470,W,1,15,0.7,006.09,M,-16.8,M,,*55
$GPRMC,224705.000,A,4910.34682,N,12304.30470,W,0.7,0.0,250419,,,A*75
$GPGGA,224706.000,4910.34682,N,12304.30470,W,1,15,0.7,006.09,M,-16.8,M,,*56
$GPRMC,224706.000,A,4910.34682,N,12304.30470,W,0.3,0.0,250419,,,A*72
$GPGGA,224707.000,4910.34682,N,12304.30470,W,1,14,0.7,006.09,M,-16.8,M,,*56
$GPRMC,224707.000,A,4910.34682,N,12304.30470,W,0.1,0.0,250419,,,A*71
$GPGGA,224708.000,4910.34682,N,12304.30470,W,1,14,0.7,006.09,M,-16.8,M,,*59
$GPRMC,224708.000,A,4910.34682,N,12304.30470,W,0.1,0.0,250419,,,A*7E
$GPGGA,224709.000,4910.34682,N,12304.30470,W,1,14,0.7,006.09,M,-16.8,M,,*58
$GPRMC,224709.000,A,4910.34682,N,12304.30470,W,0.0,0.0,250419,,,A*7E
$GPGGA,224710.000,4910.34682,N,12304.30470,W,1,14,0.7,006.09,M,-16.8,M,,*50
$GPRMC,224710.000,A,4910.34682,N,12304.30470,W,0.0,0.0,250419,,,A*76
$GPGGA,224711.000,4910.34682,N,12304.30470,W,1,15,0.7,006.09,M,-16.8,M,,*50
$GPRMC,224711.000,A,4910.34682,N,12304.30470,W,0.0,0.0,250419,,,A*77
$GPGGA,224712.000,4910.34682,N,12304.30470,W,1,15,0.7,006.09,M,-16.8,M,,*53
$GPRMC,224712.000,A,4910.34682,N,12304.30470,W,0.1,0.0,250419,,,A*75
$GPGGA,224713.000,4910.34682,N,12304.30470,W,1,15,0.7,006.09,M,-16.8,M,,*52
$GPRMC,224713.000,A,4910.34682,N,12304.30470,W,0.0,0.0,250419,,,A*75
$GPGGA,224714.000,4910.34682,N,12304.30470,W,1,15,0.7,006.09,M,-16.8,M,,*55
$GPRMC,224714.000,A,4910.34682,N,12304.30470,W,0.0,0.0,250419,,,A*72
$GPGGA,224715.000,4910.34682,N,12304.30470,W,1,14,0.7,006.09,M,-16.8,M,,*55
$GPRMC,224715.000,A,4910.34682,N,12304.30470,W,0.1,0.0,250419,,,A*72
$GPGGA,224716.000,4910.34682,N,12304.30470,W,1,14,0.7,006.09,M,-16.8,M,,*56
$GPRMC,224716.000,A,4910.34682,N,12304.30470,W,0.2,0.0,250419,,,A*72
$GPGGA,224717.000,4910.34682,N,12304.30470,W,1,14,0.7,006.09,M,-16.8,M,,*57
$GPRMC,224717.000,A,4910.34682,N,12304.30470,W,0.6,0.0,250419,,,A*77
$GPGGA,224718.000,4910.34682,N,12304.30470,W,1,14,0.7,006.09,M,-16.8,M,,*58
$GPRMC,224718.000,A,4910.34682,N,12304.30470,W,1.1,0.0,250419,,,A*7E
$GPGGA,224719.000,4910.34682,N,12304.30470,W,1,14,0.7,006.09,M,-16.8,M,,*59
$GPRMC,224719.000,A,4910.34682,N,12304.30470,W,1.4,0.0,250419,,,A*7A
$GPGGA,224720.000,4910.34682,N,12304.30471,W,1,14,0.7,006.09,M,-16.8,M,,*52
$GPRMC,224720.000,A,4910.34682,N,12304.30471,W,1.1,7.7,250419,,,A*74
$GPGGA,224721.000,4910.34682,N,12304.30471,W,1,14,0.7,006.09,M,-16.8,M,,*53
$GPRMC,224721.000,A,4910.34682,N,12304.30471,W,0.2,359.4,250419,,,A*7C
$GPGGA,224722.000,4910.34682,N,12304.30471,W,1,13,0.7,006.09,M,-16.8,M,,*57
$GPRMC,224722.000,A,4910.34682,N,12304.30471,W,0.0,0.0,250419,,,A*76
$GPGGA,224723.000,4910.34682,N,12304.30470,W,1,13,0.7,006.09,M,-16.8,M,,*57
$GPRMC,224723.000,A,4910.34682,N,12304.30470,W,0.1,0.0,250419,,,A*77
$GPGGA,224724.000,4910.34682,N,12304.30470,W,1,14,0.7,006.09,M,-16.8,M,,*57
$GPRMC,224724.000,A,4910.34682,N,12304.30470,W,0.0,0.0,250419,,,A*71
$GPGGA,224725.000,4910.34682,N,12304.30470,W,1,14,0.7,006.09,M,-16.8,M,,*56
$GPRMC,224725.000,A,4910.34682,N,12304.30470,W,0.0,0.0,250419,,,A*70
$GPGGA,224726.000,4910.34682,N,12304.30470,W,1,14,0.7,006.09,M,-16.8,M,,*55
$GPRMC,224726.000,A,4910.34682,N,12304.30470,W,0.0,0.0,250419,,,A*73
$GPGGA,224727.000,4910.34682,N,12304.30470,W,1,14,0.7,006.89,M,-16.8,M,,*5C
$GPRMC,224727.000,A,4910.34682,N,12304.30470,W,0.0,0.0,250419,,,A*72
$GPGGA,224728.000,4910.34682,N,12304.30470,W,1,14,0.7,006.89,M,-16.8,M,,*53
$GPRMC,224728.000,A,4910.34682,N,12304.30470,W,0.1,0.0,250419,,,A*7C
$GPGGA,224729.000,4910.34682,N,12304.30470,W,1,14,0.7,006.89,M,-16.8,M,,*52
$GPRMC,224729.000,A,4910.34682,N,12304.30470,W,0.1,0.0,250419,,,A*7D
$GPGGA,224730.000,4910.34682,N,12304.30470,W,1,14,0.7,006.89,M,-16.8,M,,*5A
$GPRMC,224730.000,A,4910.34682,N,12304.30470,W,0.0,0.0,250419,,,A*74
$GPGGA,224731.000,4910.34682,N,12304.30470,W,1,15,0.7,006.89,M,-16.8,M,,*5A
$GPRMC,224731.000,A,4910.34682,N,12304.30470,W,0.0,0.0,250419,,,A*75
$GPGGA,224732.000,4910.34682,N,12304.30470,W,1,15,0.7,006.89,M,-16.8,M,,*59
$GPRMC,224732.000,A,4910.34682,N,12304.30470,W,0.0,0.0,250419,,,A*76
$GPGGA,224733.000,4910.34682,N,12304.30470,W,1,15,0.7,006.89,M,-16.8,M,,*58
$GPRMC,224733.000,A,4910.34682,N,12304.30470,W,0.1,0.0,250419,,,A*76
$GPGGA,224734.000,4910.34682,N,12304.30470,W,1,15,0.7,006.89,M,-16.8,M,,*5F
$GPRMC,224734.000,A,4910.34682,N,12304.30470,W,0.1,0.0,250419,,,A*71
$GPGGA,224735.000,4910.34682,N,12304.30470,W,1,14,0.7,006.89,M,-16.8,M,,*5F
$GPRMC,224735.000,A,4910.34682,N,12304.30470,W,0.0,0.0,250419,,,A*71
$GPGGA,224736.000,4910.34682,N,12304.30470,W,1,14,0.7,006.89,M,-16.8,M,,*5C
$GPRMC,224736.000,A,4910.34682,N,12304.30470,W,0.1,0.0,250419,,,A*73
$GPGGA,224737.000,4910.34682,N,12304.30470,W,1,14,0.7,006.89,M,-16.8,M,,*5D
$GPRMC,224737.000,A,4910.34682,N,12304.30470,W,0.0,0.0,250419,,,A*73
$GPGGA,224738.000,4910.34682,N,12304.30470,W,1,15,0.7,006.89,M,-16.8,M,,*53
$GPRMC,224738.000,A,4910.34682,N,12304.30470,W,0.1,0.0,250419,,,A*7D
$GPGGA,224739.000,4910.34682,N,12304.30470,W,1,16,0.7,006.89,M,-16.8,M,,*51
$GPRMC,224739.000,A,4910.34682,N,12304.30470,W,0.0,0.0,250419,,,A*7D
$GPGGA,224740.000,4910.34682,N,12304.30470,W,1,16,0.7,006.89,M,-16.8,M,,*5F
$GPRMC,224740.000,A,4910.34682,N,12304.30470,W,0.1,0.0,250419,,,A*72
$GPGGA,224741.000,4910.34682,N,12304.30470,W,1,16,0.7,006.89,M,-16.8,M,,*5E
$GPRMC,224741.000,A,4910.34682,N,12304.30470,W,0.1,0.0,250419,,,A*73
$GPGGA,224742.000,4910.34682,N,12304.30470,W,1,16,0.7,006.89,M,-16.8,M,,*5D
$GPRMC,224742.000,A,4910.34682,N,12304.30470,W,0.1,0.0,250419,,,A*70
$GPGGA,224743.000,4910.34682,N,12304.30470,W,1,16,0.7,006.89,M,-16.8,M,,*5C
$GPRMC,224743.000,A,4910.34682,N,12304.30470,W,0.0,0.0,250419,,,A*70
$GPGGA,224744.000,4910.34682,N,12304.30470,W,1,16,0.7,006.89,M,-16.8,M,,*5B
$GPRMC,224744.000,A,4910.34682,N,12304.30470,W,0.0,0.0,250419,,,A*77
$GPGGA,224745.000,4910.34682,N,12304.30470,W,1,16,0.7,006.89,M,-16.8,M,,*5A
$GPRMC,224745.000,A,4910.34682,N,12304.30470,W,0.1,0.0,250419,,,A*77
$GPGGA,224746.000,4910.34682,N,12304.30470,W,1,16,0.7,006.89,M,-16.8,M,,*59
$GPRMC,224746.000,A,4910.34682,N,12304.30470,W,0.0,0.0,250419,,,A*75
$GPGGA,224747.000,4910.34682,N,12304.30470,W,1,16,0.7,006.89,M,-16.8,M,,*58
$GPRMC,224747.000,A,4910.34682,N,12304.30470,W,0.1,0.0,250419,,,A*75
$GPGGA,224748.000,4910.34682,N,12304.30470,W,1,16,0.7,006.89,M,-16.8,M,,*57
$GPRMC,224748.000,A,4910.34682,N,12304.30470,W,0.0,0.0,250419,,,A*7B
$GPGGA,224749.000,4910.34682,N,12304.30470,W,1,16,0.7,006.89,M,-16.8,M,,*56
$GPRMC,224749.000,A,4910.34682,N,12304.30470,W,0.0,0.0,250419,,,A*7A
$GPGGA,224750.000,4910.34682,N,12304.30470,W,1,17,0.7,006.89,M,-16.8,M,,*5F
$GPRMC,224750.000,A,4910.34682,N,12304.30470,W,0.0,0.0,250419,,,A*72
$GPGGA,224751.000,4910.34682,N,12304.30470,W,1,17,0.7,006.89,M,-16.8,M,,*5E
$GPRMC,224751.000,A,4910.34682,N,12304.30470,W,0.2,0.0,250419,,,A*71
$GPGGA,224752.000,4910.34682,N,12304.30470,W,1,16,0.7,006.89,M,-16.8,M,,*5C
$GPRMC,224752.000,A,4910.34682,N,12304.30470,W,0.9,0.0,250419,,,A*79
$GPGGA,224753.000,4910.34682,N,12304.30470,W,1,16,0.7,006.89,M,-16.8,M,,*5D
$GPRMC,224753.000,A,4910.34682,N,12304.30470,W,1.2,0.0,250419,,,A*72
$GPGGA,224754.000,4910.34682,N,12304.30470,W,1,15,0.8,006.89,M,-16.8,M,,*56
$GPRMC,224754.000,A,4910.34682,N,12304.30470,W,1.5,0.0,250419,,,A*72
$GPGGA,224755.000,4910.34749,N,12304.30514,W,1,15,0.7,006.89,M,-16.8,M,,*5D
$GPRMC,224755.000,A,4910.34749,N,12304.30514,W,1.5,0.5,250419,,,A*73
$GPGGA,224756.000,4910.34749,N,12304.30514,W,1,15,0.7,006.89,M,-16.8,M,,*5E
$GPRMC,224756.000,A,4910.34749,N,12304.30514,W,1.5,3.0,250419,,,A*76
$GPGGA,224757.000,4910.34749,N,12304.30514,W,1,16,0.7,006.89,M,-16.8,M,,*5C
$GPRMC,224757.000,A,4910.34749,N,12304.30514,W,1.4,1.8,250419,,,A*7C
$GPGGA,224758.000,4910.34749,N,12304.30514,W,1,15,0.7,006.89,M,-16.8,M,,*50
$GPRMC,224758.000,A,4910.34749,N,12304.30514,W,1.0,4.5,250419,,,A*7F
$GPGGA,224759.000,4910.34749,N,12304.30514,W,1,16,0.7,006.89,M,-16.8,M,,*52
$GPRMC,224759.000,A,4910.34749,N,12304.30514,W,0.0,0.0,250419,,,A*7E
$GPGGA,224800.000,4910.34748,N,12304.30512,W,1,16,0.7,006.89,M,-16.8,M,,*56
$GPRMC,224800.000,A,4910.34748,N,12304.30512,W,0.0,0.0,250419,,,A*7A
$GPGGA,224801.000,4910.34748,N,12304.30512,W,1,15,0.7,006.89,M,-16.8,M,,*54
$GPRMC,224801.000,A,4910.34748,N,12304.30512,W,0.0,0.0,250419,,,A*7B
$GPGGA,224802.000,4910.34748,N,12304.30512,W,1,15,0.7,006.89,M,-16.8,M,,*57
$GPRMC,224802.000,A,4910.34748,N,12304.30512,W,0.0,0.0,250419,,,A*78
$GPGGA,224803.000,4910.34748,N,12304.30512,W,1,16,0.7,006.89,M,-16.8,M,,*55
$GPRMC,224803.000,A,4910.34748,N,12304.30512,W,0.0,0.0,250419,,,A*79
$GPGGA,224804.000,4910.34748,N,12304.30512,W,1,15,0.7,006.89,M,-16.8,M,,*51
$GPRMC,224804.000,A,4910.34748,N,12304.30512,W,0.0,0.0,250419,,,A*7E
$GPGGA,224805.000,4910.34748,N,12304.30512,W,1,16,0.7,006.89,M,-16.8,M,,*53
$GPRMC,224805.000,A,4910.34748,N,12304.30512,W,0.0,0.0,250419,,,A*7F
$GPGGA,224806.000,4910.34748,N,12304.30512,W,1,16,0.7,006.89,M,-16.8,M,,*50
$GPRMC,224806.000,A,4910.34748,N,12304.30512,W,0.0,0.0,250419,,,A*7C
$GPGGA,224807.000,4910.34748,N,12304.30512,W,1,16,0.7,007.32,M,-16.8,M,,*50
$GPRMC,224807.000,A,4910.34748,N,12304.30512,W,0.0,0.0,250419,,,A*7D
$GPGGA,224808.000,4910.34748,N,12304.30512,W,1,16,0.7,007.32,M,-16.8,M,,*5F
$GPRMC,224808.000,A,4910.34748,N,12304.30512,W,0.1,0.0,250419,,,A*73
$GPGGA,224809.000,4910.34748,N,12304.30512,W,1,16,0.7,007.32,M,-16.8,M,,*5E
$GPRMC,224809.000,A,4910.34748,N,12304.30512,W,0.0,0.0,250419,,,A*73
$GPGGA,224810.000,4910.34748,N,12304.30512,W,1,16,0.7,007.32,M,-16.8,M,,*56
$GPRMC,224810.000,A,4910.34748,N,12304.30512,W,0.0,0.0,250419,,,A*7B
$GPGGA,224811.000,4910.34748,N,12304.30512,W,1,16,0.7,007.32,M,-16.8,M,,*57
$GPRMC,224811.000,A,4910.34748,N,12304.30512,W,0.0,0.0,250419,,,A*7A
$GPGGA,224812.000,4910.34748,N,12304.30512,W,1,15,0.7,007.32,M,-16.8,M,,*57
$GPRMC,224812.000,A,4910.34748,N,12304.30512,W,0.0,0.0,250419,,,A*79
$GPGGA,224813.000,4910.34748,N,12304.30512,W,1,15,0.7,007.32,M,-16.8,M,,*56
$GPRMC,224813.000,A,4910.34748,N,12304.30512,W,0.0,0.0,250419,,,A*78
$GPGGA,224814.000,4910.34748,N,12304.30512,W,1,15,0.7,007.32,M,-16.8,M,,*51
$GPRMC,224814.000,A,4910.34748,N,12304.30512,W,0.0,0.0,250419,,,A*7F
$GPGGA,224815.000,4910.34748,N,12304.30512,W,1,15,0.7,007.32,M,-16.8,M,,*50
$GPRMC,224815.000,A,4910.34748,N,12304.30512,W,0.0,0.0,250419,,,A*7E
$GPGGA,224816.000,4910.34748,N,12304.30512,W,1,15,0.7,007.32,M,-16.8,M,,*53
$GPRMC,224816.000,A,4910.34748,N,12304.30512,W,0.0,0.0,250419,,,A*7D
$GPGGA,224817.000,4910.34748,N,12304.30512,W,1,15,0.7,007.32,M,-16.8,M,,*52
$GPRMC,224817.000,A,4910.34748,N,12304.30512,W,0.0,0.0,250419,,,A*7C
$GPGGA,224818.000,4910.34748,N,12304.30512,W,1,16,0.7,007.32,M,-16.8,M,,*5E
$GPRMC,224818.000,A,4910.34748,N,12304.30512,W,0.0,0.0,250419,,,A*73
$GPGGA,224819.000,4910.34748,N,12304.30512,W,1,16,0.7,007.32,M,-16.8,M,,*5F
$GPRMC,224819.000,A,4910.34748,N,12304.30512,W,0.1,0.0,250419,,,A*73
$GPGGA,224820.000,4910.34748,N,12304.30512,W,1,16,0.7,007.32,M,-16.8,M,,*55
$GPRMC,224820.000,A,4910.34748,N,12304.30512,W,0.0,0.0,250419,,,A*78
$GPGGA,224821.000,4910.34748,N,12304.30512,W,1,16,0.7,007.32,M,-16.8,M,,*54
$GPRMC,224821.000,A,4910.34748,N,12304.30512,W,0.0,0.0,250419,,,A*79
$GPGGA,224822.000,4910.34748,N,12304.30512,W,1,16,0.7,007.32,M,-16.8,M,,*57
$GPRMC,224822.000,A,4910.34748,N,12304.30512,W,0.0,0.0,250419,,,A*7A
$GPGGA,224823.000,4910.34748,N,12304.30512,W,1,16,0.7,007.32,M,-16.8,M,,*56
$GPRMC,224823.000,A,4910.34748,N,12304.30512,W,0.0,0.0,250419,,,A*7B
$GPGGA,224824.000,4910.34748,N,12304.30512,W,1,15,0.7,007.32,M,-16.8,M,,*52
$GPRMC,224824.000,A,4910.34748,N,12304.30512,W,0.0,0.0,250419,,,A*7C
$GPGGA,224825.000,4910.34748,N,12304.30512,W,1,16,0.7,007.32,M,-16.8,M,,*50
$GPRMC,224825.000,A,4910.34748,N,12304.30512,W,0.4,0.0,250419,,,A*79
$GPGGA,224826.000,4910.34748,N,12304.30512,W,1,16,0.7,007.32,M,-16.8,M,,*53
$GPRMC,224826.000,A,4910.34748,N,12304.30512,W,1.1,0.0,250419,,,A*7E
$GPGGA,224827.000,4910.34748,N,12304.30512,W,1,16,0.7,007.32,M,-16.8,M,,*52
$GPRMC,224827.000,A,4910.34748,N,12304.30512,W,1.7,0.0,250419,,,A*79
$GPGGA,224828.000,4910.35010,N,12304.30522,W,1,16,0.7,007.09,M,-16.8,M,,*5D
$GPRMC,224828.000,A,4910.35010,N,12304.30522,W,2.1,2.6,250419,,,A*7F
$GPGGA,224829.000,4910.35174,N,12304.30464,W,1,15,0.7,006.73,M,-16.8,M,,*53
$GPRMC,224829.000,A,4910.35174,N,12304.30464,W,2.3,3.0,250419,,,A*7B
$GPGGA,224830.000,4910.35345,N,12304.30418,W,1,16,0.7,006.41,M,-16.8,M,,*52
$GPRMC,224830.000,A,4910.35345,N,12304.30418,W,3.6,2.4,250419,,,A*79
$GPGGA,224831.000,4910.35545,N,12304.30392,W,1,15,0.7,005.92,M,-16.8,M,,*5E
$GPRMC,224831.000,A,4910.35545,N,12304.30392,W,5.9,1.1,250419,,,A*74
$GPGGA,224832.000,4910.35778,N,12304.30377,W,1,15,0.7,005.40,M,-16.8,M,,*55
$GPRMC,224832.000,A,4910.35778,N,12304.30377,W,7.3,359.8,250419,,,A*7F
$GPGGA,224833.000,4910.36033,N,12304.30391,W,1,14,0.7,005.18,M,-16.8,M,,*5B
$GPRMC,224833.000,A,4910.36033,N,12304.30391,W,8.3,359.4,250419,,,A*7E
$GPGGA,224834.000,4910.36304,N,12304.30398,W,1,14,0.7,005.08,M,-16.8,M,,*53
$GPRMC,224834.000,A,4910.36304,N,12304.30398,W,9.4,358.9,250419,,,A*7D
$GPGGA,224838.000,4910.37447,N,12304.30434,W,1,15,0.7,005.20,M,-16.8,M,,*54
$GPRMC,224838.000,A,4910.37447,N,12304.30434,W,9.3,1.0,250419,,,A*70
$GPGGA,224839.000,4910.37715,N,12304.30435,W,1,16,0.7,004.97,M,-16.8,M,,*5E
$GPRMC,224839.000,A,4910.37715,N,12304.30435,W,9.0,357.0,250419,,,A*77
$GPGGA,224840.000,4910.37966,N,12304.30475,W,1,16,0.7,004.81,M,-16.8,M,,*59
$GPRMC,224840.000,A,4910.37966,N,12304.30475,W,7.8,343.6,250419,,,A*72
$GPGGA,224841.000,4910.38149,N,12304.30636,W,1,16,0.7,004.56,M,-16.8,M,,*5D
$GPRMC,224841.000,A,4910.38149,N,12304.30636,W,6.8,321.4,250419,,,A*7B
$GPGGA,224842.000,4910.38248,N,12304.30850,W,1,15,0.7,004.18,M,-16.8,M,,*5B
$GPRMC,224842.000,A,4910.38248,N,12304.30850,W,5.2,296.8,250419,,,A*7C
$GPGGA,224843.000,4910.38285,N,12304.31047,W,1,13,0.7,003.91,M,-16.8,M,,*54
$GPRMC,224843.000,A,4910.38285,N,12304.31047,W,3.8,283.7,250419,,,A*74
$GPGGA,224844.000,4910.38287,N,12304.31233,W,1,14,0.7,003.75,M,-16.8,M,,*5D
$GPRMC,224844.000,A,4910.38287,N,12304.31233,W,3.4,275.5,250419,,,A*77
$GPGGA,224845.000,4910.38271,N,12304.31351,W,1,14,0.7,003.38,M,-16.8,M,,*59
$GPRMC,224845.000,A,4910.38271,N,12304.31351,W,3.1,273.5,250419,,,A*79
$GPGGA,224846.000,4910.38247,N,12304.31441,W,1,14,0.7,003.58,M,-16.8,M,,*5F
$GPRMC,224846.000,A,4910.38247,N,12304.31441,W,1.6,267.7,250419,,,A*7B
$GPGGA,224847.000,4910.38229,N,12304.31480,W,1,13,0.7,003.79,M,-16.8,M,,*5F
$GPRMC,224847.000,A,4910.38229,N,12304.31480,W,0.4,262.1,250419,,,A*7F
$GPGGA,224848.000,4910.38229,N,12304.31480,W,1,13,0.7,003.79,M,-16.8,M,,*50
$GPRMC,224848.000,A,4910.38229,N,12304.31480,W,0.1,0.0,250419,,,A*72
$GPGGA,224849.000,4910.38228,N,12304.31478,W,1,12,0.7,003.79,M,-16.8,M,,*56
$GPRMC,224849.000,A,4910.38228,N,12304.31478,W,0.1,0.0,250419,,,A*75
$GPGGA,224850.000,4910.38228,N,12304.31478,W,1,12,0.7,003.79,M,-16.8,M,,*5E
$GPRMC,224850.000,A,4910.38228,N,12304.31478,W,0.1,0.0,250419,,,A*7D
$GPGGA,224851.000,4910.38228,N,12304.31478,W,1,13,0.7,003.79,M,-16.8,M,,*5E
$GPRMC,224851.000,A,4910.38228,N,12304.31478,W,0.1,0.0,250419,,,A*7C
$GPGGA,224852.000,4910.38228,N,12304.31478,W,1,12,0.7,003.79,M,-16.8,M,,*5C
$GPRMC,224852.000,A,4910.38228,N,12304.31478,W,0.1,0.0,250419,,,A*7F
$GPGGA,224853.000,4910.38228,N,12304.31478,W,1,13,0.7,003.79,M,-16.8,M,,*5C
$GPRMC,224853.000,A,4910.38228,N,12304.31478,W,0.0,0.0,250419,,,A*7F
$GPGGA,224854.000,4910.38228,N,12304.31478,W,1,13,0.7,003.79,M,-16.8,M,,*5B
$GPRMC,224854.000,A,4910.38228,N,12304.31478,W,0.1,0.0,250419,,,A*79
$GPGGA,224855.000,4910.38228,N,12304.31478,W,1,14,0.7,003.79,M,-16.8,M,,*5D
$GPRMC,224855.000,A,4910.38228,N,12304.31478,W,0.1,0.0,250419,,,A*78
$GPGGA,224856.000,4910.38228,N,12304.31478,W,1,13,0.7,003.79,M,-16.8,M,,*59
$GPRMC,224856.000,A,4910.38228,N,12304.31478,W,0.0,0.0,250419,,,A*7A
$GPGGA,224857.000,4910.38228,N,12304.31478,W,1,13,0.7,003.79,M,-16.8,M,,*58
$GPRMC,224857.000,A,4910.38228,N,12304.31478,W,0.0,0.0,250419,,,A*7B
$GPGGA,224858.000,4910.38228,N,12304.31478,W,1,13,0.7,003.79,M,-16.8,M,,*57
$GPRMC,224858.000,A,4910.38228,N,12304.31478,W,0.1,0.0,250419,,,A*75
$GPGGA,224859.000,4910.38228,N,12304.31478,W,1,14,0.7,003.79,M,-16.8,M,,*51
$GPRMC,224859.000,A,4910.38228,N,12304.31478,W,0.1,0.0,250419,,,A*74
$GPGGA,224900.000,4910.38228,N,12304.31478,W,1,12,0.8,003.79,M,-16.8,M,,*55
$GPRMC,224900.000,A,4910.38228,N,12304.31478,W,0.0,0.0,250419,,,A*78
$GPGGA,224901.000,4910.38228,N,12304.31478,W,1,12,0.8,003.79,M,-16.8,M,,*54
$GPRMC,224901.000,A,4910.38228,N,12304.31478,W,0.0,0.0,250419,,,A*79
$GPGGA,224902.000,4910.38228,N,12304.31478,W,1,13,0.7,003.79,M,-16.8,M,,*59
$GPRMC,224902.000,A,4910.38228,N,12304.31478,W,0.1,0.0,250419,,,A*7B
$GPGGA,224903.000,4910.38228,N,12304.31478,W,1,13,0.7,003.79,M,-16.8,M,,*58
$GPRMC,224903.000,A,4910.38228,N,12304.31478,W,0.0,0.0,250419,,,A*7B
$GPGGA,224904.000,4910.38228,N,12304.31478,W,1,14,0.7,003.79,M,-16.8,M,,*58
$GPRMC,224904.000,A,4910.38228,N,12304.31478,W,0.1,0.0,250419,,,A*7D
$GPGGA,224905.000,4910.38228,N,12304.31478,W,1,14,0.7,003.79,M,-16.8,M,,*59
$GPRMC,224905.000,A,4910.38228,N,12304.31478,W,0.0,0.0,250419,,,A*7D
$GPGGA,224906.000,4910.38228,N,12304.31478,W,1,13,0.7,003.79,M,-16.8,M,,*5D
$GPRMC,224906.000,A,4910.38228,N,12304.31478,W,0.0,0.0,250419,,,A*7E
$GPGGA,224907.000,4910.38228,N,12304.31478,W,1,14,0.7,003.79,M,-16.8,M,,*5B
$GPRMC,224907.000,A,4910.38228,N,12304.31478,W,0.0,0.0,250419,,,A*7F
$GPGGA,224908.000,4910.38228,N,12304.31478,W,1,15,0.7,003.79,M,-16.8,M,,*55
$GPRMC,224908.000,A,4910.38228,N,12304.31478,W,0.0,0.0,250419,,,A*70
$GPGGA,224909.000,4910.38228,N,12304.31478,W,1,14,0.7,003.79,M,-16.8,M,,*55
$GPRMC,224909.000,A,4910.38228,N,12304.31478,W,0.1,0.0,250419,,,A*70
$GPGGA,224910.000,4910.38228,N,12304.31478,W,1,15,0.7,003.79,M,-16.8,M,,*5C
$GPRMC,224910.000,A,4910.38228,N,12304.31478,W,0.0,0.0,250419,,,A*79
$GPGGA,224911.000,4910.38228,N,12304.31478,W,1,13,0.7,003.79,M,-16.8,M,,*5B
$GPRMC,224911.000,A,4910.38228,N,12304.31478,W,0.1,0.0,250419,,,A*79
$GPGGA,224912.000,4910.38228,N,12304.31478,W,1,15,0.7,003.79,M,-16.8,M,,*5E
$GPRMC,224912.000,A,4910.38228,N,12304.31478,W,0.4,0.0,250419,,,A*7F
$GPGGA,224913.000,4910.38228,N,12304.31478,W,1,14,0.7,003.79,M,-16.8,M,,*5E
$GPRMC,224913.000,A,4910.38228,N,12304.31478,W,0.7,0.0,250419,,,A*7D
$GPGGA,224914.000,4910.38228,N,12304.31478,W,1,14,0.7,003.79,M,-16.8,M,,*59
$GPRMC,224914.000,A,4910.38228,N,12304.31478,W,0.9,0.0,250419,,,A*74
$GPGGA,224915.000,4910.38228,N,12304.31478,W,1,16,0.7,003.79,M,-16.8,M,,*5A
$GPRMC,224915.000,A,4910.38228,N,12304.31478,W,1.1,0.0,250419,,,A*7C
$GPGGA,224916.000,4910.38228,N,12304.31478,W,1,14,0.7,003.79,M,-16.8,M,,*5B
$GPRMC,224916.000,A,4910.38228,N,12304.31478,W,1.0,0.0,250419,,,A*7E
$GPGGA,224917.000,4910.38228,N,12304.31478,W,1,15,0.7,003.79,M,-16.8,M,,*5B
$GPRMC,224917.000,A,4910.38228,N,12304.31478,W,1.2,0.0,250419,,,A*7D
$GPGGA,224918.000,4910.38228,N,12304.31478,W,1,15,0.7,003.79,M,-16.8,M,,*54
$GPRMC,224918.000,A,4910.38228,N,12304.31478,W,1.2,0.0,250419,,,A*72
$GPGGA,224919.000,4910.38229,N,12304.31480,W,1,15,0.7,003.79,M,-16.8,M,,*53
$GPRMC,224919.000,A,4910.38229,N,12304.31480,W,0.9,275.1,250419,,,A*7E
$GPGGA,224920.000,4910.38229,N,12304.31480,W,1,15,0.7,003.79,M,-16.8,M,,*59
$GPRMC,224920.000,A,4910.38229,N,12304.31480,W,0.8,268.0,250419,,,A*78
$GPGGA,224921.000,4910.38228,N,12304.31478,W,1,15,0.7,003.79,M,-16.8,M,,*5E
$GPRMC,224921.000,A,4910.38228,N,12304.31478,W,1.0,0.0,250419,,,A*7A
$GPGGA,224922.000,4910.38228,N,12304.31478,W,1,15,0.7,003.79,M,-16.8,M,,*5D
$GPRMC,224922.000,A,4910.38228,N,12304.31478,W,1.2,0.0,250419,,,A*7B
$GPGGA,224923.000,4910.38228,N,12304.31478,W,1,15,0.7,003.79,M,-16.8,M,,*5C
$GPRMC,224923.000,A,4910.38228,N,12304.31478,W,1.1,0.0,250419,,,A*79
$GPGGA,224924.000,4910.38229,N,12304.31480,W,1,15,0.7,003.79,M,-16.8,M,,*5D
$GPRMC,224924.000,A,4910.38229,N,12304.31480,W,0.9,265.6,250419,,,A*76
$GPGGA,224925.000,4910.38229,N,12304.31480,W,1,14,0.7,003.79,M,-16.8,M,,*5D
$GPRMC,224925.000,A,4910.38229,N,12304.31480,W,0.7,264.0,250419,,,A*7E
$GPGGA,224926.000,4910.38228,N,12304.31478,W,1,14,0.7,003.79,M,-16.8,M,,*58
$GPRMC,224926.000,A,4910.38228,N,12304.31478,W,0.8,0.0,250419,,,A*74
$GPGGA,224927.000,4910.38228,N,12304.31478,W,1,14,0.7,004.05,M,-16.8,M,,*55
$GPRMC,224927.000,A,4910.38228,N,12304.31478,W,0.8,0.0,250419,,,A*75
$GPGGA,224928.000,4910.38228,N,12304.31478,W,1,14,0.7,004.05,M,-16.8,M,,*5A
$GPRMC,224928.000,A,4910.38228,N,12304.31478,W,0.5,0.0,250419,,,A*77
$GPGGA,224929.000,4910.38228,N,12304.31478,W,1,13,0.7,004.05,M,-16.8,M,,*5C
$GPRMC,224929.000,A,4910.38228,N,12304.31478,W,0.4,0.0,250419,,,A*77
$GPGGA,224930.000,4910.38228,N,12304.31478,W,1,13,0.7,004.05,M,-16.8,M,,*54
$GPRMC,224930.000,A,4910.38228,N,12304.31478,W,0.3,0.0,250419,,,A*78
$GPGGA,224931.000,4910.38228,N,12304.31478,W,1,13,0.7,004.05,M,-16.8,M,,*55
$GPRMC,224931.000,A,4910.38228,N,12304.31478,W,0.2,0.0,250419,,,A*78
$GPGGA,224932.000,4910.38228,N,12304.31478,W,1,14,0.7,004.05,M,-16.8,M,,*51
$GPRMC,224932.000,A,4910.38228,N,12304.31478,W,0.0,0.0,250419,,,A*79
$GPGGA,224933.000,4910.38228,N,12304.31478,W,1,14,0.7,004.05,M,-16.8,M,,*50
$GPRMC,224933.000,A,4910.38228,N,12304.31478,W,0.0,0.0,250419,,,A*78
$GPGGA,224934.000,4910.38228,N,12304.31478,W,1,14,0.7,004.05,M,-16.8,M,,*57
$GPRMC,224934.000,A,4910.38228,N,12304.31478,W,0.1,0.0,250419,,,A*7E
$GPGGA,224935.000,4910.38228,N,12304.31478,W,1,14,0.7,004.05,M,-16.8,M,,*56
$GPRMC,224935.000,A,4910.38228,N,12304.31478,W,0.0,0.0,250419,,,A*7E
$GPGGA,224936.000,4910.38228,N,12304.31478,W,1,14,0.7,004.05,M,-16.8,M,,*55
$GPRMC,224936.000,A,4910.38228,N,12304.31478,W,0.1,0.0,250419,,,A*7C
$GPGGA,224937.000,4910.38228,N,12304.31478,W,1,14,0.7,004.05,M,-16.8,M,,*54
$GPRMC,224937.000,A,4910.38228,N,12304.31478,W,0.1,0.0,250419,,,A*7D
$GPGGA,224938.000,4910.38228,N,12304.31478,W,1,14,0.7,004.05,M,-16.8,M,,*5B
$GPRMC,224938.000,A,4910.38228,N,12304.31478,W,0.0,0.0,250419,,,A*73
$GPGGA,224939.000,4910.38228,N,12304.31478,W,1,14,0.7,004.05,M,-16.8,M,,*5A
$GPRMC,224939.000,A,4910.38228,N,12304.31478,W,0.0,0.0,250419,,,A*72
$GPGGA,224940.000,4910.38228,N,12304.31478,W,1,14,0.7,004.05,M,-16.8,M,,*54
$GPRMC,224940.000,A,4910.38228,N,12304.31478,W,0.0,0.0,250419,,,A*7C
$GPGGA,224941.000,4910.38228,N,12304.31478,W,1,14,0.7,004.05,M,-16.8,M,,*55
$GPRMC,224941.000,A,4910.38228,N,12304.31478,W,0.0,0.0,250419,,,A*7D
$GPGGA,224942.000,4910.38228,N,12304.31478,W,1,14,0.7,004.05,M,-16.8,M,,*56
$GPRMC,224942.000,A,4910.38228,N,12304.31478,W,0.0,0.0,250419,,,A*7E
$GPGGA,224943.000,4910.38228,N,12304.31478,W,1,14,0.7,004.05,M,-16.8,M,,*57
$GPRMC,224943.000,A,4910.38228,N,12304.31478,W,0.0,0.0,250419,,,A*7F
$GPGGA,224944.000,4910.38228,N,12304.31478,W,1,14,0.7,004.05,M,-16.8,M,,*50
$GPRMC,224944.000,A,4910.38228,N,12304.31478,W,0.0,0.0,250419,,,A*78
$GPGGA,224945.000,4910.38228,N,12304.31478,W,1,14,0.7,004.05,M,-16.8,M,,*51
$GPRMC,224945.000,A,4910.38228,N,12304.31478,W,0.1,0.0,250419,,,A*78
$GPGGA,224946.000,4910.38228,N,12304.31478,W,1,15,0.7,004.05,M,-16.8,M,,*53
$GPRMC,224946.000,A,4910.38228,N,12304.31478,W,0.1,0.0,250419,,,A*7B
$GPGGA,224947.000,4910.38228,N,12304.31478,W,1,14,0.7,004.05,M,-16.8,M,,*53
$GPRMC,224947.000,A,4910.38228,N,12304.31478,W,0.1,0.0,250419,,,A*7A
$GPGGA,224948.000,4910.38228,N,12304.31478,W,1,14,0.7,004.05,M,-16.8,M,,*5C
$GPRMC,224948.000,A,4910.38228,N,12304.31478,W,0.0,0.0,250419,,,A*74
$GPGGA,224949.000,4910.38228,N,12304.31478,W,1,13,0.7,004.05,M,-16.8,M,,*5A
$GPRMC,224949.000,A,4910.38228,N,12304.31478,W,0.1,0.0,250419,,,A*74
$GPGGA,224950.000,4910.38228,N,12304.31478,W,1,15,0.7,004.05,M,-16.8,M,,*54
$GPRMC,224950.000,A,4910.38228,N,12304.31478,W,0.2,0.0,250419,,,A*7F
$GPGGA,224951.000,4910.38228,N,12304.31478,W,1,15,0.7,004.05,M,-16.8,M,,*55
$GPRMC,224951.000,A,4910.38228,N,12304.31478,W,0.2,0.0,250419,,,A*7E
$GPGGA,224952.000,4910.38228,N,12304.31478,W,1,16,0.7,004.05,M,-16.8,M,,*55
$GPRMC,224952.000,A,4910.38228,N,12304.31478,W,0.2,0.0,250419,,,A*7D
$GPGGA,224953.000,4910.38228,N,12304.31478,W,1,15,0.7,004.05,M,-16.8,M,,*57
$GPRMC,224953.000,A,4910.38228,N,12304.31478,W,0.5,0.0,250419,,,A*7B
$GPGGA,224954.000,4910.38228,N,12304.31478,W,1,16,0.7,004.05,M,-16.8,M,,*53
$GPRMC,224954.000,A,4910.38228,N,12304.31478,W,0.4,0.0,250419,,,A*7D
$GPGGA,224955.000,4910.38228,N,12304.31478,W,1,14,0.7,004.05,M,-16.8,M,,*50
$GPRMC,224955.000,A,4910.38228,N,12304.31478,W,0.5,0.0,250419,,,A*7D
$GPGGA,224956.000,4910.38228,N,12304.31478,W,1,14,0.7,004.05,M,-16.8,M,,*53
$GPRMC,224956.000,A,4910.38228,N,12304.31478,W,0.6,0.0,250419,,,A*7D
$GPGGA,224957.000,4910.38225,N,12304.31607,W,1,15,0.7,004.05,M,-16.8,M,,*54
$GPRMC,224957.000,A,4910.38225,N,12304.31607,W,0.6,285.1,250419,,,A*75
$GPGGA,224958.000,4910.38225,N,12304.31607,W,1,15,0.7,004.05,M,-16.8,M,,*5B
$GPRMC,224958.000,A,4910.38225,N,12304.31607,W,0.7,291.0,250419,,,A*7F
$GPGGA,224959.000,4910.38225,N,12304.31607,W,1,14,0.7,004.05,M,-16.8,M,,*5B
$GPRMC,224959.000,A,4910.38225,N,12304.31607,W,0.8,296.9,250419,,,A*7F
$GPGGA,225000.000,4910.38225,N,12304.31607,W,1,14,0.7,004.05,M,-16.8,M,,*5F
$GPRMC,225000.000,A,4910.38225,N,12304.31607,W,0.8,304.7,250419,,,A*7F
$GPGGA,225001.000,4910.38225,N,12304.31607,W,1,14,0.7,004.05,M,-16.8,M,,*5E
$GPRMC,225001.000,A,4910.38225,N,12304.31607,W,0.8,310.2,250419,,,A*7E
$GPGGA,225002.000,4910.38225,N,12304.31607,W,1,15,0.7,004.05,M,-16.8,M,,*5C
$GPRMC,225002.000,A,4910.38225,N,12304.31607,W,0.9,320.9,250419,,,A*74
$GPGGA,225003.000,4910.38225,N,12304.31607,W,1,14,0.7,004.05,M,-16.8,M,,*5C
$GPRMC,225003.000,A,4910.38225,N,12304.31607,W,0.9,329.2,250419,,,A*77
$GPGGA,225004.000,4910.38225,N,12304.31607,W,1,15,0.7,004.05,M,-16.8,M,,*5A
$GPRMC,225004.000,A,4910.38225,N,12304.31607,W,1.0,331.8,250419,,,A*7B
$GPGGA,225005.000,4910.38225,N,12304.31607,W,1,15,0.7,004.05,M,-16.8,M,,*5B
$GPRMC,225005.000,A,4910.38225,N,12304.31607,W,0.9,339.8,250419,,,A*7A
$GPGGA,225006.000,4910.38225,N,12304.31607,W,1,16,0.7,004.05,M,-16.8,M,,*5B
$GPRMC,225006.000,A,4910.38225,N,12304.31607,W,0.3,348.6,250419,,,A*7B
$GPGGA,225007.000,4910.38272,N,12304.31719,W,1,13,0.7,004.30,M,-16.8,M,,*55
$GPRMC,225007.000,A,4910.38272,N,12304.31719,W,0.1,0.0,250419,,,A*7D
$GPGGA,225008.000,4910.38270,N,12304.31718,W,1,14,0.7,004.30,M,-16.8,M,,*5E
$GPRMC,225008.000,A,4910.38270,N,12304.31718,W,0.1,0.0,250419,,,A*71
$GPGGA,225009.000,4910.38270,N,12304.31718,W,1,14,0.7,004.30,M,-16.8,M,,*5F
$GPRMC,225009.000,A,4910.38270,N,12304.31718,W,0.0,0.0,250419,,,A*71
$GPGGA,225010.000,4910.38270,N,12304.31718,W,1,14,0.7,004.30,M,-16.8,M,,*57
$GPRMC,225010.000,A,4910.38270,N,12304.31718,W,0.0,0.0,250419,,,A*79
$GPGGA,225011.000,4910.38270,N,12304.31718,W,1,14,0.7,004.30,M,-16.8,M,,*56
$GPRMC,225011.000,A,4910.38270,N,12304.31718,W,0.0,0.0,250419,,,A*78
$GPGGA,225012.000,4910.38270,N,12304.31718,W,1,14,0.7,004.30,M,-16.8,M,,*55
$GPRMC,225012.000,A,4910.38270,N,12304.31718,W,0.1,0.0,250419,,,A*7A
$GPGGA,225013.000,4910.38270,N,12304.31718,W,1,14,0.7,004.30,M,-16.8,M,,*54
$GPRMC,225013.000,A,4910.38270,N,12304.31718,W,0.0,0.0,250419,,,A*7A
$GPGGA,225014.000,4910.38270,N,12304.31718,W,1,14,0.7,004.30,M,-16.8,M,,*53
$GPRMC,225014.000,A,4910.38270,N,12304.31718,W,0.1,0.0,250419,,,A*7C
$GPGGA,225015.000,4910.38270,N,12304.31718,W,1,14,0.7,004.30,M,-16.8,M,,*52
$GPRMC,225015.000,A,4910.38270,N,12304.31718,W,0.0,0.0,250419,,,A*7C
$GPGGA,225016.000,4910.38270,N,12304.31718,W,1,15,0.7,004.30,M,-16.8,M,,*50
$GPRMC,225016.000,A,4910.38270,N,12304.31718,W,0.1,0.0,250419,,,A*7E
$GPGGA,225017.000,4910.38270,N,12304.31718,W,1,15,0.7,004.30,M,-16.8,M,,*51
$GPRMC,225017.000,A,4910.38270,N,12304.31718,W,0.0,0.0,250419,,,A*7E
$GPGGA,225018.000,4910.38270,N,12304.31718,W,1,17,0.7,004.30,M,-16.8,M,,*5C
$GPRMC,225018.000,A,4910.38270,N,12304.31718,W,0.1,0.0,250419,,,A*70
$GPGGA,225019.000,4910.38270,N,12304.31718,W,1,16,0.7,004.30,M,-16.8,M,,*5C
$GPRMC,225019.000,A,4910.38270,N,12304.31718,W,0.0,0.0,250419,,,A*70
$GPGGA,225020.000,4910.38270,N,12304.31718,W,1,17,0.7,004.30,M,-16.8,M,,*57
$GPRMC,225020.000,A,4910.38270,N,12304.31718,W,0.0,0.0,250419,,,A*7A
$GPGGA,225021.000,4910.38270,N,12304.31718,W,1,16,0.7,004.30,M,-16.8,M,,*57
$GPRMC,225021.000,A,4910.38270,N,12304.31718,W,0.1,0.0,250419,,,A*7A
$GPGGA,225022.000,4910.38270,N,12304.31718,W,1,15,0.7,004.30,M,-16.8,M,,*57
$GPRMC,225022.000,A,4910.38270,N,12304.31718,W,0.4,0.0,250419,,,A*7C
$GPGGA,225023.000,4910.38270,N,12304.31718,W,1,16,0.7,004.30,M,-16.8,M,,*55
$GPRMC,225023.000,A,4910.38270,N,12304.31718,W,0.5,0.0,250419,,,A*7C
$GPGGA,225024.000,4910.38270,N,12304.31718,W,1,15,0.7,004.30,M,-16.8,M,,*51
$GPRMC,225024.000,A,4910.38270,N,12304.31718,W,0.7,0.0,250419,,,A*79
$GPGGA,225025.000,4910.38270,N,12304.31718,W,1,16,0.7,004.30,M,-16.8,M,,*53
$GPRMC,225025.000,A,4910.38270,N,12304.31718,W,0.7,0.0,250419,,,A*78
$GPGGA,225026.000,4910.38270,N,12304.31718,W,1,15,0.7,004.30,M,-16.8,M,,*53
$GPRMC,225026.000,A,4910.38270,N,12304.31718,W,0.7,0.0,250419,,,A*7B
$GPGGA,225027.000,4910.38270,N,12304.31718,W,1,16,0.7,004.30,M,-16.8,M,,*51
$GPRMC,225027.000,A,4910.38270,N,12304.31718,W,0.8,0.0,250419,,,A*75
$GPGGA,225028.000,4910.38270,N,12304.31718,W,1,17,0.7,004.30,M,-16.8,M,,*5F
$GPRMC,225028.000,A,4910.38270,N,12304.31718,W,0.6,0.0,250419,,,A*74
$GPGGA,225029.000,4910.38270,N,12304.31718,W,1,16,0.7,004.30,M,-16.8,M,,*5F
$GPRMC,225029.000,A,4910.38270,N,12304.31718,W,0.0,0.0,250419,,,A*73
$GPGGA,225030.000,4910.38270,N,12304.31718,W,1,17,0.7,004.30,M,-16.8,M,,*56
$GPRMC,225030.000,A,4910.38270,N,12304.31718,W,0.1,0.0,250419,,,A*7A
$GPGGA,225031.000,4910.38270,N,12304.31718,W,1,16,0.7,004.30,M,-16.8,M,,*56
$GPRMC,225031.000,A,4910.38270,N,12304.31718,W,0.0,0.0,250419,,,A*7A
$GPGGA,225032.000,4910.38270,N,12304.31718,W,1,16,0.7,004.30,M,-16.8,M,,*55
$GPRMC,225032.000,A,4910.38270,N,12304.31718,W,0.0,0.0,250419,,,A*79
$GPGGA,225033.000,4910.38270,N,12304.31718,W,1,17,0.7,004.30,M,-16.8,M,,*55
$GPRMC,225033.000,A,4910.38270,N,12304.31718,W,0.0,0.0,250419,,,A*78
$GPGGA,225034.000,4910.38270,N,12304.31718,W,1,17,0.7,004.30,M,-16.8,M,,*52
$GPRMC,225034.000,A,4910.38270,N,12304.31718,W,0.2,0.0,250419,,,A*7D
$GPGGA,225035.000,4910.38270,N,12304.31718,W,1,16,0.7,004.30,M,-16.8,M,,*52
$GPRMC,225035.000,A,4910.38270,N,12304.31718,W,0.1,0.0,250419,,,A*7F
$GPGGA,225036.000,4910.38270,N,12304.31718,W,1,15,0.7,004.30,M,-16.8,M,,*52
$GPRMC,225036.000,A,4910.38270,N,12304.31718,W,0.0,0.0,250419,,,A*7D
$GPGGA,225037.000,4910.38270,N,12304.31718,W,1,16,0.7,004.30,M,-16.8,M,,*50
$GPRMC,225037.000,A,4910.38270,N,12304.31718,W,0.0,0.0,250419,,,A*7C
