$GPGGA,002544.000,4910.32445,N,12304.20524,W,1,16,0.6,010.81,M,-16.8,M,,*5F
$GPGGA,002545.000,4910.32434,N,12304.20540,W,1,16,0.6,010.78,M,-16.8,M,,*5C
$GPGGA,002546.000,4910.32436,N,12304.20548,W,1,16,0.6,011.22,M,-16.8,M,,*5B
$GPGGA,002547.000,4910.32439,N,12304.20549,W,1,16,0.6,011.98,M,-16.8,M,,*55
$GPGGA,002548.000,4910.32424,N,12304.20560,W,1,16,0.6,011.50,M,-16.8,M,,*59
$GPGGA,002549.000,4910.32414,N,12304.20570,W,1,16,0.6,011.39,M,-16.8,M,,*55
$GPGGA,002550.000,4910.32412,N,12304.20579,W,1,17,0.6,011.40,M,-16.8,M,,*5D
$GPGGA,002551.000,4910.32419,N,12304.20599,W,1,18,0.6,011.89,M,-16.8,M,,*53
$GPGGA,002552.000,4910.32429,N,12304.20598,W,1,18,0.6,011.87,M,-16.8,M,,*5C
$GPGGA,002553.000,4910.32433,N,12304.20598,W,1,18,0.6,011.75,M,-16.8,M,,*5B
$GPGGA,002554.000,4910.32436,N,12304.20601,W,1,18,0.6,011.25,M,-16.8,M,,*5F
$GPGGA,002555.000,4910.32430,N,12304.20591,W,1,18,0.6,009.86,M,-16.8,M,,*52
$GPGGA,002556.000,4910.32425,N,12304.20586,W,1,18,0.6,009.13,M,-16.8,M,,*5F
$GPGGA,002557.000,4910.32438,N,12304.20600,W,1,17,0.6,008.54,M,-16.8,M,,*52
$GPGGA,002558.000,4910.32406,N,12304.20569,W,1,17,0.6,006.00,M,-16.8,M,,*53
$GPGGA,002559.000,4910.32378,N,12304.20573,W,1,17,0.6,003.22,M,-16.8,M,,*52
$GPGGA,002600.000,4910.32369,N,12304.20580,W,1,16,0.6,001.66,M,-16.8,M,,*52
$GPGGA,002601.000,4910.32383,N,12304.20578,W,1,17,0.6,001.27,M,-16.8,M,,*54
$GPGGA,002602.000,4910.32417,N,12304.20611,W,1,18,0.6,003.42,M,-16.8,M,,*5F
$GPGGA,002603.000,4910.32440,N,12304.20636,W,1,19,0.6,004.02,M,-16.8,M,,*5B
$GPGGA,002604.000,4910.32455,N,12304.20649,W,1,19,0.6,004.83,M,-16.8,M,,*59
$GPGGA,002605.000,4910.32463,N,12304.20656,W,1,19,0.6,004.44,M,-16.8,M,,*58
$GPGGA,002606.000,4910.32476,N,12304.20670,W,1,19,0.6,004.97,M,-16.8,M,,*55
$GPGGA,002607.000,4910.32483,N,12304.20676,W,1,19,0.6,005.15,M,-16.8,M,,*53
$GPGGA,002608.000,4910.32487,N,12304.20681,W,1,18,0.6,005.54,M,-16.8,M,,*54
$GPGGA,002609.000,4910.32503,N,12304.20698,W,1,18,0.6,006.54,M,-16.8,M,,*53
$GPGGA,002610.000,4910.32509,N,12304.20721,W,1,18,0.6,006.98,M,-16.8,M,,*52
$GPGGA,002611.000,4910.32517,N,12304.20734,W,1,18,0.6,007.05,M,-16.8,M,,*5D
$GPGGA,002612.000,4910.32514,N,12304.20736,W,1,18,0.6,006.86,M,-16.8,M,,*55
$GPGGA,002613.000,4910.32525,N,12304.20742,W,1,18,0.6,007.45,M,-16.8,M,,*5B
$GPGGA,002614.000,4910.32533,N,12304.20747,W,1,18,0.6,007.59,M,-16.8,M,,*53
$GPGGA,002615.000,4910.32544,N,12304.20758,W,1,18,0.6,007.87,M,-16.8,M,,*5F
$GPGGA,002616.000,4910.32540,N,12304.20747,W,1,18,0.6,007.32,M,-16.8,M,,*58
$GPGGA,002617.000,4910.32499,N,12304.20686,W,1,19,0.6,003.66,M,-16.8,M,,*54
$GPGGA,002618.000,4910.32487,N,12304.20678,W,1,18,0.6,002.89,M,-16.8,M,,*54
$GPGGA,002619.000,4910.32487,N,12304.20676,W,1,16,0.6,002.02,M,-16.8,M,,*56
$GPGGA,002620.000,4910.32479,N,12304.20676,W,1,16,0.6,000.44,M,-16.8,M,,*5D
$GPGGA,002621.000,4910.32464,N,12304.20671,W,1,16,0.6,000.16,M,-16.8,M,,*50
$GPGGA,002622.000,4910.32490,N,12304.20681,W,1,17,0.6,001.96,M,-16.8,M,,*5F
$GPGGA,002623.000,4910.32507,N,12304.20688,W,1,18,0.6,003.16,M,-16.8,M,,*5D
$GPGGA,002624.000,4910.32502,N,12304.20678,W,1,18,0.6,003.70,M,-16.8,M,,*50
$GPGGA,002625.000,4910.32500,N,12304.20684,W,1,18,0.6,003.96,M,-16.8,M,,*58
$GPGGA,002626.000,4910.32497,N,12304.20688,W,1,18,0.6,004.19,M,-16.8,M,,*58
$GPGGA,002627.000,4910.32500,N,12304.20688,W,1,18,0.6,004.45,M,-16.8,M,,*5F
$GPGGA,002628.000,4910.32488,N,12304.20683,W,1,18,0.6,004.04,M,-16.8,M,,*5F
$GPGGA,002629.000,4910.32486,N,12304.20694,W,1,17,0.6,004.73,M,-16.8,M,,*59
$GPGGA,002630.000,4910.32495,N,12304.20698,W,1,17,0.6,005.90,M,-16.8,M,,*53
$GPGGA,002631.000,4910.32501,N,12304.20700,W,1,17,0.6,006.17,M,-16.8,M,,*52
$GPGGA,002632.000,4910.32483,N,12304.20661,W,1,17,0.6,005.01,M,-16.8,M,,*58
$GPGGA,002633.000,4910.32464,N,12304.20618,W,1,17,0.6,004.55,M,-16.8,M,,*5E
$GPGGA,002634.000,4910.32441,N,12304.20577,W,1,17,0.6,003.02,M,-16.8,M,,*51
$GPGGA,002635.000,4910.32448,N,12304.20616,W,1,18,0.6,004.15,M,-16.8,M,,*53
$GPGGA,002636.000,4910.32515,N,12304.20788,W,1,19,0.6,009.69,M,-16.8,M,,*58
$GPGGA,002637.000,4910.32571,N,12304.20861,W,1,19,0.6,013.66,M,-16.8,M,,*57
$GPGGA,002638.000,4910.32571,N,12304.20887,W,1,17,0.6,015.23,M,-16.8,M,,*59
$GPGGA,002639.000,4910.32533,N,12304.20847,W,1,19,0.6,013.43,M,-16.8,M,,*5C
$GPGGA,002640.000,4910.32503,N,12304.20894,W,1,19,0.6,007.35,M,-16.8,M,,*5B
$GPGGA,002641.000,4910.32576,N,12304.20937,W,1,19,0.6,002.46,M,-16.8,M,,*51
$GPGGA,002642.000,4910.32463,N,12304.20790,W,1,18,0.6,-01.64,M,-16.8,M,,*4B
$GPGGA,002643.000,4910.32395,N,12304.20571,W,1,18,0.6,-05.18,M,-16.8,M,,*46
$GPGGA,002644.000,4910.32409,N,12304.20650,W,1,17,0.6,-03.78,M,-16.8,M,,*4C
$GPGGA,002645.000,4910.32541,N,12304.20880,W,1,17,0.6,-03.73,M,-16.8,M,,*48
$GPGGA,002646.000,4910.32681,N,12304.20875,W,1,18,0.6,002.52,M,-16.8,M,,*5E
$GPGGA,002647.000,4910.32702,N,12304.20911,W,1,17,0.6,003.54,M,-16.8,M,,*5E
$GPGGA,002648.000,4910.32726,N,12304.20916,W,1,17,0.6,004.34,M,-16.8,M,,*51
$GPGGA,002649.000,4910.32731,N,12304.20924,W,1,20,0.6,006.23,M,-16.8,M,,*57
$GPGGA,002650.000,4910.32797,N,12304.21280,W,1,20,0.6,011.09,M,-16.8,M,,*59
$GPGGA,002651.000,4910.32671,N,12304.21065,W,1,20,0.6,007.43,M,-16.8,M,,*51
$GPGGA,002652.000,4910.32665,N,12304.20965,W,1,20,0.6,011.17,M,-16.8,M,,*59
$GPGGA,002653.000,4910.32663,N,12304.20872,W,1,20,0.6,013.01,M,-16.8,M,,*5C
$GPGGA,002654.000,4910.32630,N,12304.20805,W,1,20,0.6,013.51,M,-16.8,M,,*58
$GPGGA,002655.000,4910.32626,N,12304.20767,W,1,20,0.6,014.43,M,-16.8,M,,*51
$GPGGA,002656.000,4910.32525,N,12304.20658,W,1,20,0.6,009.56,M,-16.8,M,,*57
$GPGGA,002657.000,4910.32534,N,12304.20684,W,1,20,0.6,012.22,M,-16.8,M,,*5E
$GPGGA,002658.000,4910.32531,N,12304.20712,W,1,19,0.6,012.87,M,-16.8,M,,*5F
$GPGGA,002659.000,4910.32535,N,12304.20761,W,1,18,0.6,013.53,M,-16.8,M,,*57
$GPGGA,002700.000,4910.32549,N,12304.20762,W,1,17,0.6,013.99,M,-16.8,M,,*5B
$GPGGA,002701.000,4910.32563,N,12304.20902,W,1,17,0.6,015.10,M,-16.8,M,,*5D
$GPGGA,002702.000,4910.32580,N,12304.20974,W,1,17,0.6,015.79,M,-16.8,M,,*5D
$GPGGA,002703.000,4910.32637,N,12304.20932,W,1,17,0.6,017.33,M,-16.8,M,,*5D
$GPGGA,002704.000,4910.32761,N,12304.21156,W,1,17,0.6,023.05,M,-16.8,M,,*51
$GPGGA,002705.000,4910.32837,N,12304.21246,W,1,17,0.6,026.72,M,-16.8,M,,*5B
$GPGGA,002706.000,4910.32894,N,12304.21178,W,1,16,0.6,028.63,M,-16.8,M,,*50
$GPGGA,002707.000,4910.32887,N,12304.21066,W,1,17,0.6,031.51,M,-16.8,M,,*55
$GPGGA,002708.000,4910.32880,N,12304.20997,W,1,18,0.6,032.19,M,-16.8,M,,*5B
$GPGGA,002709.000,4910.32884,N,12304.20982,W,1,20,0.6,031.18,M,-16.8,M,,*53
$GPGGA,002710.000,4910.32894,N,12304.20990,W,1,20,0.6,030.64,M,-16.8,M,,*53
$GPGGA,002711.000,4910.32879,N,12304.20957,W,1,18,0.6,031.77,M,-16.8,M,,*52
$GPGGA,002712.000,4910.32908,N,12304.20980,W,1,18,0.6,031.86,M,-16.8,M,,*52
$GPGGA,002713.000,4910.32909,N,12304.20970,W,1,19,0.6,030.53,M,-16.8,M,,*55
$GPGGA,002714.000,4910.32893,N,12304.20959,W,1,21,0.6,028.76,M,-16.8,M,,*5E
$GPGGA,002715.000,4910.32877,N,12304.20951,W,1,21,0.6,027.34,M,-16.8,M,,*54
$GPGGA,002716.000,4910.32871,N,12304.20916,W,1,21,0.6,025.63,M,-16.8,M,,*52
$GPGGA,002717.000,4910.32881,N,12304.20882,W,1,18,0.6,027.36,M,-16.8,M,,*58
$GPGGA,002718.000,4910.32871,N,12304.20890,W,1,20,0.6,025.43,M,-16.8,M,,*50
$GPGGA,002719.000,4910.32791,N,12304.20920,W,1,18,0.6,024.59,M,-16.8,M,,*5B
$GPGGA,002720.000,4910.32791,N,12304.20920,W,1,11,0.8,024.59,M,-16.8,M,,*56
$GPGGA,002721.000,4910.32791,N,12304.20920,W,1,16,0.7,024.59,M,-16.8,M,,*5F
$GPGGA,002722.000,4910.32791,N,12304.20920,W,1,20,0.6,024.59,M,-16.8,M,,*58
$GPGGA,002723.000,4910.32791,N,12304.20920,W,1,21,0.6,024.59,M,-16.8,M,,*58
$GPGGA,002724.000,4910.32791,N,12304.20920,W,1,20,0.6,024.59,M,-16.8,M,,*5E
$GPGGA,002725.000,4910.32791,N,12304.20920,W,1,16,0.6,024.59,M,-16.8,M,,*5A
$GPGGA,002726.000,4910.32791,N,12304.20920,W,1,18,0.6,024.59,M,-16.8,M,,*57
$GPGGA,002727.000,4910.32791,N,12304.20920,W,1,18,0.6,024.59,M,-16.8,M,,*56
$GPGGA,002728.000,4910.32791,N,12304.20920,W,1,18,0.6,024.59,M,-16.8,M,,*59
$GPGGA,002729.000,4910.32791,N,12304.20920,W,1,18,0.6,024.59,M,-16.8,M,,*58
$GPGGA,002730.000,4910.32791,N,12304.20920,W,1,18,0.6,024.59,M,-16.8,M,,*50
$GPGGA,002731.000,4910.32791,N,12304.20920,W,1,18,0.6,024.59,M,-16.8,M,,*51
$GPGGA,002732.000,4910.32791,N,12304.20920,W,1,18,0.6,024.59,M,-16.8,M,,*52
$GPGGA,002733.000,4910.32791,N,12304.20920,W,1,20,0.6,024.59,M,-16.8,M,,*58
$GPGGA,002734.000,4910.32791,N,12304.20920,W,1,20,0.6,024.59,M,-16.8,M,,*5F
$GPGGA,002735.000,4910.32791,N,12304.20920,W,1,21,0.6,024.59,M,-16.8,M,,*5F
$GPGGA,002736.000,4910.32791,N,12304.20920,W,1,19,0.6,024.59,M,-16.8,M,,*57
$GPGGA,002737.000,4910.32791,N,12304.20920,W,1,20,0.6,024.59,M,-16.8,M,,*5C
$GPGGA,002738.000,4910.32791,N,12304.20920,W,1,20,0.6,024.59,M,-16.8,M,,*53
$GPGGA,002739.000,4910.32791,N,12304.20920,W,1,20,0.6,024.59,M,-16.8,M,,*52
$GPGGA,002740.000,4910.32791,N,12304.20920,W,1,21,0.6,024.59,M,-16.8,M,,*5D
$GPGGA,002741.000,4910.32791,N,12304.20920,W,1,20,0.6,024.59,M,-16.8,M,,*5D
$GPGGA,002742.000,4910.32791,N,12304.20920,W,1,17,0.6,024.59,M,-16.8,M,,*5A
$GPGGA,002743.000,4910.32791,N,12304.20920,W,1,18,0.6,024.59,M,-16.8,M,,*54
$GPGGA,002744.000,4910.32791,N,12304.20920,W,1,18,0.6,024.59,M,-16.8,M,,*53
$GPGGA,002745.000,4910.32791,N,12304.20920,W,1,18,0.6,024.59,M,-16.8,M,,*52
$GPGGA,002746.000,4910.32791,N,12304.20920,W,1,18,0.6,024.59,M,-16.8,M,,*51
$GPGGA,002747.000,4910.32791,N,12304.20920,W,1,18,0.6,024.59,M,-16.8,M,,*50
$GPGGA,002748.000,4910.32791,N,12304.20920,W,1,20,0.6,024.59,M,-16.8,M,,*54
$GPGGA,002749.000,4910.32791,N,12304.20920,W,1,19,0.6,024.59,M,-16.8,M,,*5F
$GPGGA,002750.000,4910.32791,N,12304.20920,W,1,21,0.6,024.59,M,-16.8,M,,*5C
$GPGGA,002751.000,4910.32791,N,12304.20920,W,1,20,0.6,024.59,M,-16.8,M,,*5C
$GPGGA,002752.000,4910.32791,N,12304.20920,W,1,20,0.6,024.59,M,-16.8,M,,*5F
$GPGGA,002753.000,4910.32791,N,12304.20920,W,1,20,0.6,024.59,M,-16.8,M,,*5E
$GPGGA,002754.000,4910.32791,N,12304.20920,W,1,21,0.6,024.59,M,-16.8,M,,*58
$GPGGA,002755.000,4910.32791,N,12304.20920,W,1,21,0.5,024.59,M,-16.8,M,,*5A
$GPGGA,002756.000,4910.32791,N,12304.20920,W,1,20,0.5,024.59,M,-16.8,M,,*58
$GPGGA,002757.000,4910.32791,N,12304.20920,W,1,20,0.5,024.59,M,-16.8,M,,*59
$GPGGA,002758.000,4910.32791,N,12304.20920,W,1,21,0.5,024.59,M,-16.8,M,,*57
$GPGGA,002759.000,4910.32701,N,12304.20863,W,1,21,0.5,019.66,M,-16.8,M,,*5B
$GPGGA,002800.000,4910.32701,N,12304.20863,W,1,22,0.5,019.66,M,-16.8,M,,*5B
$GPGGA,002801.000,4910.32701,N,12304.20863,W,1,21,0.5,019.66,M,-16.8,M,,*59
$GPGGA,002802.000,4910.32701,N,12304.20863,W,1,21,0.5,019.66,M,-16.8,M,,*5A
$GPGGA,002803.000,4910.32701,N,12304.20863,W,1,22,0.5,019.66,M,-16.8,M,,*58
$GPGGA,002804.000,4910.32701,N,12304.20863,W,1,22,0.5,019.66,M,-16.8,M,,*5F
$GPGGA,002805.000,4910.32701,N,12304.20863,W,1,22,0.5,019.66,M,-16.8,M,,*5E
$GPGGA,002806.000,4910.32701,N,12304.20863,W,1,22,0.5,019.66,M,-16.8,M,,*5D
$GPGGA,002807.000,4910.32701,N,12304.20863,W,1,22,0.5,019.66,M,-16.8,M,,*5C
$GPGGA,002808.000,4910.32701,N,12304.20863,W,1,22,0.5,019.66,M,-16.8,M,,*53
$GPGGA,002809.000,4910.32701,N,12304.20863,W,1,22,0.5,019.66,M,-16.8,M,,*52
$GPGGA,002810.000,4910.32701,N,12304.20863,W,1,22,0.5,019.66,M,-16.8,M,,*5A
$GPGGA,002811.000,4910.32701,N,12304.20863,W,1,22,0.5,019.66,M,-16.8,M,,*5B
$GPGGA,002812.000,4910.32701,N,12304.20863,W,1,22,0.5,019.66,M,-16.8,M,,*58
$GPGGA,002813.000,4910.32701,N,12304.20863,W,1,20,0.5,019.66,M,-16.8,M,,*5B
$GPGGA,002814.000,4910.32701,N,12304.20863,W,1,20,0.6,019.66,M,-16.8,M,,*5F
$GPGGA,002815.000,4910.32701,N,12304.20863,W,1,22,0.5,019.66,M,-16.8,M,,*5F
$GPGGA,002816.000,4910.32701,N,12304.20863,W,1,22,0.5,019.66,M,-16.8,M,,*5C
$GPGGA,002817.000,4910.32701,N,12304.20863,W,1,20,0.5,019.66,M,-16.8,M,,*5F
$GPGGA,002818.000,4910.32701,N,12304.20863,W,1,21,0.5,019.66,M,-16.8,M,,*51
$GPGGA,002819.000,4910.32701,N,12304.20863,W,1,19,0.5,019.66,M,-16.8,M,,*5B
$GPGGA,002820.000,4910.32701,N,12304.20863,W,1,19,0.6,019.66,M,-16.8,M,,*52
$GPGGA,002821.000,4910.32701,N,12304.20863,W,1,19,0.5,019.66,M,-16.8,M,,*50
$GPGGA,002822.000,4910.32701,N,12304.20863,W,1,20,0.5,019.66,M,-16.8,M,,*59
$GPGGA,002823.000,4910.32701,N,12304.20863,W,1,13,0.6,019.66,M,-16.8,M,,*5B
$GPGGA,002824.000,4910.32701,N,12304.20863,W,1,19,0.5,019.66,M,-16.8,M,,*55
$GPGGA,002825.000,4910.32701,N,12304.20863,W,1,19,0.5,019.66,M,-16.8,M,,*54
$GPGGA,002826.000,4910.32701,N,12304.20863,W,1,19,0.5,019.66,M,-16.8,M,,*57
$GPGGA,002827.000,4910.32701,N,12304.20863,W,1,19,0.5,019.66,M,-16.8,M,,*56
$GPGGA,002828.000,4910.32701,N,12304.20863,W,1,19,0.5,019.66,M,-16.8,M,,*59
$GPGGA,002829.000,4910.32701,N,12304.20863,W,1,19,0.5,019.66,M,-16.8,M,,*58
$GPGGA,002830.000,4910.32701,N,12304.20863,W,1,21,0.5,019.66,M,-16.8,M,,*5B
$GPGGA,002831.000,4910.32701,N,12304.20863,W,1,20,0.5,019.66,M,-16.8,M,,*5B
$GPGGA,002832.000,4910.32701,N,12304.20863,W,1,20,0.5,019.66,M,-16.8,M,,*58
$GPGGA,002833.000,4910.32701,N,12304.20863,W,1,19,0.6,019.66,M,-16.8,M,,*50
$GPGGA,002834.000,4910.32701,N,12304.20863,W,1,21,0.5,019.66,M,-16.8,M,,*5F
$GPGGA,002835.000,4910.32701,N,12304.20863,W,1,21,0.5,019.66,M,-16.8,M,,*5E
$GPGGA,002836.000,4910.32701,N,12304.20863,W,1,21,0.5,019.66,M,-16.8,M,,*5D
$GPGGA,002837.000,4910.32701,N,12304.20863,W,1,20,0.5,019.66,M,-16.8,M,,*5D
$GPGGA,002838.000,4910.32701,N,12304.20863,W,1,20,0.5,019.66,M,-16.8,M,,*52
$GPGGA,002839.000,4910.32732,N,12304.20853,W,1,18,0.5,020.11,M,-16.8,M,,*51
$GPGGA,002840.000,4910.32732,N,12304.20853,W,1,18,0.5,020.11,M,-16.8,M,,*5F
$GPGGA,002841.000,4910.32732,N,12304.20853,W,1,18,0.5,020.11,M,-16.8,M,,*5E
$GPGGA,002842.000,4910.32732,N,12304.20853,W,1,18,0.5,020.11,M,-16.8,M,,*5D
$GPGGA,002843.000,4910.32732,N,12304.20853,W,1,19,0.5,020.11,M,-16.8,M,,*5D
$GPGGA,002844.000,4910.32732,N,12304.20853,W,1,19,0.5,020.11,M,-16.8,M,,*5A
$GPGGA,002845.000,4910.32732,N,12304.20853,W,1,19,0.5,020.11,M,-16.8,M,,*5B
$GPGGA,002846.000,4910.32732,N,12304.20853,W,1,18,0.5,020.11,M,-16.8,M,,*59
$GPGGA,002847.000,4910.32732,N,12304.20853,W,1,19,0.5,020.11,M,-16.8,M,,*59
$GPGGA,002848.000,4910.32732,N,12304.20853,W,1,18,0.5,020.11,M,-16.8,M,,*57
$GPGGA,002849.000,4910.32732,N,12304.20853,W,1,19,0.5,020.11,M,-16.8,M,,*57
$GPGGA,002850.000,4910.32732,N,12304.20853,W,1,21,0.5,020.11,M,-16.8,M,,*54
$GPGGA,002851.000,4910.32732,N,12304.20853,W,1,21,0.5,020.11,M,-16.8,M,,*55
$GPGGA,002852.000,4910.32732,N,12304.20853,W,1,20,0.5,020.11,M,-16.8,M,,*57
$GPGGA,002853.000,4910.32732,N,12304.20853,W,1,21,0.5,020.11,M,-16.8,M,,*57
$GPGGA,002854.000,4910.32732,N,12304.20853,W,1,20,0.5,020.11,M,-16.8,M,,*51
$GPGGA,002855.000,4910.32732,N,12304.20853,W,1,20,0.5,020.11,M,-16.8,M,,*50
$GPGGA,002856.000,4910.32732,N,12304.20853,W,1,20,0.5,020.11,M,-16.8,M,,*53
$GPGGA,002857.000,4910.32732,N,12304.20853,W,1,19,0.6,020.11,M,-16.8,M,,*5B
$GPGGA,002858.000,4910.32732,N,12304.20853,W,1,21,0.5,020.11,M,-16.8,M,,*5C
$GPGGA,002859.000,4910.32732,N,12304.20853,W,1,19,0.6,020.11,M,-16.8,M,,*55
$GPGGA,002900.000,4910.32732,N,12304.20853,W,1,20,0.6,020.11,M,-16.8,M,,*52
$GPGGA,002901.000,4910.32732,N,12304.20853,W,1,20,0.6,020.11,M,-16.8,M,,*53
$GPGGA,002902.000,4910.32732,N,12304.20853,W,1,20,0.6,020.11,M,-16.8,M,,*50
$GPGGA,002903.000,4910.32732,N,12304.20853,W,1,20,0.6,020.11,M,-16.8,M,,*51
$GPGGA,002904.000,4910.32732,N,12304.20853,W,1,19,0.6,020.11,M,-16.8,M,,*5C
$GPGGA,002905.000,4910.32732,N,12304.20853,W,1,18,0.6,020.11,M,-16.8,M,,*5C
$GPGGA,002906.000,4910.32732,N,12304.20853,W,1,20,0.6,020.11,M,-16.8,M,,*54
$GPGGA,002907.000,4910.32732,N,12304.20853,W,1,20,0.6,020.11,M,-16.8,M,,*55
$GPGGA,002908.000,4910.32732,N,12304.20853,W,1,19,0.6,020.11,M,-16.8,M,,*50
$GPGGA,002909.000,4910.32732,N,12304.20853,W,1,20,0.6,020.11,M,-16.8,M,,*5B
$GPGGA,002910.000,4910.32732,N,12304.20853,W,1,20,0.6,020.11,M,-16.8,M,,*53
$GPGGA,002911.000,4910.32732,N,12304.20853,W,1,20,0.6,020.11,M,-16.8,M,,*52
$GPGGA,002912.000,4910.32732,N,12304.20853,W,1,20,0.6,020.11,M,-16.8,M,,*51
$GPGGA,002913.000,4910.32732,N,12304.20853,W,1,19,0.6,020.11,M,-16.8,M,,*5A
$GPGGA,002914.000,4910.32732,N,12304.20853,W,1,19,0.6,020.11,M,-16.8,M,,*5D
$GPGGA,002915.000,4910.32732,N,12304.20853,W,1,19,0.6,020.11,M,-16.8,M,,*5C
$GPGGA,002916.000,4910.32732,N,12304.20853,W,1,20,0.6,020.11,M,-16.8,M,,*55
$GPGGA,002917.000,4910.32732,N,12304.20853,W,1,20,0.6,020.11,M,-16.8,M,,*54
$GPGGA,002918.000,4910.32732,N,12304.20853,W,1,20,0.6,020.11,M,-16.8,M,,*5B
$GPGGA,002919.000,4910.32673,N,12304.20812,W,1,20,0.6,019.58,M,-16.8,M,,*5C
$GPGGA,002920.000,4910.32673,N,12304.20812,W,1,20,0.6,019.58,M,-16.8,M,,*56
$GPGGA,002921.000,4910.32673,N,12304.20812,W,1,20,0.6,019.58,M,-16.8,M,,*57
$GPGGA,002922.000,4910.32673,N,12304.20812,W,1,21,0.6,019.58,M,-16.8,M,,*55
$GPGGA,002923.000,4910.32673,N,12304.20812,W,1,20,0.6,019.58,M,-16.8,M,,*55
$GPGGA,002924.000,4910.32673,N,12304.20812,W,1,21,0.6,019.58,M,-16.8,M,,*53
$GPGGA,002925.000,4910.32673,N,12304.20812,W,1,21,0.6,019.58,M,-16.8,M,,*52
$GPGGA,002926.000,4910.32673,N,12304.20812,W,1,20,0.6,019.58,M,-16.8,M,,*50
$GPGGA,002927.000,4910.32673,N,12304.20812,W,1,21,0.6,019.58,M,-16.8,M,,*50
$GPGGA,002928.000,4910.32673,N,12304.20812,W,1,21,0.6,019.58,M,-16.8,M,,*5F
$GPGGA,002929.000,4910.32673,N,12304.20812,W,1,21,0.6,019.58,M,-16.8,M,,*5E
$GPGGA,002930.000,4910.32673,N,12304.20812,W,1,18,0.6,019.58,M,-16.8,M,,*5C
$GPGGA,002931.000,4910.32673,N,12304.20812,W,1,17,0.6,019.58,M,-16.8,M,,*52
$GPGGA,002932.000,4910.32673,N,12304.20812,W,1,16,0.6,019.58,M,-16.8,M,,*50
$GPGGA,002933.000,4910.32673,N,12304.20812,W,1,17,0.6,019.58,M,-16.8,M,,*50
$GPGGA,002934.000,4910.32673,N,12304.20812,W,1,20,0.6,019.58,M,-16.8,M,,*53
$GPGGA,002935.000,4910.32673,N,12304.20812,W,1,18,0.6,019.58,M,-16.8,M,,*59
$GPGGA,002936.000,4910.32673,N,12304.20812,W,1,20,0.6,019.58,M,-16.8,M,,*51
$GPGGA,002937.000,4910.32673,N,12304.20812,W,1,20,0.6,019.58,M,-16.8,M,,*50
$GPGGA,002938.000,4910.32673,N,12304.20812,W,1,19,0.6,019.58,M,-16.8,M,,*55
$GPGGA,002939.000,4910.32673,N,12304.20812,W,1,20,0.6,019.58,M,-16.8,M,,*5E
$GPGGA,002940.000,4910.32673,N,12304.20812,W,1,17,0.6,019.58,M,-16.8,M,,*54
$GPGGA,002941.000,4910.32673,N,12304.20812,W,1,19,0.6,019.58,M,-16.8,M,,*5B
$GPGGA,002942.000,4910.32673,N,12304.20812,W,1,18,0.6,019.58,M,-16.8,M,,*59
$GPGGA,002943.000,4910.32673,N,12304.20812,W,1,19,0.6,019.58,M,-16.8,M,,*59
$GPGGA,002944.000,4910.32673,N,12304.20812,W,1,19,0.6,019.58,M,-16.8,M,,*5E
$GPGGA,002945.000,4910.32673,N,12304.20812,W,1,18,0.6,019.58,M,-16.8,M,,*5E
$GPGGA,002946.000,4910.32673,N,12304.20812,W,1,17,0.6,019.58,M,-16.8,M,,*52
$GPGGA,002947.000,4910.32673,N,12304.20812,W,1,20,0.6,019.58,M,-16.8,M,,*57
$GPGGA,002948.000,4910.32673,N,12304.20812,W,1,18,0.6,019.58,M,-16.8,M,,*53
$GPGGA,002949.000,4910.32673,N,12304.20812,W,1,18,0.6,019.58,M,-16.8,M,,*52
$GPGGA,002950.000,4910.32673,N,12304.20812,W,1,16,0.6,019.58,M,-16.8,M,,*54
$GPGGA,002951.000,4910.32673,N,12304.20812,W,1,17,0.5,019.58,M,-16.8,M,,*57
$GPGGA,002952.000,4910.32673,N,12304.20812,W,1,19,0.5,019.58,M,-16.8,M,,*5A
$GPGGA,002953.000,4910.32673,N,12304.20812,W,1,20,0.6,019.58,M,-16.8,M,,*52
$GPGGA,002954.000,4910.32673,N,12304.20812,W,1,22,0.5,019.58,M,-16.8,M,,*54
$GPGGA,002955.000,4910.32673,N,12304.20812,W,1,22,0.5,019.58,M,-16.8,M,,*55
$GPGGA,002956.000,4910.32673,N,12304.20812,W,1,20,0.5,019.58,M,-16.8,M,,*54
$GPGGA,002957.000,4910.32673,N,12304.20812,W,1,21,0.5,019.58,M,-16.8,M,,*54
$GPGGA,002958.000,4910.32673,N,12304.20812,W,1,21,0.5,019.58,M,-16.8,M,,*5B
$GPGGA,002959.000,4910.32629,N,12304.20780,W,1,21,0.5,019.14,M,-16.8,M,,*59
$GPGGA,003000.000,4910.32629,N,12304.20780,W,1,21,0.5,019.14,M,-16.8,M,,*5D
$GPGGA,003001.000,4910.32629,N,12304.20780,W,1,20,0.5,019.14,M,-16.8,M,,*5D
$GPGGA,003002.000,4910.32629,N,12304.20780,W,1,19,0.6,019.14,M,-16.8,M,,*57
$GPGGA,003003.000,4910.32629,N,12304.20780,W,1,20,0.5,019.14,M,-16.8,M,,*5F
$GPGGA,003004.000,4910.32629,N,12304.20780,W,1,20,0.5,019.14,M,-16.8,M,,*58
$GPGGA,003005.000,4910.32629,N,12304.20780,W,1,20,0.6,019.14,M,-16.8,M,,*5A
$GPGGA,003006.000,4910.32629,N,12304.20780,W,1,20,0.6,019.14,M,-16.8,M,,*59
$GPGGA,003007.000,4910.32629,N,12304.20780,W,1,20,0.6,019.14,M,-16.8,M,,*58
$GPGGA,003008.000,4910.32629,N,12304.20780,W,1,20,0.5,019.14,M,-16.8,M,,*54
$GPGGA,003009.000,4910.32629,N,12304.20780,W,1,21,0.5,019.14,M,-16.8,M,,*54
$GPGGA,003010.000,4910.32629,N,12304.20780,W,1,20,0.5,019.14,M,-16.8,M,,*5D
$GPGGA,003011.000,4910.32629,N,12304.20780,W,1,20,0.5,019.14,M,-16.8,M,,*5C
$GPGGA,003012.000,4910.32629,N,12304.20780,W,1,19,0.5,019.14,M,-16.8,M,,*55
$GPGGA,003013.000,4910.32629,N,12304.20780,W,1,19,0.5,019.14,M,-16.8,M,,*54
$GPGGA,003014.000,4910.32629,N,12304.20780,W,1,17,0.6,019.14,M,-16.8,M,,*5E
$GPGGA,003015.000,4910.32629,N,12304.20780,W,1,19,0.5,019.14,M,-16.8,M,,*52
$GPGGA,003016.000,4910.32629,N,12304.20780,W,1,18,0.6,019.14,M,-16.8,M,,*53
$GPGGA,003017.000,4910.32629,N,12304.20780,W,1,18,0.6,019.14,M,-16.8,M,,*52
$GPGGA,003018.000,4910.32629,N,12304.20780,W,1,18,0.6,019.14,M,-16.8,M,,*5D
$GPGGA,003019.000,4910.32629,N,12304.20780,W,1,17,0.6,019.14,M,-16.8,M,,*53
$GPGGA,003020.000,4910.32629,N,12304.20780,W,1,17,0.6,019.14,M,-16.8,M,,*59
$GPGGA,003021.000,4910.32629,N,12304.20780,W,1,17,0.6,019.14,M,-16.8,M,,*58
$GPGGA,003022.000,4910.32629,N,12304.20780,W,1,19,0.6,019.14,M,-16.8,M,,*55
$GPGGA,003023.000,4910.32629,N,12304.20780,W,1,19,0.6,019.14,M,-16.8,M,,*54
$GPGGA,003024.000,4910.32629,N,12304.20780,W,1,19,0.6,019.14,M,-16.8,M,,*53
$GPGGA,003025.000,4910.32629,N,12304.20780,W,1,19,0.6,019.14,M,-16.8,M,,*52
$GPGGA,003026.000,4910.32629,N,12304.20780,W,1,18,0.6,019.14,M,-16.8,M,,*50
$GPGGA,003027.000,4910.32629,N,12304.20780,W,1,18,0.6,019.14,M,-16.8,M,,*51
$GPGGA,003028.000,4910.32629,N,12304.20780,W,1,17,0.6,019.14,M,-16.8,M,,*51
$GPGGA,003029.000,4910.32629,N,12304.20780,W,1,19,0.6,019.14,M,-16.8,M,,*5E
$GPGGA,003030.000,4910.32629,N,12304.20780,W,1,18,0.6,019.14,M,-16.8,M,,*57
$GPGGA,003031.000,4910.32629,N,12304.20780,W,1,18,0.6,019.14,M,-16.8,M,,*56
$GPGGA,003032.000,4910.32629,N,12304.20780,W,1,17,0.6,019.14,M,-16.8,M,,*5A
$GPGGA,003033.000,4910.32629,N,12304.20780,W,1,18,0.6,019.14,M,-16.8,M,,*54
$GPGGA,003034.000,4910.32629,N,12304.20780,W,1,17,0.6,019.14,M,-16.8,M,,*5C
$GPGGA,003035.000,4910.32629,N,12304.20780,W,1,18,0.6,019.14,M,-16.8,M,,*52
$GPGGA,003036.000,4910.32629,N,12304.20780,W,1,17,0.6,019.14,M,-16.8,M,,*5E
$GPGGA,003037.000,4910.32629,N,12304.20780,W,1,17,0.6,019.14,M,-16.8,M,,*5F
$GPGGA,003038.000,4910.32629,N,12304.20780,W,1,17,0.6,019.14,M,-16.8,M,,*50
$GPGGA,003039.000,4910.32654,N,12304.20749,W,1,17,0.6,016.69,M,-16.8,M,,*5B
$GPGGA,003040.000,4910.32654,N,12304.20749,W,1,16,0.6,016.69,M,-16.8,M,,*54
$GPGGA,003041.000,4910.32654,N,12304.20749,W,1,17,0.6,016.69,M,-16.8,M,,*54
$GPGGA,003042.000,4910.32654,N,12304.20749,W,1,17,0.6,016.69,M,-16.8,M,,*57
$GPGGA,003043.000,4910.32654,N,12304.20749,W,1,17,0.6,016.69,M,-16.8,M,,*56
$GPGGA,003044.000,4910.32654,N,12304.20749,W,1,16,0.6,016.69,M,-16.8,M,,*50
$GPGGA,003045.000,4910.32654,N,12304.20749,W,1,15,0.6,016.69,M,-16.8,M,,*52
$GPGGA,003046.000,4910.32654,N,12304.20749,W,1,16,0.6,016.69,M,-16.8,M,,*52
$GPGGA,003047.000,4910.32654,N,12304.20749,W,1,17,0.6,016.69,M,-16.8,M,,*52
$GPGGA,003048.000,4910.32654,N,12304.20749,W,1,16,0.6,016.69,M,-16.8,M,,*5C
$GPGGA,003049.000,4910.32654,N,12304.20749,W,1,15,0.6,016.69,M,-16.8,M,,*5E
$GPGGA,003050.000,4910.32654,N,12304.20749,W,1,16,0.6,016.69,M,-16.8,M,,*55
$GPGGA,003051.000,4910.32654,N,12304.20749,W,1,17,0.6,016.69,M,-16.8,M,,*55
$GPGGA,003052.000,4910.32654,N,12304.20749,W,1,17,0.6,016.69,M,-16.8,M,,*56
$GPGGA,003053.000,4910.32654,N,12304.20749,W,1,18,0.6,016.69,M,-16.8,M,,*58
$GPGGA,003054.000,4910.32654,N,12304.20749,W,1,19,0.6,016.69,M,-16.8,M,,*5E
$GPGGA,003055.000,4910.32654,N,12304.20749,W,1,20,0.6,016.69,M,-16.8,M,,*55
$GPGGA,003056.000,4910.32654,N,12304.20749,W,1,19,0.6,016.69,M,-16.8,M,,*5C
$GPGGA,003057.000,4910.32654,N,12304.20749,W,1,20,0.6,016.69,M,-16.8,M,,*57
$GPGGA,003058.000,4910.32654,N,12304.20749,W,1,20,0.6,016.69,M,-16.8,M,,*58
$GPGGA,003059.000,4910.32654,N,12304.20749,W,1,19,0.6,016.69,M,-16.8,M,,*53
$GPGGA,003100.000,4910.32654,N,12304.20749,W,1,20,0.6,016.69,M,-16.8,M,,*54
$GPGGA,003101.000,4910.32654,N,12304.20749,W,1,20,0.6,016.69,M,-16.8,M,,*55
$GPGGA,003102.000,4910.32654,N,12304.20749,W,1,19,0.6,016.69,M,-16.8,M,,*5C
$GPGGA,003103.000,4910.32654,N,12304.20749,W,1,21,0.5,016.69,M,-16.8,M,,*55
$GPGGA,003104.000,4910.32654,N,12304.20749,W,1,21,0.5,016.69,M,-16.8,M,,*52
$GPGGA,003105.000,4910.32654,N,12304.20749,W,1,20,0.5,016.69,M,-16.8,M,,*52
$GPGGA,003106.000,4910.32654,N,12304.20749,W,1,20,0.5,016.69,M,-16.8,M,,*51
$GPGGA,003107.000,4910.32654,N,12304.20749,W,1,20,0.5,016.69,M,-16.8,M,,*50
$GPGGA,003108.000,4910.32654,N,12304.20749,W,1,20,0.5,016.69,M,-16.8,M,,*5F
$GPGGA,003109.000,4910.32654,N,12304.20749,W,1,20,0.5,016.69,M,-16.8,M,,*5E
$GPGGA,003110.000,4910.32654,N,12304.20749,W,1,20,0.5,016.69,M,-16.8,M,,*56
$GPGGA,003111.000,4910.32654,N,12304.20749,W,1,20,0.5,016.69,M,-16.8,M,,*57
$GPGGA,003112.000,4910.32654,N,12304.20749,W,1,19,0.5,016.69,M,-16.8,M,,*5E
$GPGGA,003113.000,4910.32654,N,12304.20749,W,1,21,0.5,016.69,M,-16.8,M,,*54
$GPGGA,003114.000,4910.32654,N,12304.20749,W,1,22,0.5,016.69,M,-16.8,M,,*50
$GPGGA,003115.000,4910.32654,N,12304.20749,W,1,22,0.5,016.69,M,-16.8,M,,*51
$GPGGA,003116.000,4910.32654,N,12304.20749,W,1,22,0.5,016.69,M,-16.8,M,,*52
$GPGGA,003117.000,4910.32654,N,12304.20749,W,1,22,0.5,016.69,M,-16.8,M,,*53
$GPGGA,003118.000,4910.32654,N,12304.20749,W,1,21,0.5,016.69,M,-16.8,M,,*5F
$GPGGA,003119.000,4910.32627,N,12304.20751,W,1,19,0.5,015.71,M,-16.8,M,,*52
$GPGGA,003120.000,4910.32627,N,12304.20751,W,1,22,0.5,015.71,M,-16.8,M,,*50
$GPGGA,003121.000,4910.32627,N,12304.20751,W,1,21,0.5,015.71,M,-16.8,M,,*52
$GPGGA,003122.000,4910.32627,N,12304.20751,W,1,22,0.5,015.71,M,-16.8,M,,*52
$GPGGA,003123.000,4910.32627,N,12304.20751,W,1,21,0.5,015.71,M,-16.8,M,,*50
$GPGGA,003124.000,4910.32627,N,12304.20751,W,1,21,0.5,015.71,M,-16.8,M,,*57
$GPGGA,003125.000,4910.32627,N,12304.20751,W,1,21,0.5,015.71,M,-16.8,M,,*56
$GPGGA,003126.000,4910.32627,N,12304.20751,W,1,21,0.5,015.71,M,-16.8,M,,*55
$GPGGA,003127.000,4910.32627,N,12304.20751,W,1,21,0.5,015.71,M,-16.8,M,,*54
$GPGGA,003128.000,4910.32627,N,12304.20751,W,1,22,0.5,015.71,M,-16.8,M,,*58
$GPGGA,003129.000,4910.32627,N,12304.20751,W,1,21,0.5,015.71,M,-16.8,M,,*5A
$GPGGA,003130.000,4910.32627,N,12304.20751,W,1,21,0.5,015.71,M,-16.8,M,,*52
$GPGGA,003131.000,4910.32627,N,12304.20751,W,1,21,0.5,015.71,M,-16.8,M,,*53
$GPGGA,003132.000,4910.32627,N,12304.20751,W,1,21,0.5,015.71,M,-16.8,M,,*50
$GPGGA,003133.000,4910.32627,N,12304.20751,W,1,22,0.5,015.71,M,-16.8,M,,*52
$GPGGA,003134.000,4910.32627,N,12304.20751,W,1,22,0.5,015.71,M,-16.8,M,,*55
$GPGGA,003135.000,4910.32627,N,12304.20751,W,1,22,0.5,015.71,M,-16.8,M,,*54
$GPGGA,003136.000,4910.32627,N,12304.20751,W,1,20,0.5,015.71,M,-16.8,M,,*55
$GPGGA,003137.000,4910.32627,N,12304.20751,W,1,21,0.5,015.71,M,-16.8,M,,*55
$GPGGA,003138.000,4910.32627,N,12304.20751,W,1,20,0.5,015.71,M,-16.8,M,,*5B
$GPGGA,003139.000,4910.32627,N,12304.20751,W,1,21,0.5,015.71,M,-16.8,M,,*5B
$GPGGA,003140.000,4910.32627,N,12304.20751,W,1,21,0.5,015.71,M,-16.8,M,,*55
$GPGGA,003141.000,4910.32627,N,12304.20751,W,1,21,0.5,015.71,M,-16.8,M,,*54
$GPGGA,003142.000,4910.32627,N,12304.20751,W,1,21,0.5,015.71,M,-16.8,M,,*57
$GPGGA,003143.000,4910.32627,N,12304.20751,W,1,20,0.5,015.71,M,-16.8,M,,*57
$GPGGA,003144.000,4910.32627,N,12304.20751,W,1,20,0.5,015.71,M,-16.8,M,,*50
$GPGGA,003145.000,4910.32627,N,12304.20751,W,1,20,0.5,015.71,M,-16.8,M,,*51
$GPGGA,003146.000,4910.32627,N,12304.20751,W,1,22,0.5,015.71,M,-16.8,M,,*50
$GPGGA,003147.000,4910.32627,N,12304.20751,W,1,22,0.5,015.71,M,-16.8,M,,*51
$GPGGA,003148.000,4910.32627,N,12304.20751,W,1,22,0.5,015.71,M,-16.8,M,,*5E
$GPGGA,003149.000,4910.32627,N,12304.20751,W,1,22,0.5,015.71,M,-16.8,M,,*5F
$GPGGA,003150.000,4910.32627,N,12304.20751,W,1,21,0.5,015.71,M,-16.8,M,,*54
$GPGGA,003151.000,4910.32627,N,12304.20751,W,1,20,0.5,015.71,M,-16.8,M,,*54
$GPGGA,003152.000,4910.32627,N,12304.20751,W,1,21,0.5,015.71,M,-16.8,M,,*56
$GPGGA,003153.000,4910.32627,N,12304.20751,W,1,20,0.5,015.71,M,-16.8,M,,*56
$GPGGA,003154.000,4910.32627,N,12304.20751,W,1,21,0.5,015.71,M,-16.8,M,,*50
$GPGGA,003155.000,4910.32627,N,12304.20751,W,1,20,0.5,015.71,M,-16.8,M,,*50
$GPGGA,003156.000,4910.32627,N,12304.20751,W,1,21,0.5,015.71,M,-16.8,M,,*52
$GPGGA,003157.000,4910.32627,N,12304.20751,W,1,21,0.5,015.71,M,-16.8,M,,*53
$GPGGA,003158.000,4910.32627,N,12304.20751,W,1,21,0.5,015.71,M,-16.8,M,,*5C
$GPGGA,003159.000,4910.32635,N,12304.20759,W,1,20,0.5,015.37,M,-16.8,M,,*55
$GPGGA,003200.000,4910.32635,N,12304.20759,W,1,21,0.5,015.37,M,-16.8,M,,*5B
$GPGGA,003201.000,4910.32635,N,12304.20759,W,1,21,0.5,015.37,M,-16.8,M,,*5A
$GPGGA,003202.000,4910.32635,N,12304.20759,W,1,21,0.5,015.37,M,-16.8,M,,*59
$GPGGA,003203.000,4910.32635,N,12304.20759,W,1,21,0.5,015.37,M,-16.8,M,,*58
$GPGGA,003204.000,4910.32635,N,12304.20759,W,1,21,0.5,015.37,M,-16.8,M,,*5F
$GPGGA,003205.000,4910.32635,N,12304.20759,W,1,21,0.5,015.37,M,-16.8,M,,*5E
$GPGGA,003206.000,4910.32635,N,12304.20759,W,1,21,0.5,015.37,M,-16.8,M,,*5D
$GPGGA,003207.000,4910.32635,N,12304.20759,W,1,20,0.5,015.37,M,-16.8,M,,*5D
$GPGGA,003208.000,4910.32635,N,12304.20759,W,1,21,0.5,015.37,M,-16.8,M,,*53
$GPGGA,003209.000,4910.32635,N,12304.20759,W,1,20,0.5,015.37,M,-16.8,M,,*53
$GPGGA,003210.000,4910.32635,N,12304.20759,W,1,21,0.5,015.37,M,-16.8,M,,*5A
$GPGGA,003211.000,4910.32635,N,12304.20759,W,1,21,0.5,015.37,M,-16.8,M,,*5B
$GPGGA,003212.000,4910.32635,N,12304.20759,W,1,21,0.5,015.37,M,-16.8,M,,*58
$GPGGA,003213.000,4910.32635,N,12304.20759,W,1,20,0.5,015.37,M,-16.8,M,,*58
$GPGGA,003214.000,4910.32635,N,12304.20759,W,1,21,0.5,015.37,M,-16.8,M,,*5E
$GPGGA,003215.000,4910.32635,N,12304.20759,W,1,21,0.6,015.37,M,-16.8,M,,*5C
$GPGGA,003216.000,4910.32635,N,12304.20759,W,1,21,0.6,015.37,M,-16.8,M,,*5F
$GPGGA,003217.000,4910.32635,N,12304.20759,W,1,22,0.5,015.37,M,-16.8,M,,*5E
$GPGGA,003218.000,4910.32635,N,12304.20759,W,1,21,0.5,015.37,M,-16.8,M,,*52
$GPGGA,003219.000,4910.32635,N,12304.20759,W,1,21,0.5,015.37,M,-16.8,M,,*53
$GPGGA,003220.000,4910.32635,N,12304.20759,W,1,20,0.5,015.37,M,-16.8,M,,*58
$GPGGA,003221.000,4910.32635,N,12304.20759,W,1,19,0.6,015.37,M,-16.8,M,,*50
$GPGGA,003222.000,4910.32635,N,12304.20759,W,1,19,0.6,015.37,M,-16.8,M,,*53
$GPGGA,003223.000,4910.32635,N,12304.20759,W,1,18,0.6,015.37,M,-16.8,M,,*53
$GPGGA,003224.000,4910.32635,N,12304.20759,W,1,19,0.6,015.37,M,-16.8,M,,*55
$GPGGA,003225.000,4910.32635,N,12304.20759,W,1,19,0.6,015.37,M,-16.8,M,,*54
$GPGGA,003226.000,4910.32635,N,12304.20759,W,1,19,0.6,015.37,M,-16.8,M,,*57
$GPGGA,003227.000,4910.32635,N,12304.20759,W,1,19,0.6,015.37,M,-16.8,M,,*56
$GPGGA,003228.000,4910.32635,N,12304.20759,W,1,19,0.6,015.37,M,-16.8,M,,*59
$GPGGA,003229.000,4910.32635,N,12304.20759,W,1,19,0.6,015.37,M,-16.8,M,,*58
$GPGGA,003230.000,4910.32635,N,12304.20759,W,1,18,0.6,015.37,M,-16.8,M,,*51
$GPGGA,003231.000,4910.32635,N,12304.20759,W,1,19,0.6,015.37,M,-16.8,M,,*51
$GPGGA,003232.000,4910.32635,N,12304.20759,W,1,19,0.6,015.37,M,-16.8,M,,*52
$GPGGA,003233.000,4910.32635,N,12304.20759,W,1,19,0.6,015.37,M,-16.8,M,,*53
$GPGGA,003234.000,4910.32635,N,12304.20759,W,1,19,0.6,015.37,M,-16.8,M,,*54
$GPGGA,003235.000,4910.32635,N,12304.20759,W,1,20,0.6,015.37,M,-16.8,M,,*5F
$GPGGA,003236.000,4910.32635,N,12304.20759,W,1,19,0.6,015.37,M,-16.8,M,,*56
$GPGGA,003237.000,4910.32635,N,12304.20759,W,1,20,0.6,015.37,M,-16.8,M,,*5D
$GPGGA,003238.000,4910.32635,N,12304.20759,W,1,20,0.6,015.37,M,-16.8,M,,*52
$GPGGA,003239.000,4910.32609,N,12304.20721,W,1,20,0.6,014.75,M,-16.8,M,,*54
$GPGGA,003240.000,4910.32609,N,12304.20721,W,1,20,0.6,014.75,M,-16.8,M,,*5A
$GPGGA,003241.000,4910.32609,N,12304.20721,W,1,18,0.6,014.75,M,-16.8,M,,*50
$GPGGA,003242.000,4910.32609,N,12304.20721,W,1,19,0.6,014.75,M,-16.8,M,,*52
$GPGGA,003243.000,4910.32609,N,12304.20721,W,1,20,0.6,014.75,M,-16.8,M,,*59
$GPGGA,003244.000,4910.32609,N,12304.20721,W,1,19,0.6,014.75,M,-16.8,M,,*54
$GPGGA,003245.000,4910.32609,N,12304.20721,W,1,20,0.6,014.75,M,-16.8,M,,*5F
$GPGGA,003246.000,4910.32609,N,12304.20721,W,1,20,0.6,014.75,M,-16.8,M,,*5C
$GPGGA,003247.000,4910.32609,N,12304.20721,W,1,20,0.6,014.75,M,-16.8,M,,*5D
$GPGGA,003248.000,4910.32609,N,12304.20721,W,1,20,0.6,014.75,M,-16.8,M,,*52
$GPGGA,003249.000,4910.32609,N,12304.20721,W,1,20,0.6,014.75,M,-16.8,M,,*53
$GPGGA,003250.000,4910.32609,N,12304.20721,W,1,20,0.6,014.75,M,-16.8,M,,*5B
$GPGGA,003251.000,4910.32609,N,12304.20721,W,1,20,0.6,014.75,M,-16.8,M,,*5A
$GPGGA,003252.000,4910.32609,N,12304.20721,W,1,19,0.6,014.75,M,-16.8,M,,*53
$GPGGA,003253.000,4910.32609,N,12304.20721,W,1,20,0.6,014.75,M,-16.8,M,,*58
$GPGGA,003254.000,4910.32609,N,12304.20721,W,1,20,0.6,014.75,M,-16.8,M,,*5F
$GPGGA,003255.000,4910.32609,N,12304.20721,W,1,20,0.6,014.75,M,-16.8,M,,*5E
$GPGGA,003256.000,4910.32609,N,12304.20721,W,1,20,0.6,014.75,M,-16.8,M,,*5D
$GPGGA,003257.000,4910.32609,N,12304.20721,W,1,20,0.6,014.75,M,-16.8,M,,*5C
$GPGGA,003258.000,4910.32609,N,12304.20721,W,1,19,0.6,014.75,M,-16.8,M,,*59
$GPGGA,003259.000,4910.32609,N,12304.20721,W,1,20,0.6,014.75,M,-16.8,M,,*52
$GPGGA,003300.000,4910.32609,N,12304.20721,W,1,19,0.6,014.75,M,-16.8,M,,*55
$GPGGA,003301.000,4910.32609,N,12304.20721,W,1,20,0.6,014.75,M,-16.8,M,,*5E
$GPGGA,003302.000,4910.32609,N,12304.20721,W,1,20,0.6,014.75,M,-16.8,M,,*5D
$GPGGA,003303.000,4910.32609,N,12304.20721,W,1,19,0.6,014.75,M,-16.8,M,,*56
$GPGGA,003304.000,4910.32609,N,12304.20721,W,1,20,0.6,014.75,M,-16.8,M,,*5B
$GPGGA,003305.000,4910.32609,N,12304.20721,W,1,20,0.6,014.75,M,-16.8,M,,*5A
$GPGGA,003306.000,4910.32609,N,12304.20721,W,1,20,0.6,014.75,M,-16.8,M,,*59
$GPGGA,003307.000,4910.32609,N,12304.20721,W,1,20,0.6,014.75,M,-16.8,M,,*58
$GPGGA,003308.000,4910.32609,N,12304.20721,W,1,19,0.6,014.75,M,-16.8,M,,*5D
$GPGGA,003309.000,4910.32609,N,12304.20721,W,1,20,0.6,014.75,M,-16.8,M,,*56
$GPGGA,003310.000,4910.32609,N,12304.20721,W,1,20,0.6,014.75,M,-16.8,M,,*5E
$GPGGA,003311.000,4910.32609,N,12304.20721,W,1,20,0.6,014.75,M,-16.8,M,,*5F
$GPGGA,003312.000,4910.32609,N,12304.20721,W,1,19,0.6,014.75,M,-16.8,M,,*56
$GPGGA,003313.000,4910.32609,N,12304.20721,W,1,19,0.6,014.75,M,-16.8,M,,*57
$GPGGA,003314.000,4910.32609,N,12304.20721,W,1,19,0.6,014.75,M,-16.8,M,,*50
$GPGGA,003315.000,4910.32609,N,12304.20721,W,1,19,0.6,014.75,M,-16.8,M,,*51
$GPGGA,003316.000,4910.32609,N,12304.20721,W,1,19,0.6,014.75,M,-16.8,M,,*52
$GPGGA,003317.000,4910.32609,N,12304.20721,W,1,19,0.6,014.75,M,-16.8,M,,*53
$GPGGA,003318.000,4910.32609,N,12304.20721,W,1,18,0.6,014.75,M,-16.8,M,,*5D
$GPGGA,003319.000,4910.32605,N,12304.20717,W,1,19,0.6,013.77,M,-16.8,M,,*51
$GPGGA,003320.000,4910.32605,N,12304.20717,W,1,19,0.6,013.77,M,-16.8,M,,*5B
$GPGGA,003321.000,4910.32605,N,12304.20717,W,1,20,0.6,013.77,M,-16.8,M,,*50
$GPGGA,003322.000,4910.32605,N,12304.20717,W,1,20,0.6,013.77,M,-16.8,M,,*53
$GPGGA,003323.000,4910.32605,N,12304.20717,W,1,19,0.6,013.77,M,-16.8,M,,*58
$GPGGA,003324.000,4910.32605,N,12304.20717,W,1,18,0.6,013.77,M,-16.8,M,,*5E
$GPGGA,003325.000,4910.32605,N,12304.20717,W,1,19,0.6,013.77,M,-16.8,M,,*5E
$GPGGA,003326.000,4910.32605,N,12304.20717,W,1,19,0.6,013.77,M,-16.8,M,,*5D
$GPGGA,003327.000,4910.32605,N,12304.20717,W,1,19,0.6,013.77,M,-16.8,M,,*5C
$GPGGA,003328.000,4910.32605,N,12304.20717,W,1,19,0.6,013.77,M,-16.8,M,,*53
$GPGGA,003329.000,4910.32605,N,12304.20717,W,1,19,0.6,013.77,M,-16.8,M,,*52
$GPGGA,003330.000,4910.32605,N,12304.20717,W,1,19,0.6,013.77,M,-16.8,M,,*5A
$GPGGA,003331.000,4910.32605,N,12304.20717,W,1,14,0.6,013.77,M,-16.8,M,,*56
$GPGGA,003332.000,4910.32605,N,12304.20717,W,1,18,0.6,013.77,M,-16.8,M,,*59
$GPGGA,003333.000,4910.32605,N,12304.20717,W,1,18,0.6,013.77,M,-16.8,M,,*58
$GPGGA,003334.000,4910.32605,N,12304.20717,W,1,19,0.6,013.77,M,-16.8,M,,*5E
$GPGGA,003335.000,4910.32605,N,12304.20717,W,1,19,0.6,013.77,M,-16.8,M,,*5F
$GPGGA,003336.000,4910.32605,N,12304.20717,W,1,19,0.6,013.77,M,-16.8,M,,*5C
$GPGGA,003337.000,4910.32605,N,12304.20717,W,1,19,0.6,013.77,M,-16.8,M,,*5D
$GPGGA,003338.000,4910.32605,N,12304.20717,W,1,18,0.6,013.77,M,-16.8,M,,*53
$GPGGA,003339.000,4910.32605,N,12304.20717,W,1,18,0.6,013.77,M,-16.8,M,,*52
$GPGGA,003340.000,4910.32605,N,12304.20717,W,1,19,0.6,013.77,M,-16.8,M,,*5D
$GPGGA,003341.000,4910.32605,N,12304.20717,W,1,19,0.6,013.77,M,-16.8,M,,*5C
$GPGGA,003342.000,4910.32605,N,12304.20717,W,1,19,0.6,013.77,M,-16.8,M,,*5F
$GPGGA,003343.000,4910.32605,N,12304.20717,W,1,19,0.6,013.77,M,-16.8,M,,*5E
$GPGGA,003344.000,4910.32605,N,12304.20717,W,1,19,0.6,013.77,M,-16.8,M,,*59
$GPGGA,003345.000,4910.32605,N,12304.20717,W,1,20,0.6,013.77,M,-16.8,M,,*52
$GPGGA,003346.000,4910.32605,N,12304.20717,W,1,20,0.6,013.77,M,-16.8,M,,*51
$GPGGA,003347.000,4910.32605,N,12304.20717,W,1,20,0.6,013.77,M,-16.8,M,,*50
$GPGGA,003348.000,4910.32605,N,12304.20717,W,1,20,0.6,013.77,M,-16.8,M,,*5F
$GPGGA,003349.000,4910.32605,N,12304.20717,W,1,20,0.6,013.77,M,-16.8,M,,*5E
$GPGGA,003350.000,4910.32605,N,12304.20717,W,1,20,0.6,013.77,M,-16.8,M,,*56
$GPGGA,003351.000,4910.32605,N,12304.20717,W,1,20,0.6,013.77,M,-16.8,M,,*57
$GPGGA,003352.000,4910.32605,N,12304.20717,W,1,20,0.6,013.77,M,-16.8,M,,*54
$GPGGA,003353.000,4910.32605,N,12304.20717,W,1,20,0.6,013.77,M,-16.8,M,,*55
$GPGGA,003354.000,4910.32605,N,12304.20717,W,1,19,0.6,013.77,M,-16.8,M,,*58
$GPGGA,003355.000,4910.32605,N,12304.20717,W,1,20,0.6,013.77,M,-16.8,M,,*53
$GPGGA,003356.000,4910.32605,N,12304.20717,W,1,19,0.6,013.77,M,-16.8,M,,*5A
$GPGGA,003357.000,4910.32605,N,12304.20717,W,1,20,0.6,013.77,M,-16.8,M,,*51
$GPGGA,003358.000,4910.32605,N,12304.20717,W,1,20,0.6,013.77,M,-16.8,M,,*5E
$GPGGA,003359.000,4910.32576,N,12304.20666,W,1,20,0.6,014.42,M,-16.8,M,,*5E
$GPGGA,003400.000,4910.32576,N,12304.20666,W,1,20,0.6,014.42,M,-16.8,M,,*55
$GPGGA,003401.000,4910.32576,N,12304.20666,W,1,19,0.6,014.42,M,-16.8,M,,*5E
$GPGGA,003402.000,4910.32576,N,12304.20666,W,1,20,0.6,014.42,M,-16.8,M,,*57
$GPGGA,003403.000,4910.32576,N,12304.20666,W,1,20,0.6,014.42,M,-16.8,M,,*56
$GPGGA,003404.000,4910.32576,N,12304.20666,W,1,19,0.6,014.42,M,-16.8,M,,*5B
$GPGGA,003405.000,4910.32576,N,12304.20666,W,1,19,0.6,014.42,M,-16.8,M,,*5A
$GPGGA,003406.000,4910.32576,N,12304.20666,W,1,20,0.6,014.42,M,-16.8,M,,*53
$GPGGA,003407.000,4910.32576,N,12304.20666,W,1,20,0.6,014.42,M,-16.8,M,,*52
$GPGGA,003408.000,4910.32576,N,12304.20666,W,1,20,0.6,014.42,M,-16.8,M,,*5D
$GPGGA,003409.000,4910.32576,N,12304.20666,W,1,19,0.6,014.42,M,-16.8,M,,*56
$GPGGA,003410.000,4910.32576,N,12304.20666,W,1,20,0.6,014.42,M,-16.8,M,,*54
$GPGGA,003411.000,4910.32576,N,12304.20666,W,1,20,0.6,014.42,M,-16.8,M,,*55
$GPGGA,003412.000,4910.32576,N,12304.20666,W,1,20,0.6,014.42,M,-16.8,M,,*56
$GPGGA,003413.000,4910.32576,N,12304.20666,W,1,20,0.6,014.42,M,-16.8,M,,*57
$GPGGA,003414.000,4910.32576,N,12304.20666,W,1,20,0.6,014.42,M,-16.8,M,,*50
$GPGGA,003415.000,4910.32576,N,12304.20666,W,1,20,0.6,014.42,M,-16.8,M,,*51
$GPGGA,003416.000,4910.32576,N,12304.20666,W,1,20,0.6,014.42,M,-16.8,M,,*52
$GPGGA,003417.000,4910.32576,N,12304.20666,W,1,20,0.6,014.42,M,-16.8,M,,*53
$GPGGA,003418.000,4910.32576,N,12304.20666,W,1,19,0.6,014.42,M,-16.8,M,,*56
$GPGGA,003419.000,4910.32576,N,12304.20666,W,1,19,0.6,014.42,M,-16.8,M,,*57
$GPGGA,003420.000,4910.32576,N,12304.20666,W,1,19,0.6,014.42,M,-16.8,M,,*5D
$GPGGA,003421.000,4910.32576,N,12304.20666,W,1,19,0.6,014.42,M,-16.8,M,,*5C
$GPGGA,003422.000,4910.32576,N,12304.20666,W,1,19,0.6,014.42,M,-16.8,M,,*5F
$GPGGA,003423.000,4910.32576,N,12304.20666,W,1,19,0.6,014.42,M,-16.8,M,,*5E
$GPGGA,003424.000,4910.32576,N,12304.20666,W,1,19,0.6,014.42,M,-16.8,M,,*59
$GPGGA,003425.000,4910.32576,N,12304.20666,W,1,18,0.6,014.42,M,-16.8,M,,*59
$GPGGA,003426.000,4910.32576,N,12304.20666,W,1,19,0.6,014.42,M,-16.8,M,,*5B
$GPGGA,003427.000,4910.32576,N,12304.20666,W,1,19,0.6,014.42,M,-16.8,M,,*5A
$GPGGA,003428.000,4910.32576,N,12304.20666,W,1,19,0.6,014.42,M,-16.8,M,,*55
$GPGGA,003429.000,4910.32576,N,12304.20666,W,1,19,0.6,014.42,M,-16.8,M,,*54
$GPGGA,003430.000,4910.32576,N,12304.20666,W,1,18,0.6,014.42,M,-16.8,M,,*5D
$GPGGA,003431.000,4910.32576,N,12304.20666,W,1,18,0.6,014.42,M,-16.8,M,,*5C
$GPGGA,003432.000,4910.32576,N,12304.20666,W,1,19,0.6,014.42,M,-16.8,M,,*5E
$GPGGA,003433.000,4910.32576,N,12304.20666,W,1,20,0.6,014.42,M,-16.8,M,,*55
$GPGGA,003434.000,4910.32576,N,12304.20666,W,1,20,0.6,014.42,M,-16.8,M,,*52
$GPGGA,003435.000,4910.32576,N,12304.20666,W,1,20,0.6,014.42,M,-16.8,M,,*53
$GPGGA,003436.000,4910.32576,N,12304.20666,W,1,20,0.6,014.42,M,-16.8,M,,*50
$GPGGA,003437.000,4910.32576,N,12304.20666,W,1,20,0.6,014.42,M,-16.8,M,,*51
$GPGGA,003438.000,4910.32576,N,12304.20666,W,1,20,0.6,014.42,M,-16.8,M,,*5E
$GPGGA,003439.000,4910.32559,N,12304.20638,W,1,20,0.6,014.39,M,-16.8,M,,*55
$GPGGA,003440.000,4910.32559,N,12304.20638,W,1,19,0.6,014.39,M,-16.8,M,,*51
$GPGGA,003441.000,4910.32559,N,12304.20638,W,1,19,0.6,014.39,M,-16.8,M,,*50
$GPGGA,003442.000,4910.32559,N,12304.20638,W,1,19,0.6,014.39,M,-16.8,M,,*53
$GPGGA,003443.000,4910.32559,N,12304.20638,W,1,19,0.6,014.39,M,-16.8,M,,*52
$GPGGA,003444.000,4910.32559,N,12304.20638,W,1,19,0.6,014.39,M,-16.8,M,,*55
$GPGGA,003445.000,4910.32559,N,12304.20638,W,1,19,0.6,014.39,M,-16.8,M,,*54
$GPGGA,003446.000,4910.32559,N,12304.20638,W,1,19,0.6,014.39,M,-16.8,M,,*57
$GPGGA,003447.000,4910.32559,N,12304.20638,W,1,19,0.6,014.39,M,-16.8,M,,*56
$GPGGA,003448.000,4910.32559,N,12304.20638,W,1,19,0.6,014.39,M,-16.8,M,,*59
$GPGGA,003449.000,4910.32559,N,12304.20638,W,1,19,0.6,014.39,M,-16.8,M,,*58
$GPGGA,003450.000,4910.32559,N,12304.20638,W,1,19,0.6,014.39,M,-16.8,M,,*50
$GPGGA,003451.000,4910.32559,N,12304.20638,W,1,19,0.6,014.39,M,-16.8,M,,*51
$GPGGA,003452.000,4910.32559,N,12304.20638,W,1,19,0.6,014.39,M,-16.8,M,,*52
$GPGGA,003453.000,4910.32559,N,12304.20638,W,1,19,0.6,014.39,M,-16.8,M,,*53
$GPGGA,003454.000,4910.32559,N,12304.20638,W,1,19,0.6,014.39,M,-16.8,M,,*54
$GPGGA,003455.000,4910.32559,N,12304.20638,W,1,19,0.6,014.39,M,-16.8,M,,*55
$GPGGA,003456.000,4910.32559,N,12304.20638,W,1,19,0.6,014.39,M,-16.8,M,,*56
$GPGGA,003457.000,4910.32559,N,12304.20638,W,1,19,0.6,014.39,M,-16.8,M,,*57
$GPGGA,003458.000,4910.32559,N,12304.20638,W,1,19,0.6,014.39,M,-16.8,M,,*58
$GPGGA,003459.000,4910.32559,N,12304.20638,W,1,19,0.6,014.39,M,-16.8,M,,*59
$GPGGA,003500.000,4910.32559,N,12304.20638,W,1,18,0.6,014.39,M,-16.8,M,,*55
$GPGGA,003501.000,4910.32559,N,12304.20638,W,1,19,0.6,014.39,M,-16.8,M,,*55
$GPGGA,003502.000,4910.32559,N,12304.20638,W,1,19,0.6,014.39,M,-16.8,M,,*56
$GPGGA,003503.000,4910.32559,N,12304.20638,W,1,19,0.6,014.39,M,-16.8,M,,*57
$GPGGA,003504.000,4910.32559,N,12304.20638,W,1,19,0.6,014.39,M,-16.8,M,,*50
$GPGGA,003505.000,4910.32559,N,12304.20638,W,1,19,0.6,014.39,M,-16.8,M,,*51
$GPGGA,003506.000,4910.32559,N,12304.20638,W,1,19,0.6,014.39,M,-16.8,M,,*52
$GPGGA,003507.000,4910.32559,N,12304.20638,W,1,19,0.6,014.39,M,-16.8,M,,*53
$GPGGA,003508.000,4910.32559,N,12304.20638,W,1,19,0.6,014.39,M,-16.8,M,,*5C
$GPGGA,003509.000,4910.32559,N,12304.20638,W,1,19,0.6,014.39,M,-16.8,M,,*5D
$GPGGA,003510.000,4910.32559,N,12304.20638,W,1,19,0.6,014.39,M,-16.8,M,,*55
$GPGGA,003511.000,4910.32559,N,12304.20638,W,1,19,0.6,014.39,M,-16.8,M,,*54
$GPGGA,003512.000,4910.32559,N,12304.20638,W,1,19,0.6,014.39,M,-16.8,M,,*57
$GPGGA,003513.000,4910.32559,N,12304.20638,W,1,19,0.6,014.39,M,-16.8,M,,*56
$GPGGA,003514.000,4910.32559,N,12304.20638,W,1,19,0.6,014.39,M,-16.8,M,,*51
$GPGGA,003515.000,4910.32559,N,12304.20638,W,1,19,0.6,014.39,M,-16.8,M,,*50
$GPGGA,003516.000,4910.32559,N,12304.20638,W,1,19,0.6,014.39,M,-16.8,M,,*53
$GPGGA,003517.000,4910.32559,N,12304.20638,W,1,19,0.6,014.39,M,-16.8,M,,*52
$GPGGA,003518.000,4910.32559,N,12304.20638,W,1,19,0.6,014.39,M,-16.8,M,,*5D
$GPGGA,003519.000,4910.32559,N,12304.20642,W,1,19,0.6,013.34,M,-16.8,M,,*5B
$GPGGA,003520.000,4910.32559,N,12304.20642,W,1,19,0.6,013.34,M,-16.8,M,,*51
$GPGGA,003521.000,4910.32559,N,12304.20642,W,1,19,0.6,013.34,M,-16.8,M,,*50
$GPGGA,003522.000,4910.32559,N,12304.20642,W,1,19,0.6,013.34,M,-16.8,M,,*53
$GPGGA,003523.000,4910.32559,N,12304.20642,W,1,18,0.6,013.34,M,-16.8,M,,*53
$GPGGA,003524.000,4910.32559,N,12304.20642,W,1,19,0.6,013.34,M,-16.8,M,,*55
$GPGGA,003525.000,4910.32559,N,12304.20642,W,1,19,0.6,013.34,M,-16.8,M,,*54
$GPGGA,003526.000,4910.32559,N,12304.20642,W,1,19,0.6,013.34,M,-16.8,M,,*57
$GPGGA,003527.000,4910.32559,N,12304.20642,W,1,19,0.6,013.34,M,-16.8,M,,*56
$GPGGA,003528.000,4910.32559,N,12304.20642,W,1,20,0.6,013.34,M,-16.8,M,,*53
$GPGGA,003529.000,4910.32559,N,12304.20642,W,1,20,0.6,013.34,M,-16.8,M,,*52
$GPGGA,003530.000,4910.32559,N,12304.20642,W,1,20,0.6,013.34,M,-16.8,M,,*5A
$GPGGA,003531.000,4910.32559,N,12304.20642,W,1,20,0.6,013.34,M,-16.8,M,,*5B
$GPGGA,003532.000,4910.32559,N,12304.20642,W,1,20,0.6,013.34,M,-16.8,M,,*58
$GPGGA,003533.000,4910.32559,N,12304.20642,W,1,20,0.6,013.34,M,-16.8,M,,*59
$GPGGA,003534.000,4910.32559,N,12304.20642,W,1,20,0.6,013.34,M,-16.8,M,,*5E
$GPGGA,003535.000,4910.32559,N,12304.20642,W,1,20,0.6,013.34,M,-16.8,M,,*5F
$GPGGA,003536.000,4910.32559,N,12304.20642,W,1,20,0.6,013.34,M,-16.8,M,,*5C
$GPGGA,003537.000,4910.32559,N,12304.20642,W,1,20,0.6,013.34,M,-16.8,M,,*5D
$GPGGA,003538.000,4910.32559,N,12304.20642,W,1,19,0.6,013.34,M,-16.8,M,,*58
$GPGGA,003539.000,4910.32559,N,12304.20642,W,1,20,0.6,013.34,M,-16.8,M,,*53
$GPGGA,003540.000,4910.32559,N,12304.20642,W,1,20,0.6,013.34,M,-16.8,M,,*5D
$GPGGA,003541.000,4910.32559,N,12304.20642,W,1,19,0.6,013.34,M,-16.8,M,,*56
$GPGGA,003542.000,4910.32559,N,12304.20642,W,1,18,0.6,013.34,M,-16.8,M,,*54
$GPGGA,003543.000,4910.32559,N,12304.20642,W,1,18,0.6,013.34,M,-16.8,M,,*55
$GPGGA,003544.000,4910.32559,N,12304.20642,W,1,19,0.6,013.34,M,-16.8,M,,*53
$GPGGA,003545.000,4910.32559,N,12304.20642,W,1,18,0.6,013.34,M,-16.8,M,,*53
$GPGGA,003546.000,4910.32559,N,12304.20642,W,1,18,0.6,013.34,M,-16.8,M,,*50
$GPGGA,003547.000,4910.32559,N,12304.20642,W,1,19,0.6,013.34,M,-16.8,M,,*50
$GPGGA,003548.000,4910.32559,N,12304.20642,W,1,18,0.6,013.34,M,-16.8,M,,*5E
$GPGGA,003549.000,4910.32559,N,12304.20642,W,1,18,0.6,013.34,M,-16.8,M,,*5F
$GPGGA,003550.000,4910.32559,N,12304.20642,W,1,18,0.6,013.34,M,-16.8,M,,*57
$GPGGA,003551.000,4910.32559,N,12304.20642,W,1,18,0.6,013.34,M,-16.8,M,,*56
$GPGGA,003552.000,4910.32559,N,12304.20642,W,1,18,0.6,013.34,M,-16.8,M,,*55
$GPGGA,003553.000,4910.32559,N,12304.20642,W,1,18,0.6,013.34,M,-16.8,M,,*54
$GPGGA,003554.000,4910.32559,N,12304.20642,W,1,18,0.6,013.34,M,-16.8,M,,*53
$GPGGA,003555.000,4910.32559,N,12304.20642,W,1,18,0.6,013.34,M,-16.8,M,,*52
$GPGGA,003556.000,4910.32559,N,12304.20642,W,1,18,0.6,013.34,M,-16.8,M,,*51
$GPGGA,003557.000,4910.32559,N,12304.20642,W,1,19,0.6,013.34,M,-16.8,M,,*51
$GPGGA,003558.000,4910.32559,N,12304.20642,W,1,19,0.6,013.34,M,-16.8,M,,*5E
$GPGGA,003559.000,4910.32538,N,12304.20686,W,1,19,0.6,012.57,M,-16.8,M,,*54
$GPGGA,003600.000,4910.32538,N,12304.20686,W,1,19,0.6,012.57,M,-16.8,M,,*5B
$GPGGA,003601.000,4910.32538,N,12304.20686,W,1,18,0.6,012.57,M,-16.8,M,,*5B
$GPGGA,003602.000,4910.32538,N,12304.20686,W,1,18,0.6,012.57,M,-16.8,M,,*58
$GPGGA,003603.000,4910.32538,N,12304.20686,W,1,17,0.6,012.57,M,-16.8,M,,*56
$GPGGA,003604.000,4910.32538,N,12304.20686,W,1,17,0.6,012.57,M,-16.8,M,,*51
$GPGGA,003605.000,4910.32538,N,12304.20686,W,1,18,0.6,012.57,M,-16.8,M,,*5F
$GPGGA,003606.000,4910.32538,N,12304.20686,W,1,19,0.6,012.57,M,-16.8,M,,*5D
$GPGGA,003607.000,4910.32538,N,12304.20686,W,1,19,0.6,012.57,M,-16.8,M,,*5C
$GPGGA,003608.000,4910.32538,N,12304.20686,W,1,18,0.6,012.57,M,-16.8,M,,*52
$GPGGA,003609.000,4910.32538,N,12304.20686,W,1,19,0.6,012.57,M,-16.8,M,,*52
$GPGGA,003610.000,4910.32538,N,12304.20686,W,1,19,0.6,012.57,M,-16.8,M,,*5A
$GPGGA,003611.000,4910.32538,N,12304.20686,W,1,19,0.6,012.57,M,-16.8,M,,*5B
$GPGGA,003612.000,4910.32538,N,12304.20686,W,1,18,0.6,012.57,M,-16.8,M,,*59
$GPGGA,003613.000,4910.32538,N,12304.20686,W,1,17,0.6,012.57,M,-16.8,M,,*57
$GPGGA,003614.000,4910.32538,N,12304.20686,W,1,18,0.6,012.57,M,-16.8,M,,*5F
$GPGGA,003615.000,4910.32538,N,12304.20686,W,1,19,0.6,012.57,M,-16.8,M,,*5F
$GPGGA,003616.000,4910.32538,N,12304.20686,W,1,19,0.6,012.57,M,-16.8,M,,*5C
$GPGGA,003617.000,4910.32538,N,12304.20686,W,1,19,0.6,012.57,M,-16.8,M,,*5D
$GPGGA,003618.000,4910.32538,N,12304.20686,W,1,18,0.6,012.57,M,-16.8,M,,*53
$GPGGA,003619.000,4910.32538,N,12304.20686,W,1,19,0.6,012.57,M,-16.8,M,,*53
$GPGGA,003620.000,4910.32538,N,12304.20686,W,1,17,0.6,012.57,M,-16.8,M,,*57
$GPGGA,003621.000,4910.32538,N,12304.20686,W,1,19,0.6,012.57,M,-16.8,M,,*58
$GPGGA,003622.000,4910.32538,N,12304.20686,W,1,19,0.6,012.57,M,-16.8,M,,*5B
$GPGGA,003623.000,4910.32538,N,12304.20686,W,1,18,0.6,012.57,M,-16.8,M,,*5B
$GPGGA,003624.000,4910.32538,N,12304.20686,W,1,19,0.6,012.57,M,-16.8,M,,*5D
$GPGGA,003625.000,4910.32538,N,12304.20686,W,1,18,0.6,012.57,M,-16.8,M,,*5D
$GPGGA,003626.000,4910.32538,N,12304.20686,W,1,19,0.6,012.57,M,-16.8,M,,*5F
$GPGGA,003627.000,4910.32538,N,12304.20686,W,1,18,0.6,012.57,M,-16.8,M,,*5F
$GPGGA,003628.000,4910.32538,N,12304.20686,W,1,19,0.6,012.57,M,-16.8,M,,*51
$GPGGA,003629.000,4910.32538,N,12304.20686,W,1,18,0.6,012.57,M,-16.8,M,,*51
$GPGGA,003630.000,4910.32538,N,12304.20686,W,1,19,0.6,012.57,M,-16.8,M,,*58
$GPGGA,003631.000,4910.32538,N,12304.20686,W,1,19,0.6,012.57,M,-16.8,M,,*59
$GPGGA,003632.000,4910.32538,N,12304.20686,W,1,19,0.6,012.57,M,-16.8,M,,*5A
$GPGGA,003633.000,4910.32538,N,12304.20686,W,1,19,0.6,012.57,M,-16.8,M,,*5B
$GPGGA,003634.000,4910.32538,N,12304.20686,W,1,18,0.6,012.57,M,-16.8,M,,*5D
$GPGGA,003635.000,4910.32538,N,12304.20686,W,1,19,0.6,012.57,M,-16.8,M,,*5D
$GPGGA,003636.000,4910.32538,N,12304.20686,W,1,19,0.6,012.57,M,-16.8,M,,*5E
$GPGGA,003637.000,4910.32538,N,12304.20686,W,1,18,0.6,012.57,M,-16.8,M,,*5E
$GPGGA,003638.000,4910.32538,N,12304.20686,W,1,18,0.6,012.57,M,-16.8,M,,*51
$GPGGA,003639.000,4910.32517,N,12304.20696,W,1,18,0.6,012.27,M,-16.8,M,,*5B
$GPGGA,003640.000,4910.32517,N,12304.20696,W,1,20,0.6,012.27,M,-16.8,M,,*5E
$GPGGA,003641.000,4910.32517,N,12304.20696,W,1,20,0.6,012.27,M,-16.8,M,,*5F
$GPGGA,003642.000,4910.32517,N,12304.20696,W,1,20,0.6,012.27,M,-16.8,M,,*5C
$GPGGA,003643.000,4910.32517,N,12304.20696,W,1,20,0.6,012.27,M,-16.8,M,,*5D
$GPGGA,003644.000,4910.32517,N,12304.20696,W,1,20,0.6,012.27,M,-16.8,M,,*5A
$GPGGA,003645.000,4910.32517,N,12304.20696,W,1,19,0.6,012.27,M,-16.8,M,,*51
$GPGGA,003646.000,4910.32517,N,12304.20696,W,1,20,0.6,012.27,M,-16.8,M,,*58
$GPGGA,003647.000,4910.32517,N,12304.20696,W,1,19,0.6,012.27,M,-16.8,M,,*53
$GPGGA,003648.000,4910.32517,N,12304.20696,W,1,17,0.6,012.27,M,-16.8,M,,*52
$GPGGA,003649.000,4910.32517,N,12304.20696,W,1,19,0.6,012.27,M,-16.8,M,,*5D
$GPGGA,003650.000,4910.32517,N,12304.20696,W,1,18,0.6,012.27,M,-16.8,M,,*54
$GPGGA,003651.000,4910.32517,N,12304.20696,W,1,17,0.6,012.27,M,-16.8,M,,*5A
$GPGGA,003652.000,4910.32517,N,12304.20696,W,1,17,0.6,012.27,M,-16.8,M,,*59
$GPGGA,003653.000,4910.32517,N,12304.20696,W,1,17,0.6,012.27,M,-16.8,M,,*58
$GPGGA,003654.000,4910.32517,N,12304.20696,W,1,17,0.6,012.27,M,-16.8,M,,*5F
$GPGGA,003655.000,4910.32517,N,12304.20696,W,1,17,0.6,012.27,M,-16.8,M,,*5E
$GPGGA,003656.000,4910.32517,N,12304.20696,W,1,20,0.6,012.27,M,-16.8,M,,*59
$GPGGA,003657.000,4910.32517,N,12304.20696,W,1,20,0.6,012.27,M,-16.8,M,,*58
$GPGGA,003658.000,4910.32517,N,12304.20696,W,1,20,0.6,012.27,M,-16.8,M,,*57
$GPGGA,003659.000,4910.32517,N,12304.20696,W,1,20,0.6,012.27,M,-16.8,M,,*56
$GPGGA,003700.000,4910.32517,N,12304.20696,W,1,20,0.6,012.27,M,-16.8,M,,*5B
$GPGGA,003701.000,4910.32517,N,12304.20696,W,1,20,0.6,012.27,M,-16.8,M,,*5A
$GPGGA,003702.000,4910.32517,N,12304.20696,W,1,19,0.6,012.27,M,-16.8,M,,*53
$GPGGA,003703.000,4910.32517,N,12304.20696,W,1,20,0.6,012.27,M,-16.8,M,,*58
$GPGGA,003704.000,4910.32517,N,12304.20696,W,1,18,0.6,012.27,M,-16.8,M,,*54
$GPGGA,003705.000,4910.32517,N,12304.20696,W,1,18,0.6,012.27,M,-16.8,M,,*55
$GPGGA,003706.000,4910.32517,N,12304.20696,W,1,18,0.6,012.27,M,-16.8,M,,*56
$GPGGA,003707.000,4910.32517,N,12304.20696,W,1,19,0.6,012.27,M,-16.8,M,,*56
$GPGGA,003708.000,4910.32517,N,12304.20696,W,1,19,0.6,012.27,M,-16.8,M,,*59
$GPGGA,003709.000,4910.32517,N,12304.20696,W,1,18,0.6,012.27,M,-16.8,M,,*59
$GPGGA,003710.000,4910.32517,N,12304.20696,W,1,19,0.6,012.27,M,-16.8,M,,*50
$GPGGA,003711.000,4910.32517,N,12304.20696,W,1,20,0.6,012.27,M,-16.8,M,,*5B
$GPGGA,003712.000,4910.32517,N,12304.20696,W,1,19,0.6,012.27,M,-16.8,M,,*52
$GPGGA,003713.000,4910.32517,N,12304.20696,W,1,19,0.6,012.27,M,-16.8,M,,*53
$GPGGA,003714.000,4910.32517,N,12304.20696,W,1,18,0.6,012.27,M,-16.8,M,,*55
$GPGGA,003715.000,4910.32517,N,12304.20696,W,1,19,0.6,012.27,M,-16.8,M,,*55
$GPGGA,003716.000,4910.32517,N,12304.20696,W,1,19,0.6,012.27,M,-16.8,M,,*56
$GPGGA,003717.000,4910.32517,N,12304.20696,W,1,20,0.6,012.27,M,-16.8,M,,*5D
$GPGGA,003718.000,4910.32517,N,12304.20696,W,1,18,0.6,012.27,M,-16.8,M,,*59
$GPGGA,003719.000,4910.32522,N,12304.20707,W,1,18,0.6,011.69,M,-16.8,M,,*5E
$GPGGA,003720.000,4910.32522,N,12304.20707,W,1,19,0.6,011.69,M,-16.8,M,,*55
$GPGGA,003721.000,4910.32522,N,12304.20707,W,1,17,0.6,011.69,M,-16.8,M,,*5A
$GPGGA,003722.000,4910.32522,N,12304.20707,W,1,21,0.6,011.69,M,-16.8,M,,*5C
$GPGGA,003723.000,4910.32522,N,12304.20707,W,1,21,0.6,011.69,M,-16.8,M,,*5D
$GPGGA,003724.000,4910.32522,N,12304.20707,W,1,19,0.6,011.69,M,-16.8,M,,*51
$GPGGA,003725.000,4910.32522,N,12304.20707,W,1,18,0.6,011.69,M,-16.8,M,,*51
$GPGGA,003726.000,4910.32522,N,12304.20707,W,1,20,0.6,011.69,M,-16.8,M,,*59
$GPGGA,003727.000,4910.32522,N,12304.20707,W,1,21,0.6,011.69,M,-16.8,M,,*59
$GPGGA,003728.000,4910.32522,N,12304.20707,W,1,21,0.6,011.69,M,-16.8,M,,*56
$GPGGA,003729.000,4910.32522,N,12304.20707,W,1,20,0.6,011.69,M,-16.8,M,,*56
$GPGGA,003730.000,4910.32522,N,12304.20707,W,1,21,0.6,011.69,M,-16.8,M,,*5F
$GPGGA,003731.000,4910.32522,N,12304.20707,W,1,21,0.6,011.69,M,-16.8,M,,*5E
$GPGGA,003732.000,4910.32522,N,12304.20707,W,1,21,0.6,011.69,M,-16.8,M,,*5D
$GPGGA,003733.000,4910.32522,N,12304.20707,W,1,20,0.6,011.69,M,-16.8,M,,*5D
$GPGGA,003734.000,4910.32522,N,12304.20707,W,1,20,0.6,011.69,M,-16.8,M,,*5A
$GPGGA,003735.000,4910.32522,N,12304.20707,W,1,19,0.6,011.69,M,-16.8,M,,*51
$GPGGA,003736.000,4910.32522,N,12304.20707,W,1,19,0.6,011.69,M,-16.8,M,,*52
$GPGGA,003737.000,4910.32522,N,12304.20707,W,1,20,0.6,011.69,M,-16.8,M,,*59
$GPGGA,003738.000,4910.32522,N,12304.20707,W,1,20,0.6,011.69,M,-16.8,M,,*56
$GPGGA,003739.000,4910.32522,N,12304.20707,W,1,20,0.6,011.69,M,-16.8,M,,*57
$GPGGA,003740.000,4910.32522,N,12304.20707,W,1,19,0.6,011.69,M,-16.8,M,,*53
$GPGGA,003741.000,4910.32522,N,12304.20707,W,1,21,0.6,011.69,M,-16.8,M,,*59
$GPGGA,003742.000,4910.32522,N,12304.20707,W,1,21,0.6,011.69,M,-16.8,M,,*5A
$GPGGA,003743.000,4910.32522,N,12304.20707,W,1,21,0.6,011.69,M,-16.8,M,,*5B
$GPGGA,003744.000,4910.32522,N,12304.20707,W,1,20,0.6,011.69,M,-16.8,M,,*5D
$GPGGA,003745.000,4910.32522,N,12304.20707,W,1,20,0.6,011.69,M,-16.8,M,,*5C
$GPGGA,003746.000,4910.32522,N,12304.20707,W,1,19,0.6,011.69,M,-16.8,M,,*55
$GPGGA,003747.000,4910.32522,N,12304.20707,W,1,20,0.6,011.69,M,-16.8,M,,*5E
$GPGGA,003748.000,4910.32522,N,12304.20707,W,1,19,0.6,011.69,M,-16.8,M,,*5B
$GPGGA,003749.000,4910.32522,N,12304.20707,W,1,20,0.6,011.69,M,-16.8,M,,*50
$GPGGA,003750.000,4910.32522,N,12304.20707,W,1,20,0.6,011.69,M,-16.8,M,,*58
$GPGGA,003751.000,4910.32522,N,12304.20707,W,1,20,0.6,011.69,M,-16.8,M,,*59
$GPGGA,003752.000,4910.32522,N,12304.20707,W,1,19,0.6,011.69,M,-16.8,M,,*50
$GPGGA,003753.000,4910.32522,N,12304.20707,W,1,20,0.6,011.69,M,-16.8,M,,*5B
$GPGGA,003754.000,4910.32522,N,12304.20707,W,1,20,0.6,011.69,M,-16.8,M,,*5C
$GPGGA,003755.000,4910.32522,N,12304.20707,W,1,19,0.6,011.69,M,-16.8,M,,*57
$GPGGA,003756.000,4910.32522,N,12304.20707,W,1,19,0.6,011.69,M,-16.8,M,,*54
$GPGGA,003757.000,4910.32522,N,12304.20707,W,1,20,0.6,011.69,M,-16.8,M,,*5F
$GPGGA,003758.000,4910.32522,N,12304.20707,W,1,21,0.6,011.69,M,-16.8,M,,*51
$GPGGA,003759.000,4910.32520,N,12304.20682,W,1,20,0.6,011.99,M,-16.8,M,,*50
$GPGGA,003800.000,4910.32520,N,12304.20682,W,1,20,0.6,011.99,M,-16.8,M,,*53
$GPGGA,003801.000,4910.32520,N,12304.20682,W,1,21,0.6,011.99,M,-16.8,M,,*53
$GPGGA,003802.000,4910.32520,N,12304.20682,W,1,21,0.6,011.99,M,-16.8,M,,*50
$GPGGA,003803.000,4910.32520,N,12304.20682,W,1,21,0.6,011.99,M,-16.8,M,,*51
$GPGGA,003804.000,4910.32520,N,12304.20682,W,1,21,0.6,011.99,M,-16.8,M,,*56
$GPGGA,003805.000,4910.32520,N,12304.20682,W,1,21,0.6,011.99,M,-16.8,M,,*57
$GPGGA,003806.000,4910.32520,N,12304.20682,W,1,21,0.6,011.99,M,-16.8,M,,*54
$GPGGA,003807.000,4910.32520,N,12304.20682,W,1,20,0.6,011.99,M,-16.8,M,,*54
$GPGGA,003808.000,4910.32520,N,12304.20682,W,1,20,0.6,011.99,M,-16.8,M,,*5B
$GPGGA,003809.000,4910.32520,N,12304.20682,W,1,21,0.6,011.99,M,-16.8,M,,*5B
$GPGGA,003810.000,4910.32520,N,12304.20682,W,1,21,0.6,011.99,M,-16.8,M,,*53
$GPGGA,003811.000,4910.32520,N,12304.20682,W,1,20,0.6,011.99,M,-16.8,M,,*53
$GPGGA,003812.000,4910.32520,N,12304.20682,W,1,21,0.6,011.99,M,-16.8,M,,*51
$GPGGA,003813.000,4910.32520,N,12304.20682,W,1,21,0.6,011.99,M,-16.8,M,,*50
$GPGGA,003814.000,4910.32520,N,12304.20682,W,1,21,0.6,011.99,M,-16.8,M,,*57
$GPGGA,003815.000,4910.32520,N,12304.20682,W,1,21,0.6,011.99,M,-16.8,M,,*56
$GPGGA,003816.000,4910.32520,N,12304.20682,W,1,20,0.5,011.99,M,-16.8,M,,*57
$GPGGA,003817.000,4910.32520,N,12304.20682,W,1,22,0.5,011.99,M,-16.8,M,,*54
$GPGGA,003818.000,4910.32520,N,12304.20682,W,1,20,0.5,011.99,M,-16.8,M,,*59
$GPGGA,003819.000,4910.32520,N,12304.20682,W,1,21,0.5,011.99,M,-16.8,M,,*59
$GPGGA,003820.000,4910.32520,N,12304.20682,W,1,18,0.5,011.99,M,-16.8,M,,*59
$GPGGA,003821.000,4910.32520,N,12304.20682,W,1,20,0.5,011.99,M,-16.8,M,,*53
$GPGGA,003822.000,4910.32520,N,12304.20682,W,1,21,0.5,011.99,M,-16.8,M,,*51
$GPGGA,003823.000,4910.32520,N,12304.20682,W,1,22,0.5,011.99,M,-16.8,M,,*53
$GPGGA,003824.000,4910.32520,N,12304.20682,W,1,21,0.5,011.99,M,-16.8,M,,*57
$GPGGA,003825.000,4910.32520,N,12304.20682,W,1,22,0.5,011.99,M,-16.8,M,,*55
$GPGGA,003826.000,4910.32520,N,12304.20682,W,1,22,0.5,011.99,M,-16.8,M,,*56
$GPGGA,003827.000,4910.32520,N,12304.20682,W,1,22,0.5,011.99,M,-16.8,M,,*57
$GPGGA,003828.000,4910.32520,N,12304.20682,W,1,21,0.5,011.99,M,-16.8,M,,*5B
$GPGGA,003829.000,4910.32520,N,12304.20682,W,1,22,0.5,011.99,M,-16.8,M,,*59
$GPGGA,003830.000,4910.32520,N,12304.20682,W,1,22,0.5,011.99,M,-16.8,M,,*51
$GPGGA,003831.000,4910.32520,N,12304.20682,W,1,22,0.5,011.99,M,-16.8,M,,*50
$GPGGA,003832.000,4910.32520,N,12304.20682,W,1,20,0.5,011.99,M,-16.8,M,,*51
$GPGGA,003833.000,4910.32520,N,12304.20682,W,1,21,0.5,011.99,M,-16.8,M,,*51
$GPGGA,003834.000,4910.32520,N,12304.20682,W,1,18,0.5,011.99,M,-16.8,M,,*5C
$GPGGA,003835.000,4910.32520,N,12304.20682,W,1,19,0.6,011.99,M,-16.8,M,,*5F
$GPGGA,003836.000,4910.32520,N,12304.20682,W,1,19,0.6,011.99,M,-16.8,M,,*5C
$GPGGA,003837.000,4910.32520,N,12304.20682,W,1,19,0.6,011.99,M,-16.8,M,,*5D
$GPGGA,003838.000,4910.32520,N,12304.20682,W,1,18,0.6,011.99,M,-16.8,M,,*53
$GPGGA,003839.000,4910.32511,N,12304.20714,W,1,19,0.6,013.55,M,-16.8,M,,*5D
$GPGGA,003840.000,4910.32511,N,12304.20714,W,1,19,0.6,013.55,M,-16.8,M,,*53
$GPGGA,003841.000,4910.32511,N,12304.20714,W,1,19,0.6,013.55,M,-16.8,M,,*52
$GPGGA,003842.000,4910.32511,N,12304.20714,W,1,20,0.6,013.55,M,-16.8,M,,*5B
$GPGGA,003843.000,4910.32511,N,12304.20714,W,1,18,0.6,013.55,M,-16.8,M,,*51
$GPGGA,003844.000,4910.32511,N,12304.20714,W,1,20,0.6,013.55,M,-16.8,M,,*5D
$GPGGA,003845.000,4910.32511,N,12304.20714,W,1,20,0.6,013.55,M,-16.8,M,,*5C
$GPGGA,003846.000,4910.32511,N,12304.20714,W,1,20,0.6,013.55,M,-16.8,M,,*5F
$GPGGA,003847.000,4910.32511,N,12304.20714,W,1,20,0.6,013.55,M,-16.8,M,,*5E
$GPGGA,003848.000,4910.32511,N,12304.20714,W,1,20,0.6,013.55,M,-16.8,M,,*51
$GPGGA,003849.000,4910.32511,N,12304.20714,W,1,20,0.6,013.55,M,-16.8,M,,*50
$GPGGA,003850.000,4910.32511,N,12304.20714,W,1,20,0.6,013.55,M,-16.8,M,,*58
$GPGGA,003851.000,4910.32511,N,12304.20714,W,1,19,0.6,013.55,M,-16.8,M,,*53
$GPGGA,003852.000,4910.32511,N,12304.20714,W,1,19,0.5,013.55,M,-16.8,M,,*53
