$GPGGA,222313.000,4911.11877,N,12307.71932,W,1,11,0.7,001.53,M,-16.8,M,,*53
$GPGGA,222314.000,4911.11932,N,12307.71915,W,1,12,0.7,001.59,M,-16.8,M,,*58
$GPGGA,222315.000,4911.11965,N,12307.71909,W,1,12,0.7,001.36,M,-16.8,M,,*5F
$GPGGA,222316.000,4911.11965,N,12307.71909,W,1,12,0.7,001.36,M,-16.8,M,,*5C
$GPGGA,222317.000,4911.11965,N,12307.71909,W,1,12,0.7,001.36,M,-16.8,M,,*5D
$GPGGA,222318.000,4911.12106,N,12307.71901,W,1,14,0.7,001.30,M,-16.8,M,,*54
$GPGGA,222319.000,4911.12295,N,12307.71917,W,1,13,0.7,001.30,M,-16.8,M,,*5C
$GPGGA,222320.000,4911.12501,N,12307.71914,W,1,13,0.7,001.20,M,-16.8,M,,*5E
$GPGGA,222321.000,4911.12709,N,12307.71904,W,1,13,0.7,001.21,M,-16.8,M,,*55
$GPGGA,222322.000,4911.12887,N,12307.71906,W,1,13,0.7,001.28,M,-16.8,M,,*54
$GPGGA,222323.000,4911.13028,N,12307.71907,W,1,12,0.7,001.21,M,-16.8,M,,*50
$GPGGA,222324.000,4911.13141,N,12307.71906,W,1,13,0.7,001.16,M,-16.8,M,,*5D
$GPGGA,222325.000,4911.13216,N,12307.71914,W,1,13,0.7,000.94,M,-16.8,M,,*55
$GPGGA,222326.000,4911.13253,N,12307.71904,W,1,13,0.7,000.55,M,-16.8,M,,*5B
$GPGGA,222327.000,4911.13253,N,12307.71904,W,1,13,0.7,000.55,M,-16.8,M,,*5A
$GPGGA,222328.000,4911.13253,N,12307.71904,W,1,13,0.7,000.55,M,-16.8,M,,*55
$GPGGA,222329.000,4911.13253,N,12307.71904,W,1,13,0.7,000.55,M,-16.8,M,,*54
$GPGGA,222330.000,4911.13253,N,12307.71904,W,1,13,0.7,000.55,M,-16.8,M,,*5C
$GPGGA,222331.000,4911.13253,N,12307.71904,W,1,13,0.7,000.55,M,-16.8,M,,*5D
$GPGGA,222332.000,4911.13365,N,12307.71875,W,1,13,0.7,000.38,M,-16.8,M,,*56
$GPGGA,222333.000,4911.13442,N,12307.71757,W,1,13,0.7,000.00,M,-16.8,M,,*51
$GPGGA,222334.000,4911.13486,N,12307.71546,W,1,13,0.7,-00.31,M,-16.8,M,,*43
$GPGGA,222335.000,4911.13511,N,12307.71277,W,1,12,0.7,-00.48,M,-16.8,M,,*47
$GPGGA,222336.000,4911.13537,N,12307.71013,W,1,12,0.8,-00.76,M,-16.8,M,,*42
$GPGGA,222337.000,4911.13603,N,12307.70817,W,1,13,0.8,-00.96,M,-16.8,M,,*45
$GPGGA,222338.000,4911.13692,N,12307.70660,W,1,14,0.7,-01.06,M,-16.8,M,,*4C
$GPGGA,222339.000,4911.13803,N,12307.70504,W,1,13,0.7,-01.19,M,-16.8,M,,*43
$GPGGA,222340.000,4911.13940,N,12307.70388,W,1,13,0.7,-00.95,M,-16.8,M,,*4C
$GPGGA,222341.000,4911.14103,N,12307.70305,W,1,13,0.7,-00.82,M,-16.8,M,,*46
$GPGGA,222342.000,4911.14279,N,12307.70282,W,1,12,0.7,-00.77,M,-16.8,M,,*4E
$GPGGA,222343.000,4911.14476,N,12307.70291,W,1,12,0.7,-00.55,M,-16.8,M,,*44
$GPGGA,222344.000,4911.14698,N,12307.70326,W,1,12,0.7,-00.37,M,-16.8,M,,*48
$GPGGA,222345.000,4911.14911,N,12307.70353,W,1,12,0.7,-00.03,M,-16.8,M,,*42
$GPGGA,222346.000,4911.15087,N,12307.70374,W,1,12,0.7,000.32,M,-16.8,M,,*5C
$GPGGA,222347.000,4911.15214,N,12307.70381,W,1,12,0.7,000.43,M,-16.8,M,,*59
$GPGGA,222348.000,4911.15286,N,12307.70396,W,1,14,0.7,000.06,M,-16.8,M,,*5C
$GPGGA,222349.000,4911.15343,N,12307.70406,W,1,15,0.7,000.17,M,-16.8,M,,*5A
$GPGGA,222350.000,4911.15399,N,12307.70410,W,1,15,0.7,000.27,M,-16.8,M,,*51
$GPGGA,222351.000,4911.15488,N,12307.70424,W,1,15,0.7,000.16,M,-16.8,M,,*52
$GPGGA,222352.000,4911.15585,N,12307.70442,W,1,14,0.7,-00.10,M,-16.8,M,,*47
$GPGGA,222353.000,4911.15647,N,12307.70505,W,1,14,0.7,-00.14,M,-16.8,M,,*4D
$GPGGA,222354.000,4911.15674,N,12307.70586,W,1,13,0.7,-00.36,M,-16.8,M,,*46
$GPGGA,222355.000,4911.15701,N,12307.70726,W,1,14,0.7,-00.47,M,-16.8,M,,*4D
$GPGGA,222356.000,4911.15724,N,12307.70918,W,1,14,0.7,-00.63,M,-16.8,M,,*4C
$GPGGA,222357.000,4911.15734,N,12307.71132,W,1,14,0.7,-00.83,M,-16.8,M,,*43
$GPGGA,222358.000,4911.15727,N,12307.71370,W,1,12,0.7,-00.94,M,-16.8,M,,*4A
$GPGGA,222359.000,4911.15732,N,12307.71603,W,1,12,0.7,-01.00,M,-16.8,M,,*42
$GPGGA,222400.000,4911.15737,N,12307.71829,W,1,12,0.7,-01.02,M,-16.8,M,,*48
$GPGGA,222401.000,4911.15726,N,12307.72075,W,1,11,0.7,-01.09,M,-16.8,M,,*43
$GPGGA,222402.000,4911.15716,N,12307.72322,W,1,12,0.7,-01.16,M,-16.8,M,,*4F
$GPGGA,222403.000,4911.15710,N,12307.72542,W,1,12,0.7,-01.22,M,-16.8,M,,*4F
$GPGGA,222404.000,4911.15721,N,12307.72701,W,1,12,0.7,-01.37,M,-16.8,M,,*4B
$GPGGA,222405.000,4911.15722,N,12307.72840,W,1,11,0.7,-01.39,M,-16.8,M,,*4E
$GPGGA,222406.000,4911.15740,N,12307.72973,W,1,12,0.7,-01.62,M,-16.8,M,,*45
$GPGGA,222407.000,4911.15744,N,12307.73086,W,1,12,0.7,-01.65,M,-16.8,M,,*45
$GPGGA,222408.000,4911.15750,N,12307.73193,W,1,12,0.7,-01.62,M,-16.8,M,,*4D
$GPGGA,222409.000,4911.15767,N,12307.73325,W,1,12,0.7,-01.72,M,-16.8,M,,*46
$GPGGA,222410.000,4911.15770,N,12307.73481,W,1,12,0.7,-01.64,M,-16.8,M,,*46
$GPGGA,222411.000,4911.15751,N,12307.73646,W,1,12,0.7,-01.57,M,-16.8,M,,*4D
$GPGGA,222412.000,4911.15709,N,12307.73766,W,1,12,0.7,-01.32,M,-16.8,M,,*43
$GPGGA,222413.000,4911.15663,N,12307.73833,W,1,12,0.7,-01.13,M,-16.8,M,,*43
$GPGGA,222414.000,4911.15610,N,12307.73878,W,1,11,0.7,-01.12,M,-16.8,M,,*4D
$GPGGA,222415.000,4911.15575,N,12307.73933,W,1,11,0.7,-01.20,M,-16.8,M,,*43
$GPGGA,222416.000,4911.15531,N,12307.73971,W,1,12,0.7,-00.90,M,-16.8,M,,*4F
$GPGGA,222417.000,4911.15516,N,12307.73966,W,1,12,0.7,-00.87,M,-16.8,M,,*4B
$GPGGA,222418.000,4911.15516,N,12307.73966,W,1,12,0.7,-00.87,M,-16.8,M,,*44
$GPGGA,222419.000,4911.15516,N,12307.73966,W,1,12,0.7,-00.87,M,-16.8,M,,*45
$GPGGA,222420.000,4911.15516,N,12307.73966,W,1,12,0.7,-00.87,M,-16.8,M,,*4F
$GPGGA,222421.000,4911.15516,N,12307.73966,W,1,11,0.8,-00.87,M,-16.8,M,,*42
$GPGGA,222422.000,4911.15516,N,12307.73966,W,1,10,0.8,-00.87,M,-16.8,M,,*40
$GPGGA,222423.000,4911.15516,N,12307.73966,W,1,11,0.8,-00.87,M,-16.8,M,,*40
$GPGGA,222424.000,4911.15516,N,12307.73966,W,1,12,0.7,-00.87,M,-16.8,M,,*4B
$GPGGA,222425.000,4911.15516,N,12307.73966,W,1,12,0.7,-00.87,M,-16.8,M,,*4A
$GPGGA,222426.000,4911.15516,N,12307.73966,W,1,12,0.7,-00.87,M,-16.8,M,,*49
$GPGGA,222427.000,4911.15516,N,12307.73966,W,1,12,0.7,-00.87,M,-16.8,M,,*48
$GPGGA,222428.000,4911.15516,N,12307.73966,W,1,11,0.8,-00.87,M,-16.8,M,,*4B
$GPGGA,222429.000,4911.15516,N,12307.73966,W,1,11,0.8,-00.87,M,-16.8,M,,*4A
$GPGGA,222430.000,4911.15516,N,12307.73966,W,1,12,0.7,-00.87,M,-16.8,M,,*4E
$GPGGA,222431.000,4911.15516,N,12307.73966,W,1,12,0.7,-00.87,M,-16.8,M,,*4F
$GPGGA,222432.000,4911.15516,N,12307.73966,W,1,12,0.7,-00.87,M,-16.8,M,,*4C
$GPGGA,222433.000,4911.15516,N,12307.73966,W,1,12,0.7,-00.87,M,-16.8,M,,*4D
$GPGGA,222434.000,4911.15516,N,12307.73966,W,1,12,0.7,-00.87,M,-16.8,M,,*4A
$GPGGA,222435.000,4911.15516,N,12307.73966,W,1,12,0.7,-00.87,M,-16.8,M,,*4B
$GPGGA,222436.000,4911.15516,N,12307.73966,W,1,12,0.7,-00.87,M,-16.8,M,,*48
$GPGGA,222437.000,4911.15516,N,12307.73966,W,1,12,0.7,-00.87,M,-16.8,M,,*49
$GPGGA,222438.000,4911.15516,N,12307.73966,W,1,11,0.8,-00.87,M,-16.8,M,,*4A
$GPGGA,222439.000,4911.15516,N,12307.73966,W,1,12,0.7,-00.87,M,-16.8,M,,*47
$GPGGA,222440.000,4911.15516,N,12307.73966,W,1,12,0.7,-00.87,M,-16.8,M,,*49
$GPGGA,222441.000,4911.15516,N,12307.73966,W,1,12,0.7,-00.87,M,-16.8,M,,*48
$GPGGA,222442.000,4911.15516,N,12307.73966,W,1,12,0.7,-00.87,M,-16.8,M,,*4B
$GPGGA,222443.000,4911.15516,N,12307.73966,W,1,12,0.7,-00.87,M,-16.8,M,,*4A
$GPGGA,222444.000,4911.15516,N,12307.73966,W,1,12,0.7,-00.87,M,-16.8,M,,*4D
$GPGGA,222445.000,4911.15516,N,12307.73966,W,1,12,0.7,-00.87,M,-16.8,M,,*4C
$GPGGA,222446.000,4911.15516,N,12307.73966,W,1,12,0.7,-00.87,M,-16.8,M,,*4F
$GPGGA,222447.000,4911.15516,N,12307.73966,W,1,12,0.7,-00.87,M,-16.8,M,,*4E
$GPGGA,222448.000,4911.15516,N,12307.73966,W,1,12,0.7,-00.87,M,-16.8,M,,*41
$GPGGA,222449.000,4911.15516,N,12307.73966,W,1,12,0.7,-00.87,M,-16.8,M,,*40
$GPGGA,222450.000,4911.15516,N,12307.73966,W,1,12,0.7,-00.87,M,-16.8,M,,*48
$GPGGA,222451.000,4911.15516,N,12307.73966,W,1,12,0.7,-00.87,M,-16.8,M,,*49
$GPGGA,222452.000,4911.15516,N,12307.73966,W,1,11,0.8,-00.87,M,-16.8,M,,*46
$GPGGA,222453.000,4911.15516,N,12307.73966,W,1,11,0.8,-00.87,M,-16.8,M,,*47
$GPGGA,222454.000,4911.15516,N,12307.73966,W,1,12,0.7,-00.87,M,-16.8,M,,*4C
$GPGGA,222455.000,4911.15516,N,12307.73966,W,1,11,0.8,-00.87,M,-16.8,M,,*41
$GPGGA,222456.000,4911.15516,N,12307.73966,W,1,12,0.7,-00.87,M,-16.8,M,,*4E
$GPGGA,222457.000,4911.15519,N,12307.73987,W,1,12,0.8,-01.57,M,-16.8,M,,*4C
$GPGGA,222458.000,4911.15519,N,12307.73987,W,1,11,0.8,-01.57,M,-16.8,M,,*40
$GPGGA,222459.000,4911.15519,N,12307.73987,W,1,11,0.8,-01.57,M,-16.8,M,,*41
$GPGGA,222500.000,4911.15519,N,12307.73987,W,1,11,0.8,-01.57,M,-16.8,M,,*4C
$GPGGA,222501.000,4911.15519,N,12307.73987,W,1,11,0.8,-01.57,M,-16.8,M,,*4D
$GPGGA,222502.000,4911.15519,N,12307.73987,W,1,11,0.8,-01.57,M,-16.8,M,,*4E
$GPGGA,222503.000,4911.15519,N,12307.73987,W,1,12,0.7,-01.57,M,-16.8,M,,*43
$GPGGA,222504.000,4911.15519,N,12307.73987,W,1,12,0.7,-01.57,M,-16.8,M,,*44
$GPGGA,222505.000,4911.15519,N,12307.73987,W,1,12,0.7,-01.57,M,-16.8,M,,*45
$GPGGA,222506.000,4911.15519,N,12307.73987,W,1,12,0.7,-01.57,M,-16.8,M,,*46
$GPGGA,222507.000,4911.15519,N,12307.73987,W,1,11,0.8,-01.57,M,-16.8,M,,*4B
$GPGGA,222508.000,4911.15519,N,12307.73987,W,1,11,0.7,-01.57,M,-16.8,M,,*4B
$GPGGA,222509.000,4911.15519,N,12307.73987,W,1,11,0.7,-01.57,M,-16.8,M,,*4A
$GPGGA,222510.000,4911.15519,N,12307.73987,W,1,11,0.8,-01.57,M,-16.8,M,,*4D
$GPGGA,222511.000,4911.15519,N,12307.73987,W,1,12,0.7,-01.57,M,-16.8,M,,*40
$GPGGA,222512.000,4911.15519,N,12307.73987,W,1,10,0.8,-01.57,M,-16.8,M,,*4E
$GPGGA,222513.000,4911.15519,N,12307.73987,W,1,11,0.8,-01.57,M,-16.8,M,,*4E
$GPGGA,222514.000,4911.15519,N,12307.73987,W,1,12,0.7,-01.57,M,-16.8,M,,*45
$GPGGA,222515.000,4911.15519,N,12307.73987,W,1,12,0.7,-01.57,M,-16.8,M,,*44
$GPGGA,222516.000,4911.15519,N,12307.73987,W,1,11,0.7,-01.57,M,-16.8,M,,*44
$GPGGA,222517.000,4911.15519,N,12307.73987,W,1,11,0.7,-01.57,M,-16.8,M,,*45
$GPGGA,222518.000,4911.15519,N,12307.73987,W,1,11,0.7,-01.57,M,-16.8,M,,*4A
$GPGGA,222519.000,4911.15519,N,12307.73987,W,1,10,0.8,-01.57,M,-16.8,M,,*45
$GPGGA,222520.000,4911.15519,N,12307.73987,W,1,11,0.7,-01.57,M,-16.8,M,,*41
$GPGGA,222521.000,4911.15519,N,12307.73987,W,1,11,0.7,-01.57,M,-16.8,M,,*40
$GPGGA,222522.000,4911.15519,N,12307.73987,W,1,11,0.7,-01.57,M,-16.8,M,,*43
$GPGGA,222523.000,4911.15519,N,12307.73987,W,1,12,0.7,-01.57,M,-16.8,M,,*41
$GPGGA,222524.000,4911.15519,N,12307.73987,W,1,11,0.8,-01.57,M,-16.8,M,,*4A
$GPGGA,222525.000,4911.15519,N,12307.73987,W,1,13,0.8,-01.57,M,-16.8,M,,*49
$GPGGA,222526.000,4911.15519,N,12307.73987,W,1,12,0.8,-01.57,M,-16.8,M,,*4B
$GPGGA,222527.000,4911.15519,N,12307.73987,W,1,11,0.8,-01.57,M,-16.8,M,,*49
$GPGGA,222528.000,4911.15519,N,12307.73987,W,1,12,0.7,-01.57,M,-16.8,M,,*4A
$GPGGA,222529.000,4911.15519,N,12307.73987,W,1,11,0.8,-01.57,M,-16.8,M,,*47
$GPGGA,222530.000,4911.15519,N,12307.73987,W,1,11,0.8,-01.57,M,-16.8,M,,*4F
$GPGGA,222531.000,4911.15519,N,12307.73987,W,1,11,0.8,-01.57,M,-16.8,M,,*4E
$GPGGA,222532.000,4911.15519,N,12307.73987,W,1,11,0.8,-01.57,M,-16.8,M,,*4D
$GPGGA,222533.000,4911.15519,N,12307.73987,W,1,11,0.8,-01.57,M,-16.8,M,,*4C
$GPGGA,222534.000,4911.15519,N,12307.73987,W,1,11,0.8,-01.57,M,-16.8,M,,*4B
$GPGGA,222535.000,4911.15519,N,12307.73987,W,1,11,0.8,-01.57,M,-16.8,M,,*4A
$GPGGA,222536.000,4911.15519,N,12307.73987,W,1,11,0.8,-01.57,M,-16.8,M,,*49
$GPGGA,222537.000,4911.15497,N,12307.74011,W,1,12,0.8,-02.58,M,-16.8,M,,*41
$GPGGA,222538.000,4911.15497,N,12307.74011,W,1,11,0.8,-02.58,M,-16.8,M,,*4D
$GPGGA,222539.000,4911.15497,N,12307.74011,W,1,11,0.8,-02.58,M,-16.8,M,,*4C
$GPGGA,222540.000,4911.15497,N,12307.74011,W,1,11,0.8,-02.58,M,-16.8,M,,*42
$GPGGA,222541.000,4911.15497,N,12307.74011,W,1,11,0.8,-02.58,M,-16.8,M,,*43
$GPGGA,222542.000,4911.15497,N,12307.74011,W,1,11,0.8,-02.58,M,-16.8,M,,*40
$GPGGA,222543.000,4911.15497,N,12307.74011,W,1,12,0.8,-02.58,M,-16.8,M,,*42
$GPGGA,222544.000,4911.15497,N,12307.74011,W,1,11,0.8,-02.58,M,-16.8,M,,*46
$GPGGA,222545.000,4911.15497,N,12307.74011,W,1,11,0.8,-02.58,M,-16.8,M,,*47
$GPGGA,222546.000,4911.15497,N,12307.74011,W,1,11,0.8,-02.58,M,-16.8,M,,*44
$GPGGA,222547.000,4911.15497,N,12307.74011,W,1,11,0.8,-02.58,M,-16.8,M,,*45
$GPGGA,222548.000,4911.15497,N,12307.74011,W,1,10,0.8,-02.58,M,-16.8,M,,*4B
$GPGGA,222549.000,4911.15497,N,12307.74011,W,1,11,0.8,-02.58,M,-16.8,M,,*4B
$GPGGA,222550.000,4911.15497,N,12307.74011,W,1,11,0.8,-02.58,M,-16.8,M,,*43
$GPGGA,222551.000,4911.15497,N,12307.74011,W,1,12,0.8,-02.58,M,-16.8,M,,*41
$GPGGA,222552.000,4911.15497,N,12307.74011,W,1,12,0.8,-02.58,M,-16.8,M,,*42
$GPGGA,222553.000,4911.15497,N,12307.74011,W,1,12,0.8,-02.58,M,-16.8,M,,*43
$GPGGA,222554.000,4911.15497,N,12307.74011,W,1,12,0.8,-02.58,M,-16.8,M,,*44
$GPGGA,222555.000,4911.15497,N,12307.74011,W,1,12,0.8,-02.58,M,-16.8,M,,*45
$GPGGA,222556.000,4911.15497,N,12307.74011,W,1,12,0.8,-02.58,M,-16.8,M,,*46
$GPGGA,222557.000,4911.15497,N,12307.74011,W,1,12,0.8,-02.58,M,-16.8,M,,*47
$GPGGA,222558.000,4911.15497,N,12307.74011,W,1,12,0.8,-02.58,M,-16.8,M,,*48
$GPGGA,222559.000,4911.15497,N,12307.74011,W,1,12,0.8,-02.58,M,-16.8,M,,*49
$GPGGA,222600.000,4911.15497,N,12307.74011,W,1,12,0.8,-02.58,M,-16.8,M,,*46
$GPGGA,222601.000,4911.15497,N,12307.74011,W,1,12,0.8,-02.58,M,-16.8,M,,*47
$GPGGA,222602.000,4911.15497,N,12307.74011,W,1,12,0.8,-02.58,M,-16.8,M,,*44
$GPGGA,222603.000,4911.15497,N,12307.74011,W,1,12,0.8,-02.58,M,-16.8,M,,*45
$GPGGA,222604.000,4911.15497,N,12307.74011,W,1,12,0.8,-02.58,M,-16.8,M,,*42
$GPGGA,222605.000,4911.15497,N,12307.74011,W,1,12,0.8,-02.58,M,-16.8,M,,*43
$GPGGA,222606.000,4911.15497,N,12307.74011,W,1,12,0.8,-02.58,M,-16.8,M,,*40
$GPGGA,222607.000,4911.15497,N,12307.74011,W,1,12,0.8,-02.58,M,-16.8,M,,*41
$GPGGA,222608.000,4911.15497,N,12307.74011,W,1,11,0.8,-02.58,M,-16.8,M,,*4D
$GPGGA,222609.000,4911.15497,N,12307.74011,W,1,11,0.8,-02.58,M,-16.8,M,,*4C
$GPGGA,222610.000,4911.15497,N,12307.74011,W,1,12,0.8,-02.58,M,-16.8,M,,*47
$GPGGA,222611.000,4911.15497,N,12307.74011,W,1,11,0.8,-02.58,M,-16.8,M,,*45
$GPGGA,222612.000,4911.15497,N,12307.74011,W,1,12,0.8,-02.58,M,-16.8,M,,*45
$GPGGA,222613.000,4911.15497,N,12307.74011,W,1,11,0.8,-02.58,M,-16.8,M,,*47
$GPGGA,222614.000,4911.15497,N,12307.74011,W,1,11,0.8,-02.58,M,-16.8,M,,*40
$GPGGA,222615.000,4911.15497,N,12307.74011,W,1,13,0.8,-02.58,M,-16.8,M,,*43
$GPGGA,222616.000,4911.15497,N,12307.74011,W,1,13,0.8,-02.58,M,-16.8,M,,*40
$GPGGA,222617.000,4911.15477,N,12307.74044,W,1,13,0.8,-01.90,M,-16.8,M,,*48
$GPGGA,222618.000,4911.15477,N,12307.74044,W,1,12,0.8,-01.90,M,-16.8,M,,*46
$GPGGA,222619.000,4911.15477,N,12307.74044,W,1,12,0.8,-01.90,M,-16.8,M,,*47
$GPGGA,222620.000,4911.15477,N,12307.74044,W,1,12,0.8,-01.90,M,-16.8,M,,*4D
$GPGGA,222621.000,4911.15477,N,12307.74044,W,1,12,0.8,-01.90,M,-16.8,M,,*4C
$GPGGA,222622.000,4911.15477,N,12307.74044,W,1,11,0.8,-01.90,M,-16.8,M,,*4C
$GPGGA,222623.000,4911.15477,N,12307.74044,W,1,12,0.8,-01.90,M,-16.8,M,,*4E
$GPGGA,222624.000,4911.15477,N,12307.74044,W,1,12,0.8,-01.90,M,-16.8,M,,*49
$GPGGA,222625.000,4911.15477,N,12307.74044,W,1,12,0.8,-01.90,M,-16.8,M,,*48
$GPGGA,222626.000,4911.15477,N,12307.74044,W,1,12,0.8,-01.90,M,-16.8,M,,*4B
$GPGGA,222627.000,4911.15477,N,12307.74044,W,1,12,0.8,-01.90,M,-16.8,M,,*4A
$GPGGA,222628.000,4911.15477,N,12307.74044,W,1,12,0.8,-01.90,M,-16.8,M,,*45
$GPGGA,222629.000,4911.15477,N,12307.74044,W,1,11,0.8,-01.90,M,-16.8,M,,*47
$GPGGA,222630.000,4911.15477,N,12307.74044,W,1,11,0.8,-01.90,M,-16.8,M,,*4F
$GPGGA,222631.000,4911.15477,N,12307.74044,W,1,11,0.8,-01.90,M,-16.8,M,,*4E
$GPGGA,222632.000,4911.15477,N,12307.74044,W,1,11,0.8,-01.90,M,-16.8,M,,*4D
$GPGGA,222633.000,4911.15477,N,12307.74044,W,1,12,0.8,-01.90,M,-16.8,M,,*4F
$GPGGA,222634.000,4911.15477,N,12307.74044,W,1,12,0.8,-01.90,M,-16.8,M,,*48
$GPGGA,222635.000,4911.15477,N,12307.74044,W,1,12,0.8,-01.90,M,-16.8,M,,*49
$GPGGA,222636.000,4911.15477,N,12307.74044,W,1,12,0.8,-01.90,M,-16.8,M,,*4A
$GPGGA,222637.000,4911.15477,N,12307.74044,W,1,12,0.8,-01.90,M,-16.8,M,,*4B
$GPGGA,222638.000,4911.15477,N,12307.74044,W,1,12,0.8,-01.90,M,-16.8,M,,*44
$GPGGA,222639.000,4911.15477,N,12307.74044,W,1,11,0.8,-01.90,M,-16.8,M,,*46
$GPGGA,222640.000,4911.15477,N,12307.74044,W,1,11,0.8,-01.90,M,-16.8,M,,*48
$GPGGA,222641.000,4911.15477,N,12307.74044,W,1,12,0.8,-01.90,M,-16.8,M,,*4A
$GPGGA,222642.000,4911.15477,N,12307.74044,W,1,11,0.8,-01.90,M,-16.8,M,,*4A
$GPGGA,222643.000,4911.15477,N,12307.74044,W,1,12,0.8,-01.90,M,-16.8,M,,*48
$GPGGA,222644.000,4911.15477,N,12307.74044,W,1,11,0.8,-01.90,M,-16.8,M,,*4C
$GPGGA,222645.000,4911.15477,N,12307.74044,W,1,11,0.8,-01.90,M,-16.8,M,,*4D
$GPGGA,222646.000,4911.15477,N,12307.74044,W,1,11,0.8,-01.90,M,-16.8,M,,*4E
$GPGGA,222647.000,4911.15477,N,12307.74044,W,1,11,0.8,-01.90,M,-16.8,M,,*4F
$GPGGA,222648.000,4911.15477,N,12307.74044,W,1,11,0.8,-01.90,M,-16.8,M,,*40
$GPGGA,222649.000,4911.15477,N,12307.74044,W,1,11,0.8,-01.90,M,-16.8,M,,*41
$GPGGA,222650.000,4911.15477,N,12307.74044,W,1,11,0.7,-01.90,M,-16.8,M,,*46
$GPGGA,222651.000,4911.15477,N,12307.74044,W,1,13,0.7,-01.90,M,-16.8,M,,*45
$GPGGA,222652.000,4911.15477,N,12307.74044,W,1,12,0.8,-01.90,M,-16.8,M,,*48
$GPGGA,222653.000,4911.15477,N,12307.74044,W,1,13,0.7,-01.90,M,-16.8,M,,*47
$GPGGA,222654.000,4911.15477,N,12307.74044,W,1,13,0.7,-01.90,M,-16.8,M,,*40
$GPGGA,222655.000,4911.15477,N,12307.74044,W,1,12,0.8,-01.90,M,-16.8,M,,*4F
$GPGGA,222656.000,4911.15477,N,12307.74044,W,1,13,0.7,-01.90,M,-16.8,M,,*42
$GPGGA,222657.000,4911.15451,N,12307.74141,W,1,13,0.7,-01.09,M,-16.8,M,,*43
$GPGGA,222658.000,4911.15451,N,12307.74141,W,1,13,0.7,-01.09,M,-16.8,M,,*4C
$GPGGA,222659.000,4911.15451,N,12307.74141,W,1,11,0.8,-01.09,M,-16.8,M,,*40
$GPGGA,222700.000,4911.15451,N,12307.74141,W,1,11,0.8,-01.09,M,-16.8,M,,*4D
$GPGGA,222701.000,4911.15451,N,12307.74141,W,1,11,0.8,-01.09,M,-16.8,M,,*4C
$GPGGA,222702.000,4911.15451,N,12307.74141,W,1,12,0.7,-01.09,M,-16.8,M,,*43
$GPGGA,222703.000,4911.15451,N,12307.74141,W,1,12,0.7,-01.09,M,-16.8,M,,*42
$GPGGA,222704.000,4911.15451,N,12307.74141,W,1,12,0.7,-01.09,M,-16.8,M,,*45
$GPGGA,222705.000,4911.15451,N,12307.74141,W,1,13,0.7,-01.09,M,-16.8,M,,*45
$GPGGA,222706.000,4911.15451,N,12307.74141,W,1,13,0.7,-01.09,M,-16.8,M,,*46
$GPGGA,222707.000,4911.15451,N,12307.74141,W,1,13,0.7,-01.09,M,-16.8,M,,*47
$GPGGA,222708.000,4911.15451,N,12307.74141,W,1,13,0.7,-01.09,M,-16.8,M,,*48
$GPGGA,222709.000,4911.15451,N,12307.74141,W,1,12,0.7,-01.09,M,-16.8,M,,*48
$GPGGA,222710.000,4911.15451,N,12307.74141,W,1,13,0.7,-01.09,M,-16.8,M,,*41
$GPGGA,222711.000,4911.15451,N,12307.74141,W,1,12,0.7,-01.09,M,-16.8,M,,*41
$GPGGA,222712.000,4911.15451,N,12307.74141,W,1,12,0.7,-01.09,M,-16.8,M,,*42
$GPGGA,222713.000,4911.15451,N,12307.74141,W,1,12,0.8,-01.09,M,-16.8,M,,*4C
$GPGGA,222714.000,4911.15451,N,12307.74141,W,1,12,0.8,-01.09,M,-16.8,M,,*4B
$GPGGA,222715.000,4911.15451,N,12307.74141,W,1,13,0.7,-01.09,M,-16.8,M,,*44
$GPGGA,222716.000,4911.15451,N,12307.74141,W,1,13,0.7,-01.09,M,-16.8,M,,*47
$GPGGA,222717.000,4911.15451,N,12307.74141,W,1,13,0.7,-01.09,M,-16.8,M,,*46
$GPGGA,222718.000,4911.15451,N,12307.74141,W,1,13,0.7,-01.09,M,-16.8,M,,*49
$GPGGA,222719.000,4911.15451,N,12307.74141,W,1,13,0.7,-01.09,M,-16.8,M,,*48
$GPGGA,222720.000,4911.15451,N,12307.74141,W,1,12,0.7,-01.09,M,-16.8,M,,*43
$GPGGA,222721.000,4911.15451,N,12307.74141,W,1,12,0.7,-01.09,M,-16.8,M,,*42
$GPGGA,222722.000,4911.15451,N,12307.74141,W,1,13,0.7,-01.09,M,-16.8,M,,*40
$GPGGA,222723.000,4911.15451,N,12307.74141,W,1,12,0.7,-01.09,M,-16.8,M,,*40
$GPGGA,222724.000,4911.15451,N,12307.74141,W,1,12,0.7,-01.09,M,-16.8,M,,*47
$GPGGA,222725.000,4911.15451,N,12307.74141,W,1,13,0.7,-01.09,M,-16.8,M,,*47
$GPGGA,222726.000,4911.15451,N,12307.74141,W,1,12,0.7,-01.09,M,-16.8,M,,*45
$GPGGA,222727.000,4911.15451,N,12307.74141,W,1,13,0.7,-01.09,M,-16.8,M,,*45
$GPGGA,222728.000,4911.15451,N,12307.74141,W,1,13,0.7,-01.09,M,-16.8,M,,*4A
$GPGGA,222729.000,4911.15451,N,12307.74141,W,1,13,0.7,-01.09,M,-16.8,M,,*4B
$GPGGA,222730.000,4911.15451,N,12307.74141,W,1,13,0.7,-01.09,M,-16.8,M,,*43
$GPGGA,222731.000,4911.15451,N,12307.74141,W,1,13,0.7,-01.09,M,-16.8,M,,*42
$GPGGA,222732.000,4911.15451,N,12307.74141,W,1,12,0.7,-01.09,M,-16.8,M,,*40
$GPGGA,222733.000,4911.15451,N,12307.74141,W,1,13,0.7,-01.09,M,-16.8,M,,*40
$GPGGA,222734.000,4911.15451,N,12307.74141,W,1,12,0.7,-01.09,M,-16.8,M,,*46
$GPGGA,222735.000,4911.15451,N,12307.74141,W,1,12,0.7,-01.09,M,-16.8,M,,*47
$GPGGA,222736.000,4911.15451,N,12307.74141,W,1,12,0.7,-01.09,M,-16.8,M,,*44
$GPGGA,222737.000,4911.15440,N,12307.74170,W,1,12,0.7,-01.17,M,-16.8,M,,*48
$GPGGA,222738.000,4911.15440,N,12307.74170,W,1,12,0.8,-01.17,M,-16.8,M,,*48
$GPGGA,222739.000,4911.15440,N,12307.74170,W,1,11,0.8,-01.17,M,-16.8,M,,*4A
$GPGGA,222740.000,4911.15440,N,12307.74170,W,1,13,0.7,-01.17,M,-16.8,M,,*49
$GPGGA,222741.000,4911.15440,N,12307.74170,W,1,12,0.7,-01.17,M,-16.8,M,,*49
$GPGGA,222742.000,4911.15440,N,12307.74170,W,1,13,0.7,-01.17,M,-16.8,M,,*4B
$GPGGA,222743.000,4911.15440,N,12307.74170,W,1,13,0.7,-01.17,M,-16.8,M,,*4A
$GPGGA,222744.000,4911.15440,N,12307.74170,W,1,13,0.7,-01.17,M,-16.8,M,,*4D
$GPGGA,222745.000,4911.15440,N,12307.74170,W,1,13,0.7,-01.17,M,-16.8,M,,*4C
$GPGGA,222746.000,4911.15440,N,12307.74170,W,1,13,0.7,-01.17,M,-16.8,M,,*4F
$GPGGA,222747.000,4911.15440,N,12307.74170,W,1,13,0.7,-01.17,M,-16.8,M,,*4E
$GPGGA,222748.000,4911.15440,N,12307.74170,W,1,13,0.7,-01.17,M,-16.8,M,,*41
$GPGGA,222749.000,4911.15440,N,12307.74170,W,1,13,0.7,-01.17,M,-16.8,M,,*40
$GPGGA,222750.000,4911.15440,N,12307.74170,W,1,13,0.7,-01.17,M,-16.8,M,,*48
$GPGGA,222751.000,4911.15440,N,12307.74170,W,1,12,0.7,-01.17,M,-16.8,M,,*48
$GPGGA,222752.000,4911.15440,N,12307.74170,W,1,12,0.7,-01.17,M,-16.8,M,,*4B
$GPGGA,222753.000,4911.15440,N,12307.74170,W,1,12,0.7,-01.17,M,-16.8,M,,*4A
$GPGGA,222754.000,4911.15440,N,12307.74170,W,1,13,0.7,-01.17,M,-16.8,M,,*4C
$GPGGA,222755.000,4911.15440,N,12307.74170,W,1,13,0.7,-01.17,M,-16.8,M,,*4D
$GPGGA,222756.000,4911.15440,N,12307.74170,W,1,13,0.7,-01.17,M,-16.8,M,,*4E
$GPGGA,222757.000,4911.15440,N,12307.74170,W,1,13,0.7,-01.17,M,-16.8,M,,*4F
$GPGGA,222758.000,4911.15440,N,12307.74170,W,1,13,0.7,-01.17,M,-16.8,M,,*40
$GPGGA,222759.000,4911.15440,N,12307.74170,W,1,12,0.7,-01.17,M,-16.8,M,,*40
$GPGGA,222800.000,4911.15440,N,12307.74170,W,1,12,0.7,-01.17,M,-16.8,M,,*43
$GPGGA,222801.000,4911.15440,N,12307.74170,W,1,12,0.7,-01.17,M,-16.8,M,,*42
$GPGGA,222802.000,4911.15440,N,12307.74170,W,1,13,0.7,-01.17,M,-16.8,M,,*40
$GPGGA,222803.000,4911.15440,N,12307.74170,W,1,13,0.7,-01.17,M,-16.8,M,,*41
$GPGGA,222804.000,4911.15440,N,12307.74170,W,1,13,0.7,-01.17,M,-16.8,M,,*46
$GPGGA,222805.000,4911.15440,N,12307.74170,W,1,12,0.8,-01.17,M,-16.8,M,,*49
$GPGGA,222806.000,4911.15440,N,12307.74170,W,1,12,0.8,-01.17,M,-16.8,M,,*4A
$GPGGA,222807.000,4911.15440,N,12307.74170,W,1,12,0.7,-01.17,M,-16.8,M,,*44
$GPGGA,222808.000,4911.15440,N,12307.74170,W,1,13,0.7,-01.17,M,-16.8,M,,*4A
$GPGGA,222809.000,4911.15440,N,12307.74170,W,1,13,0.7,-01.17,M,-16.8,M,,*4B
$GPGGA,222810.000,4911.15440,N,12307.74170,W,1,13,0.7,-01.17,M,-16.8,M,,*43
$GPGGA,222811.000,4911.15440,N,12307.74170,W,1,13,0.7,-01.17,M,-16.8,M,,*42
$GPGGA,222812.000,4911.15440,N,12307.74170,W,1,13,0.7,-01.17,M,-16.8,M,,*41
$GPGGA,222813.000,4911.15440,N,12307.74170,W,1,13,0.7,-01.17,M,-16.8,M,,*40
$GPGGA,222814.000,4911.15440,N,12307.74170,W,1,13,0.8,-01.17,M,-16.8,M,,*48
$GPGGA,222815.000,4911.15440,N,12307.74170,W,1,13,0.7,-01.17,M,-16.8,M,,*46
$GPGGA,222816.000,4911.15440,N,12307.74170,W,1,14,0.7,-01.17,M,-16.8,M,,*42
$GPGGA,222817.000,4911.15406,N,12307.74230,W,1,14,0.7,-00.78,M,-16.8,M,,*4E
$GPGGA,222818.000,4911.15406,N,12307.74230,W,1,13,0.7,-00.78,M,-16.8,M,,*46
$GPGGA,222819.000,4911.15406,N,12307.74230,W,1,13,0.7,-00.78,M,-16.8,M,,*47
$GPGGA,222820.000,4911.15406,N,12307.74230,W,1,13,0.7,-00.78,M,-16.8,M,,*4D
$GPGGA,222821.000,4911.15406,N,12307.74230,W,1,13,0.7,-00.78,M,-16.8,M,,*4C
$GPGGA,222822.000,4911.15406,N,12307.74230,W,1,13,0.7,-00.78,M,-16.8,M,,*4F
$GPGGA,222823.000,4911.15406,N,12307.74230,W,1,13,0.7,-00.78,M,-16.8,M,,*4E
$GPGGA,222824.000,4911.15406,N,12307.74230,W,1,12,0.7,-00.78,M,-16.8,M,,*48
$GPGGA,222825.000,4911.15406,N,12307.74230,W,1,13,0.7,-00.78,M,-16.8,M,,*48
$GPGGA,222826.000,4911.15406,N,12307.74230,W,1,13,0.7,-00.78,M,-16.8,M,,*4B
$GPGGA,222827.000,4911.15406,N,12307.74230,W,1,13,0.7,-00.78,M,-16.8,M,,*4A
$GPGGA,222828.000,4911.15406,N,12307.74230,W,1,12,0.8,-00.78,M,-16.8,M,,*4B
$GPGGA,222829.000,4911.15406,N,12307.74230,W,1,12,0.8,-00.78,M,-16.8,M,,*4A
$GPGGA,222830.000,4911.15406,N,12307.74230,W,1,13,0.7,-00.78,M,-16.8,M,,*4C
$GPGGA,222831.000,4911.15406,N,12307.74230,W,1,12,0.7,-00.78,M,-16.8,M,,*4C
$GPGGA,222832.000,4911.15406,N,12307.74230,W,1,12,0.7,-00.78,M,-16.8,M,,*4F
$GPGGA,222833.000,4911.15406,N,12307.74230,W,1,13,0.7,-00.78,M,-16.8,M,,*4F
$GPGGA,222834.000,4911.15406,N,12307.74230,W,1,13,0.7,-00.78,M,-16.8,M,,*48
$GPGGA,222835.000,4911.15406,N,12307.74230,W,1,13,0.7,-00.78,M,-16.8,M,,*49
$GPGGA,222836.000,4911.15406,N,12307.74230,W,1,12,0.7,-00.78,M,-16.8,M,,*4B
$GPGGA,222837.000,4911.15406,N,12307.74230,W,1,12,0.7,-00.78,M,-16.8,M,,*4A
$GPGGA,222838.000,4911.15406,N,12307.74230,W,1,12,0.7,-00.78,M,-16.8,M,,*45
$GPGGA,222839.000,4911.15406,N,12307.74230,W,1,13,0.7,-00.78,M,-16.8,M,,*45
$GPGGA,222840.000,4911.15406,N,12307.74230,W,1,12,0.7,-00.78,M,-16.8,M,,*4A
$GPGGA,222841.000,4911.15406,N,12307.74230,W,1,13,0.7,-00.78,M,-16.8,M,,*4A
$GPGGA,222842.000,4911.15406,N,12307.74230,W,1,13,0.7,-00.78,M,-16.8,M,,*49
$GPGGA,222843.000,4911.15406,N,12307.74230,W,1,13,0.7,-00.78,M,-16.8,M,,*48
$GPGGA,222844.000,4911.15406,N,12307.74230,W,1,12,0.7,-00.78,M,-16.8,M,,*4E
$GPGGA,222845.000,4911.15406,N,12307.74230,W,1,13,0.7,-00.78,M,-16.8,M,,*4E
$GPGGA,222846.000,4911.15406,N,12307.74230,W,1,13,0.7,-00.78,M,-16.8,M,,*4D
$GPGGA,222847.000,4911.15406,N,12307.74230,W,1,14,0.7,-00.78,M,-16.8,M,,*4B
$GPGGA,222848.000,4911.15406,N,12307.74230,W,1,13,0.8,-00.78,M,-16.8,M,,*4C
$GPGGA,222849.000,4911.15406,N,12307.74230,W,1,13,0.8,-00.78,M,-16.8,M,,*4D
$GPGGA,222850.000,4911.15406,N,12307.74230,W,1,13,0.7,-00.78,M,-16.8,M,,*4A
$GPGGA,222851.000,4911.15406,N,12307.74230,W,1,13,0.7,-00.78,M,-16.8,M,,*4B
$GPGGA,222852.000,4911.15406,N,12307.74230,W,1,12,0.7,-00.78,M,-16.8,M,,*49
$GPGGA,222853.000,4911.15406,N,12307.74230,W,1,12,0.7,-00.78,M,-16.8,M,,*48
$GPGGA,222854.000,4911.15406,N,12307.74230,W,1,13,0.7,-00.78,M,-16.8,M,,*4E
$GPGGA,222855.000,4911.15406,N,12307.74230,W,1,13,0.7,-00.78,M,-16.8,M,,*4F
$GPGGA,222856.000,4911.15406,N,12307.74230,W,1,13,0.7,-00.78,M,-16.8,M,,*4C
$GPGGA,222857.000,4911.15405,N,12307.74246,W,1,13,0.7,-00.87,M,-16.8,M,,*4F
$GPGGA,222858.000,4911.15405,N,12307.74246,W,1,13,0.7,-00.87,M,-16.8,M,,*40
$GPGGA,222859.000,4911.15405,N,12307.74246,W,1,13,0.7,-00.87,M,-16.8,M,,*41
$GPGGA,222900.000,4911.15405,N,12307.74246,W,1,13,0.7,-00.87,M,-16.8,M,,*4C
$GPGGA,222901.000,4911.15405,N,12307.74246,W,1,13,0.7,-00.87,M,-16.8,M,,*4D
$GPGGA,222902.000,4911.15405,N,12307.74246,W,1,13,0.7,-00.87,M,-16.8,M,,*4E
$GPGGA,222903.000,4911.15405,N,12307.74246,W,1,13,0.7,-00.87,M,-16.8,M,,*4F
$GPGGA,222904.000,4911.15405,N,12307.74246,W,1,13,0.7,-00.87,M,-16.8,M,,*48
$GPGGA,222905.000,4911.15405,N,12307.74246,W,1,13,0.7,-00.87,M,-16.8,M,,*49
$GPGGA,222906.000,4911.15405,N,12307.74246,W,1,12,0.7,-00.87,M,-16.8,M,,*4B
$GPGGA,222907.000,4911.15405,N,12307.74246,W,1,11,0.7,-00.87,M,-16.8,M,,*49
$GPGGA,222908.000,4911.15405,N,12307.74246,W,1,12,0.7,-00.87,M,-16.8,M,,*45
$GPGGA,222909.000,4911.15405,N,12307.74246,W,1,12,0.8,-00.87,M,-16.8,M,,*4B
$GPGGA,222910.000,4911.15405,N,12307.74246,W,1,12,0.7,-00.87,M,-16.8,M,,*4C
$GPGGA,222911.000,4911.15405,N,12307.74246,W,1,12,0.7,-00.87,M,-16.8,M,,*4D
$GPGGA,222912.000,4911.15405,N,12307.74246,W,1,11,0.7,-00.87,M,-16.8,M,,*4D
$GPGGA,222913.000,4911.15405,N,12307.74246,W,1,10,0.7,-00.87,M,-16.8,M,,*4D
$GPGGA,222914.000,4911.15405,N,12307.74246,W,1,12,0.7,-00.87,M,-16.8,M,,*48
$GPGGA,222915.000,4911.15405,N,12307.74246,W,1,12,0.7,-00.87,M,-16.8,M,,*49
$GPGGA,222916.000,4911.15405,N,12307.74246,W,1,12,0.7,-00.87,M,-16.8,M,,*4A
$GPGGA,222917.000,4911.15405,N,12307.74246,W,1,13,0.7,-00.87,M,-16.8,M,,*4A
$GPGGA,222918.000,4911.15405,N,12307.74246,W,1,13,0.7,-00.87,M,-16.8,M,,*45
$GPGGA,222919.000,4911.15405,N,12307.74246,W,1,12,0.7,-00.87,M,-16.8,M,,*45
$GPGGA,222920.000,4911.15405,N,12307.74246,W,1,13,0.7,-00.87,M,-16.8,M,,*4E
$GPGGA,222921.000,4911.15405,N,12307.74246,W,1,13,0.7,-00.87,M,-16.8,M,,*4F
$GPGGA,222922.000,4911.15405,N,12307.74246,W,1,13,0.7,-00.87,M,-16.8,M,,*4C
$GPGGA,222923.000,4911.15405,N,12307.74246,W,1,13,0.7,-00.87,M,-16.8,M,,*4D
$GPGGA,222924.000,4911.15405,N,12307.74246,W,1,13,0.7,-00.87,M,-16.8,M,,*4A
$GPGGA,222925.000,4911.15405,N,12307.74246,W,1,13,0.7,-00.87,M,-16.8,M,,*4B
$GPGGA,222926.000,4911.15405,N,12307.74246,W,1,13,0.7,-00.87,M,-16.8,M,,*48
$GPGGA,222927.000,4911.15405,N,12307.74246,W,1,13,0.7,-00.87,M,-16.8,M,,*49
$GPGGA,222928.000,4911.15405,N,12307.74246,W,1,13,0.7,-00.87,M,-16.8,M,,*46
$GPGGA,222929.000,4911.15405,N,12307.74246,W,1,13,0.7,-00.87,M,-16.8,M,,*47
$GPGGA,222930.000,4911.15405,N,12307.74246,W,1,12,0.7,-00.87,M,-16.8,M,,*4E
$GPGGA,222931.000,4911.15405,N,12307.74246,W,1,13,0.7,-00.87,M,-16.8,M,,*4E
$GPGGA,222932.000,4911.15405,N,12307.74246,W,1,13,0.7,-00.87,M,-16.8,M,,*4D
$GPGGA,222933.000,4911.15405,N,12307.74246,W,1,13,0.7,-00.87,M,-16.8,M,,*4C
$GPGGA,222934.000,4911.15405,N,12307.74246,W,1,13,0.7,-00.87,M,-16.8,M,,*4B
$GPGGA,222935.000,4911.15405,N,12307.74246,W,1,13,0.7,-00.87,M,-16.8,M,,*4A
$GPGGA,222936.000,4911.15405,N,12307.74246,W,1,12,0.7,-00.87,M,-16.8,M,,*48
$GPGGA,222937.000,4911.15435,N,12307.74243,W,1,12,0.7,-01.34,M,-16.8,M,,*46
$GPGGA,222938.000,4911.15435,N,12307.74243,W,1,13,0.7,-01.34,M,-16.8,M,,*48
$GPGGA,222939.000,4911.15435,N,12307.74243,W,1,12,0.7,-01.34,M,-16.8,M,,*48
$GPGGA,222940.000,4911.15435,N,12307.74243,W,1,12,0.7,-01.34,M,-16.8,M,,*46
$GPGGA,222941.000,4911.15435,N,12307.74243,W,1,13,0.7,-01.34,M,-16.8,M,,*46
$GPGGA,222942.000,4911.15435,N,12307.74243,W,1,13,0.7,-01.34,M,-16.8,M,,*45
$GPGGA,222943.000,4911.15435,N,12307.74243,W,1,13,0.7,-01.34,M,-16.8,M,,*44
$GPGGA,222944.000,4911.15435,N,12307.74243,W,1,13,0.7,-01.34,M,-16.8,M,,*43
$GPGGA,222945.000,4911.15435,N,12307.74243,W,1,13,0.7,-01.34,M,-16.8,M,,*42
$GPGGA,222946.000,4911.15435,N,12307.74243,W,1,13,0.7,-01.34,M,-16.8,M,,*41
$GPGGA,222947.000,4911.15435,N,12307.74243,W,1,13,0.7,-01.34,M,-16.8,M,,*40
$GPGGA,222948.000,4911.15435,N,12307.74243,W,1,13,0.7,-01.34,M,-16.8,M,,*4F
$GPGGA,222949.000,4911.15435,N,12307.74243,W,1,11,0.8,-01.34,M,-16.8,M,,*43
$GPGGA,222950.000,4911.15435,N,12307.74243,W,1,13,0.7,-01.34,M,-16.8,M,,*46
$GPGGA,222951.000,4911.15435,N,12307.74243,W,1,12,0.8,-01.34,M,-16.8,M,,*49
$GPGGA,222952.000,4911.15435,N,12307.74243,W,1,13,0.7,-01.34,M,-16.8,M,,*44
$GPGGA,222953.000,4911.15435,N,12307.74243,W,1,13,0.7,-01.34,M,-16.8,M,,*45
$GPGGA,222954.000,4911.15435,N,12307.74243,W,1,13,0.7,-01.34,M,-16.8,M,,*42
$GPGGA,222955.000,4911.15435,N,12307.74243,W,1,13,0.7,-01.34,M,-16.8,M,,*43
$GPGGA,222956.000,4911.15435,N,12307.74243,W,1,13,0.7,-01.34,M,-16.8,M,,*40
$GPGGA,222957.000,4911.15435,N,12307.74243,W,1,13,0.7,-01.34,M,-16.8,M,,*41
$GPGGA,222958.000,4911.15435,N,12307.74243,W,1,13,0.7,-01.34,M,-16.8,M,,*4E
$GPGGA,222959.000,4911.15435,N,12307.74243,W,1,13,0.7,-01.34,M,-16.8,M,,*4F
$GPGGA,223000.000,4911.15435,N,12307.74243,W,1,13,0.7,-01.34,M,-16.8,M,,*4B
$GPGGA,223001.000,4911.15435,N,12307.74243,W,1,13,0.7,-01.34,M,-16.8,M,,*4A
$GPGGA,223002.000,4911.15435,N,12307.74243,W,1,13,0.7,-01.34,M,-16.8,M,,*49
$GPGGA,223003.000,4911.15435,N,12307.74243,W,1,14,0.7,-01.34,M,-16.8,M,,*4F
$GPGGA,223004.000,4911.15435,N,12307.74243,W,1,13,0.7,-01.34,M,-16.8,M,,*4F
$GPGGA,223005.000,4911.15435,N,12307.74243,W,1,12,0.7,-01.34,M,-16.8,M,,*4F
$GPGGA,223006.000,4911.15435,N,12307.74243,W,1,13,0.7,-01.34,M,-16.8,M,,*4D
$GPGGA,223007.000,4911.15435,N,12307.74243,W,1,13,0.7,-01.34,M,-16.8,M,,*4C
$GPGGA,223008.000,4911.15435,N,12307.74243,W,1,13,0.7,-01.34,M,-16.8,M,,*43
$GPGGA,223009.000,4911.15435,N,12307.74243,W,1,13,0.7,-01.34,M,-16.8,M,,*42
$GPGGA,223010.000,4911.15435,N,12307.74243,W,1,13,0.7,-01.34,M,-16.8,M,,*4A
$GPGGA,223011.000,4911.15435,N,12307.74243,W,1,13,0.7,-01.34,M,-16.8,M,,*4B
$GPGGA,223012.000,4911.15435,N,12307.74243,W,1,13,0.7,-01.34,M,-16.8,M,,*48
$GPGGA,223013.000,4911.15435,N,12307.74243,W,1,13,0.7,-01.34,M,-16.8,M,,*49
$GPGGA,223014.000,4911.15435,N,12307.74243,W,1,13,0.7,-01.34,M,-16.8,M,,*4E
$GPGGA,223015.000,4911.15435,N,12307.74243,W,1,13,0.7,-01.34,M,-16.8,M,,*4F
$GPGGA,223016.000,4911.15435,N,12307.74243,W,1,13,0.7,-01.34,M,-16.8,M,,*4C
$GPGGA,223017.000,4911.15490,N,12307.74241,W,1,13,0.7,-01.49,M,-16.8,M,,*4A
$GPGGA,223018.000,4911.15490,N,12307.74241,W,1,13,0.7,-01.49,M,-16.8,M,,*45
$GPGGA,223019.000,4911.15490,N,12307.74241,W,1,13,0.7,-01.49,M,-16.8,M,,*44
$GPGGA,223020.000,4911.15490,N,12307.74241,W,1,12,0.7,-01.49,M,-16.8,M,,*4F
$GPGGA,223021.000,4911.15490,N,12307.74241,W,1,12,0.7,-01.49,M,-16.8,M,,*4E
$GPGGA,223022.000,4911.15490,N,12307.74241,W,1,11,0.8,-01.49,M,-16.8,M,,*41
$GPGGA,223023.000,4911.15490,N,12307.74241,W,1,11,0.8,-01.49,M,-16.8,M,,*40
$GPGGA,223024.000,4911.15490,N,12307.74241,W,1,11,0.8,-01.49,M,-16.8,M,,*47
$GPGGA,223025.000,4911.15490,N,12307.74241,W,1,11,0.7,-01.49,M,-16.8,M,,*49
$GPGGA,223026.000,4911.15490,N,12307.74241,W,1,12,0.7,-01.49,M,-16.8,M,,*49
$GPGGA,223027.000,4911.15490,N,12307.74241,W,1,12,0.7,-01.49,M,-16.8,M,,*48
$GPGGA,223028.000,4911.15490,N,12307.74241,W,1,11,0.8,-01.49,M,-16.8,M,,*4B
$GPGGA,223029.000,4911.15490,N,12307.74241,W,1,11,0.8,-01.49,M,-16.8,M,,*4A
$GPGGA,223030.000,4911.15490,N,12307.74241,W,1,11,0.8,-01.49,M,-16.8,M,,*42
$GPGGA,223031.000,4911.15490,N,12307.74241,W,1,11,0.8,-01.49,M,-16.8,M,,*43
$GPGGA,223032.000,4911.15490,N,12307.74241,W,1,11,0.8,-01.49,M,-16.8,M,,*40
$GPGGA,223033.000,4911.15490,N,12307.74241,W,1,11,0.8,-01.49,M,-16.8,M,,*41
$GPGGA,223034.000,4911.15490,N,12307.74241,W,1,12,0.7,-01.49,M,-16.8,M,,*4A
$GPGGA,223035.000,4911.15490,N,12307.74241,W,1,12,0.7,-01.49,M,-16.8,M,,*4B
$GPGGA,223036.000,4911.15490,N,12307.74241,W,1,12,0.7,-01.49,M,-16.8,M,,*48
$GPGGA,223037.000,4911.15490,N,12307.74241,W,1,13,0.7,-01.49,M,-16.8,M,,*48
$GPGGA,223038.000,4911.15490,N,12307.74241,W,1,12,0.7,-01.49,M,-16.8,M,,*46
$GPGGA,223039.000,4911.15490,N,12307.74241,W,1,12,0.7,-01.49,M,-16.8,M,,*47
$GPGGA,223040.000,4911.15490,N,12307.74241,W,1,11,0.7,-01.49,M,-16.8,M,,*4A
$GPGGA,223041.000,4911.15490,N,12307.74241,W,1,11,0.7,-01.49,M,-16.8,M,,*4B
$GPGGA,223042.000,4911.15490,N,12307.74241,W,1,11,0.8,-01.49,M,-16.8,M,,*47
$GPGGA,223043.000,4911.15490,N,12307.74241,W,1,12,0.7,-01.49,M,-16.8,M,,*4A
$GPGGA,223044.000,4911.15490,N,12307.74241,W,1,13,0.7,-01.49,M,-16.8,M,,*4C
$GPGGA,223045.000,4911.15490,N,12307.74241,W,1,13,0.7,-01.49,M,-16.8,M,,*4D
$GPGGA,223046.000,4911.15490,N,12307.74241,W,1,12,0.8,-01.49,M,-16.8,M,,*40
$GPGGA,223047.000,4911.15490,N,12307.74241,W,1,12,0.8,-01.49,M,-16.8,M,,*41
$GPGGA,223048.000,4911.15490,N,12307.74241,W,1,12,0.8,-01.49,M,-16.8,M,,*4E
$GPGGA,223049.000,4911.15490,N,12307.74241,W,1,12,0.8,-01.49,M,-16.8,M,,*4F
$GPGGA,223050.000,4911.15490,N,12307.74241,W,1,12,0.8,-01.49,M,-16.8,M,,*47
$GPGGA,223051.000,4911.15490,N,12307.74241,W,1,12,0.8,-01.49,M,-16.8,M,,*46
$GPGGA,223052.000,4911.15490,N,12307.74241,W,1,12,0.8,-01.49,M,-16.8,M,,*45
$GPGGA,223053.000,4911.15490,N,12307.74241,W,1,12,0.8,-01.49,M,-16.8,M,,*44
$GPGGA,223054.000,4911.15490,N,12307.74241,W,1,12,0.8,-01.49,M,-16.8,M,,*43
$GPGGA,223055.000,4911.15490,N,12307.74241,W,1,13,0.8,-01.49,M,-16.8,M,,*43
$GPGGA,223056.000,4911.15490,N,12307.74241,W,1,13,0.8,-01.49,M,-16.8,M,,*40
$GPGGA,223057.000,4911.15493,N,12307.74276,W,1,13,0.8,-01.63,M,-16.8,M,,*4E
$GPGGA,223058.000,4911.15493,N,12307.74276,W,1,12,0.8,-01.63,M,-16.8,M,,*40
$GPGGA,223059.000,4911.15493,N,12307.74276,W,1,13,0.8,-01.63,M,-16.8,M,,*40
$GPGGA,223100.000,4911.15493,N,12307.74276,W,1,12,0.8,-01.63,M,-16.8,M,,*4C
$GPGGA,223101.000,4911.15493,N,12307.74276,W,1,12,0.8,-01.63,M,-16.8,M,,*4D
$GPGGA,223102.000,4911.15493,N,12307.74276,W,1,12,0.8,-01.63,M,-16.8,M,,*4E
$GPGGA,223103.000,4911.15493,N,12307.74276,W,1,13,0.8,-01.63,M,-16.8,M,,*4E
$GPGGA,223104.000,4911.15493,N,12307.74276,W,1,13,0.8,-01.63,M,-16.8,M,,*49
$GPGGA,223105.000,4911.15493,N,12307.74276,W,1,13,0.8,-01.63,M,-16.8,M,,*48
$GPGGA,223106.000,4911.15493,N,12307.74276,W,1,12,0.8,-01.63,M,-16.8,M,,*4A
$GPGGA,223107.000,4911.15493,N,12307.74276,W,1,12,0.8,-01.63,M,-16.8,M,,*4B
$GPGGA,223108.000,4911.15493,N,12307.74276,W,1,12,0.8,-01.63,M,-16.8,M,,*44
$GPGGA,223109.000,4911.15493,N,12307.74276,W,1,12,0.8,-01.63,M,-16.8,M,,*45
$GPGGA,223110.000,4911.15493,N,12307.74276,W,1,12,0.8,-01.63,M,-16.8,M,,*4D
$GPGGA,223111.000,4911.15493,N,12307.74276,W,1,13,0.8,-01.63,M,-16.8,M,,*4D
$GPGGA,223112.000,4911.15493,N,12307.74276,W,1,12,0.8,-01.63,M,-16.8,M,,*4F
$GPGGA,223113.000,4911.15493,N,12307.74276,W,1,12,0.8,-01.63,M,-16.8,M,,*4E
$GPGGA,223114.000,4911.15493,N,12307.74276,W,1,12,0.8,-01.63,M,-16.8,M,,*49
$GPGGA,223115.000,4911.15493,N,12307.74276,W,1,12,0.8,-01.63,M,-16.8,M,,*48
$GPGGA,223116.000,4911.15493,N,12307.74276,W,1,12,0.8,-01.63,M,-16.8,M,,*4B
$GPGGA,223117.000,4911.15493,N,12307.74276,W,1,12,0.8,-01.63,M,-16.8,M,,*4A
$GPGGA,223118.000,4911.15493,N,12307.74276,W,1,12,0.8,-01.63,M,-16.8,M,,*45
$GPGGA,223119.000,4911.15493,N,12307.74276,W,1,12,0.8,-01.63,M,-16.8,M,,*44
$GPGGA,223120.000,4911.15493,N,12307.74276,W,1,11,0.8,-01.63,M,-16.8,M,,*4D
$GPGGA,223121.000,4911.15493,N,12307.74276,W,1,12,0.8,-01.63,M,-16.8,M,,*4F
$GPGGA,223122.000,4911.15493,N,12307.74276,W,1,12,0.8,-01.63,M,-16.8,M,,*4C
$GPGGA,223123.000,4911.15493,N,12307.74276,W,1,11,0.9,-01.63,M,-16.8,M,,*4F
$GPGGA,223124.000,4911.15493,N,12307.74276,W,1,12,0.8,-01.63,M,-16.8,M,,*4A
$GPGGA,223125.000,4911.15493,N,12307.74276,W,1,12,0.8,-01.63,M,-16.8,M,,*4B
$GPGGA,223126.000,4911.15493,N,12307.74276,W,1,12,0.8,-01.63,M,-16.8,M,,*48
$GPGGA,223127.000,4911.15493,N,12307.74276,W,1,11,0.8,-01.63,M,-16.8,M,,*4A
$GPGGA,223128.000,4911.15493,N,12307.74276,W,1,11,0.8,-01.63,M,-16.8,M,,*45
$GPGGA,223129.000,4911.15493,N,12307.74276,W,1,10,0.8,-01.63,M,-16.8,M,,*45
$GPGGA,223130.000,4911.15493,N,12307.74276,W,1,10,0.8,-01.63,M,-16.8,M,,*4D
$GPGGA,223131.000,4911.15493,N,12307.74276,W,1,12,0.7,-01.63,M,-16.8,M,,*41
$GPGGA,223132.000,4911.15493,N,12307.74276,W,1,12,0.7,-01.63,M,-16.8,M,,*42
$GPGGA,223133.000,4911.15493,N,12307.74276,W,1,12,0.7,-01.63,M,-16.8,M,,*43
$GPGGA,223134.000,4911.15493,N,12307.74276,W,1,12,0.7,-01.63,M,-16.8,M,,*44
$GPGGA,223135.000,4911.15493,N,12307.74276,W,1,12,0.7,-01.63,M,-16.8,M,,*45
$GPGGA,223136.000,4911.15493,N,12307.74276,W,1,12,0.7,-01.63,M,-16.8,M,,*46
$GPGGA,223137.000,4911.15489,N,12307.74301,W,1,12,0.7,-01.71,M,-16.8,M,,*4E
$GPGGA,223138.000,4911.15489,N,12307.74301,W,1,12,0.7,-01.71,M,-16.8,M,,*41
$GPGGA,223139.000,4911.15489,N,12307.74301,W,1,12,0.7,-01.71,M,-16.8,M,,*40
$GPGGA,223140.000,4911.15489,N,12307.74301,W,1,12,0.7,-01.71,M,-16.8,M,,*4E
$GPGGA,223141.000,4911.15489,N,12307.74301,W,1,11,0.8,-01.71,M,-16.8,M,,*43
$GPGGA,223142.000,4911.15489,N,12307.74301,W,1,11,0.8,-01.71,M,-16.8,M,,*40
$GPGGA,223143.000,4911.15489,N,12307.74301,W,1,11,0.8,-01.71,M,-16.8,M,,*41
$GPGGA,223144.000,4911.15489,N,12307.74301,W,1,11,0.8,-01.71,M,-16.8,M,,*46
$GPGGA,223145.000,4911.15489,N,12307.74301,W,1,12,0.7,-01.71,M,-16.8,M,,*4B
$GPGGA,223146.000,4911.15489,N,12307.74301,W,1,12,0.7,-01.71,M,-16.8,M,,*48
$GPGGA,223147.000,4911.15489,N,12307.74301,W,1,13,0.7,-01.71,M,-16.8,M,,*48
$GPGGA,223148.000,4911.15489,N,12307.74301,W,1,11,0.8,-01.71,M,-16.8,M,,*4A
$GPGGA,223149.000,4911.15489,N,12307.74301,W,1,12,0.7,-01.71,M,-16.8,M,,*47
$GPGGA,223150.000,4911.15489,N,12307.74301,W,1,11,0.8,-01.71,M,-16.8,M,,*43
$GPGGA,223151.000,4911.15489,N,12307.74301,W,1,12,0.7,-01.71,M,-16.8,M,,*4E
$GPGGA,223152.000,4911.15489,N,12307.74301,W,1,12,0.7,-01.71,M,-16.8,M,,*4D
$GPGGA,223153.000,4911.15489,N,12307.74301,W,1,12,0.7,-01.71,M,-16.8,M,,*4C
$GPGGA,223154.000,4911.15489,N,12307.74301,W,1,12,0.7,-01.71,M,-16.8,M,,*4B
$GPGGA,223155.000,4911.15489,N,12307.74301,W,1,11,0.8,-01.71,M,-16.8,M,,*46
$GPGGA,223156.000,4911.15489,N,12307.74301,W,1,11,0.8,-01.71,M,-16.8,M,,*45
$GPGGA,223157.000,4911.15489,N,12307.74301,W,1,12,0.7,-01.71,M,-16.8,M,,*48
$GPGGA,223158.000,4911.15489,N,12307.74301,W,1,12,0.7,-01.71,M,-16.8,M,,*47
$GPGGA,223159.000,4911.15489,N,12307.74301,W,1,11,0.7,-01.71,M,-16.8,M,,*45
$GPGGA,223200.000,4911.15489,N,12307.74301,W,1,11,0.8,-01.71,M,-16.8,M,,*45
$GPGGA,223201.000,4911.15489,N,12307.74301,W,1,10,0.8,-01.71,M,-16.8,M,,*45
$GPGGA,223202.000,4911.15489,N,12307.74301,W,1,12,0.7,-01.71,M,-16.8,M,,*4B
$GPGGA,223203.000,4911.15489,N,12307.74301,W,1,12,0.7,-01.71,M,-16.8,M,,*4A
$GPGGA,223204.000,4911.15489,N,12307.74301,W,1,13,0.7,-01.71,M,-16.8,M,,*4C
$GPGGA,223205.000,4911.15489,N,12307.74301,W,1,13,0.7,-01.71,M,-16.8,M,,*4D
$GPGGA,223206.000,4911.15489,N,12307.74301,W,1,13,0.7,-01.71,M,-16.8,M,,*4E
$GPGGA,223207.000,4911.15489,N,12307.74301,W,1,14,0.7,-01.71,M,-16.8,M,,*48
$GPGGA,223208.000,4911.15489,N,12307.74301,W,1,14,0.7,-01.71,M,-16.8,M,,*47
$GPGGA,223209.000,4911.15489,N,12307.74301,W,1,13,0.7,-01.71,M,-16.8,M,,*41
$GPGGA,223210.000,4911.15489,N,12307.74301,W,1,14,0.7,-01.71,M,-16.8,M,,*4E
$GPGGA,223211.000,4911.15489,N,12307.74301,W,1,14,0.7,-01.71,M,-16.8,M,,*4F
$GPGGA,223212.000,4911.15489,N,12307.74301,W,1,14,0.7,-01.71,M,-16.8,M,,*4C
$GPGGA,223213.000,4911.15489,N,12307.74301,W,1,13,0.7,-01.71,M,-16.8,M,,*4A
$GPGGA,223214.000,4911.15489,N,12307.74301,W,1,13,0.7,-01.71,M,-16.8,M,,*4D
$GPGGA,223215.000,4911.15489,N,12307.74301,W,1,14,0.7,-01.71,M,-16.8,M,,*4B
$GPGGA,223216.000,4911.15489,N,12307.74301,W,1,14,0.7,-01.71,M,-16.8,M,,*48
$GPGGA,223217.000,4911.15456,N,12307.74285,W,1,14,0.7,-01.39,M,-16.8,M,,*4A
$GPGGA,223218.000,4911.15456,N,12307.74285,W,1,14,0.7,-01.39,M,-16.8,M,,*45
$GPGGA,223219.000,4911.15456,N,12307.74285,W,1,14,0.7,-01.39,M,-16.8,M,,*44
$GPGGA,223220.000,4911.15456,N,12307.74285,W,1,14,0.7,-01.39,M,-16.8,M,,*4E
$GPGGA,223221.000,4911.15456,N,12307.74285,W,1,14,0.7,-01.39,M,-16.8,M,,*4F
$GPGGA,223222.000,4911.15456,N,12307.74285,W,1,14,0.7,-01.39,M,-16.8,M,,*4C
$GPGGA,223223.000,4911.15456,N,12307.74285,W,1,14,0.7,-01.39,M,-16.8,M,,*4D
$GPGGA,223224.000,4911.15456,N,12307.74285,W,1,13,0.7,-01.39,M,-16.8,M,,*4D
$GPGGA,223225.000,4911.15456,N,12307.74285,W,1,13,0.7,-01.39,M,-16.8,M,,*4C
$GPGGA,223226.000,4911.15456,N,12307.74285,W,1,13,0.7,-01.39,M,-16.8,M,,*4F
$GPGGA,223227.000,4911.15456,N,12307.74285,W,1,13,0.7,-01.39,M,-16.8,M,,*4E
$GPGGA,223228.000,4911.15456,N,12307.74285,W,1,12,0.7,-01.39,M,-16.8,M,,*40
$GPGGA,223229.000,4911.15456,N,12307.74285,W,1,12,0.7,-01.39,M,-16.8,M,,*41
$GPGGA,223230.000,4911.15456,N,12307.74285,W,1,13,0.7,-01.39,M,-16.8,M,,*48
$GPGGA,223231.000,4911.15456,N,12307.74285,W,1,13,0.7,-01.39,M,-16.8,M,,*49
$GPGGA,223232.000,4911.15456,N,12307.74285,W,1,13,0.7,-01.39,M,-16.8,M,,*4A
$GPGGA,223233.000,4911.15456,N,12307.74285,W,1,12,0.8,-01.39,M,-16.8,M,,*45
$GPGGA,223234.000,4911.15456,N,12307.74285,W,1,13,0.8,-01.39,M,-16.8,M,,*43
$GPGGA,223235.000,4911.15456,N,12307.74285,W,1,12,0.8,-01.39,M,-16.8,M,,*43
$GPGGA,223236.000,4911.15456,N,12307.74285,W,1,12,0.8,-01.39,M,-16.8,M,,*40
$GPGGA,223237.000,4911.15456,N,12307.74285,W,1,12,0.8,-01.39,M,-16.8,M,,*41
$GPGGA,223238.000,4911.15456,N,12307.74285,W,1,13,0.7,-01.39,M,-16.8,M,,*40
$GPGGA,223239.000,4911.15456,N,12307.74285,W,1,12,0.8,-01.39,M,-16.8,M,,*4F
$GPGGA,223240.000,4911.15456,N,12307.74285,W,1,13,0.8,-01.39,M,-16.8,M,,*40
$GPGGA,223241.000,4911.15456,N,12307.74285,W,1,14,0.8,-01.39,M,-16.8,M,,*46
$GPGGA,223242.000,4911.15456,N,12307.74285,W,1,14,0.8,-01.39,M,-16.8,M,,*45
$GPGGA,223243.000,4911.15456,N,12307.74285,W,1,12,0.8,-01.39,M,-16.8,M,,*42
$GPGGA,223244.000,4911.15456,N,12307.74285,W,1,13,0.8,-01.39,M,-16.8,M,,*44
$GPGGA,223245.000,4911.15456,N,12307.74285,W,1,13,0.8,-01.39,M,-16.8,M,,*45
$GPGGA,223246.000,4911.15456,N,12307.74285,W,1,14,0.7,-01.39,M,-16.8,M,,*4E
$GPGGA,223247.000,4911.15456,N,12307.74285,W,1,13,0.7,-01.39,M,-16.8,M,,*48
$GPGGA,223248.000,4911.15456,N,12307.74285,W,1,13,0.7,-01.39,M,-16.8,M,,*47
$GPGGA,223249.000,4911.15456,N,12307.74285,W,1,14,0.7,-01.39,M,-16.8,M,,*41
$GPGGA,223250.000,4911.15456,N,12307.74285,W,1,14,0.7,-01.39,M,-16.8,M,,*49
$GPGGA,223251.000,4911.15456,N,12307.74285,W,1,13,0.7,-01.39,M,-16.8,M,,*4F
$GPGGA,223252.000,4911.15456,N,12307.74285,W,1,14,0.7,-01.39,M,-16.8,M,,*4B
$GPGGA,223253.000,4911.15456,N,12307.74285,W,1,13,0.7,-01.39,M,-16.8,M,,*4D
$GPGGA,223254.000,4911.15456,N,12307.74285,W,1,13,0.7,-01.39,M,-16.8,M,,*4A
$GPGGA,223255.000,4911.15456,N,12307.74285,W,1,12,0.7,-01.39,M,-16.8,M,,*4A
$GPGGA,223256.000,4911.15456,N,12307.74285,W,1,13,0.7,-01.39,M,-16.8,M,,*48
$GPGGA,223257.000,4911.15470,N,12307.74257,W,1,14,0.7,-01.49,M,-16.8,M,,*42
$GPGGA,223258.000,4911.15470,N,12307.74257,W,1,14,0.7,-01.49,M,-16.8,M,,*4D
$GPGGA,223259.000,4911.15470,N,12307.74257,W,1,14,0.7,-01.49,M,-16.8,M,,*4C
$GPGGA,223300.000,4911.15470,N,12307.74257,W,1,14,0.7,-01.49,M,-16.8,M,,*41
$GPGGA,223301.000,4911.15470,N,12307.74257,W,1,13,0.7,-01.49,M,-16.8,M,,*47
$GPGGA,223302.000,4911.15470,N,12307.74257,W,1,13,0.7,-01.49,M,-16.8,M,,*44
$GPGGA,223303.000,4911.15470,N,12307.74257,W,1,14,0.7,-01.49,M,-16.8,M,,*42
$GPGGA,223304.000,4911.15470,N,12307.74257,W,1,14,0.7,-01.49,M,-16.8,M,,*45
$GPGGA,223305.000,4911.15470,N,12307.74257,W,1,14,0.7,-01.49,M,-16.8,M,,*44
$GPGGA,223306.000,4911.15470,N,12307.74257,W,1,14,0.7,-01.49,M,-16.8,M,,*47
$GPGGA,223307.000,4911.15470,N,12307.74257,W,1,14,0.7,-01.49,M,-16.8,M,,*46
$GPGGA,223308.000,4911.15470,N,12307.74257,W,1,14,0.7,-01.49,M,-16.8,M,,*49
$GPGGA,223309.000,4911.15470,N,12307.74257,W,1,13,0.7,-01.49,M,-16.8,M,,*4F
$GPGGA,223310.000,4911.15470,N,12307.74257,W,1,14,0.7,-01.49,M,-16.8,M,,*40
$GPGGA,223311.000,4911.15470,N,12307.74257,W,1,13,0.7,-01.49,M,-16.8,M,,*46
$GPGGA,223312.000,4911.15470,N,12307.74257,W,1,13,0.7,-01.49,M,-16.8,M,,*45
$GPGGA,223313.000,4911.15470,N,12307.74257,W,1,13,0.7,-01.49,M,-16.8,M,,*44
$GPGGA,223314.000,4911.15470,N,12307.74257,W,1,13,0.7,-01.49,M,-16.8,M,,*43
$GPGGA,223315.000,4911.15470,N,12307.74257,W,1,13,0.7,-01.49,M,-16.8,M,,*42
$GPGGA,223316.000,4911.15470,N,12307.74257,W,1,13,0.7,-01.49,M,-16.8,M,,*41
$GPGGA,223317.000,4911.15470,N,12307.74257,W,1,12,0.7,-01.49,M,-16.8,M,,*41
$GPGGA,223318.000,4911.15470,N,12307.74257,W,1,13,0.7,-01.49,M,-16.8,M,,*4F
$GPGGA,223319.000,4911.15470,N,12307.74257,W,1,13,0.7,-01.49,M,-16.8,M,,*4E
$GPGGA,223320.000,4911.15470,N,12307.74257,W,1,13,0.7,-01.49,M,-16.8,M,,*44
$GPGGA,223321.000,4911.15470,N,12307.74257,W,1,13,0.7,-01.49,M,-16.8,M,,*45
$GPGGA,223322.000,4911.15470,N,12307.74257,W,1,13,0.7,-01.49,M,-16.8,M,,*46
$GPGGA,223323.000,4911.15470,N,12307.74257,W,1,13,0.7,-01.49,M,-16.8,M,,*47
$GPGGA,223324.000,4911.15470,N,12307.74257,W,1,13,0.7,-01.49,M,-16.8,M,,*40
$GPGGA,223325.000,4911.15470,N,12307.74257,W,1,13,0.7,-01.49,M,-16.8,M,,*41
$GPGGA,223326.000,4911.15470,N,12307.74257,W,1,13,0.7,-01.49,M,-16.8,M,,*42
$GPGGA,223327.000,4911.15470,N,12307.74257,W,1,13,0.7,-01.49,M,-16.8,M,,*43
$GPGGA,223328.000,4911.15470,N,12307.74257,W,1,13,0.7,-01.49,M,-16.8,M,,*4C
$GPGGA,223329.000,4911.15470,N,12307.74257,W,1,13,0.7,-01.49,M,-16.8,M,,*4D
$GPGGA,223330.000,4911.15470,N,12307.74257,W,1,14,0.7,-01.49,M,-16.8,M,,*42
$GPGGA,223331.000,4911.15470,N,12307.74257,W,1,13,0.7,-01.49,M,-16.8,M,,*44
$GPGGA,223332.000,4911.15470,N,12307.74257,W,1,13,0.7,-01.49,M,-16.8,M,,*47
$GPGGA,223333.000,4911.15470,N,12307.74257,W,1,13,0.7,-01.49,M,-16.8,M,,*46
$GPGGA,223334.000,4911.15470,N,12307.74257,W,1,13,0.7,-01.49,M,-16.8,M,,*41
$GPGGA,223335.000,4911.15470,N,12307.74257,W,1,13,0.7,-01.49,M,-16.8,M,,*40
$GPGGA,223336.000,4911.15470,N,12307.74257,W,1,12,0.8,-01.49,M,-16.8,M,,*4D
$GPGGA,223337.000,4911.15439,N,12307.74259,W,1,12,0.7,-01.63,M,-16.8,M,,*48
$GPGGA,223338.000,4911.15439,N,12307.74259,W,1,13,0.7,-01.63,M,-16.8,M,,*46
$GPGGA,223339.000,4911.15439,N,12307.74259,W,1,13,0.7,-01.63,M,-16.8,M,,*47
$GPGGA,223340.000,4911.15439,N,12307.74259,W,1,12,0.7,-01.63,M,-16.8,M,,*48
$GPGGA,223341.000,4911.15439,N,12307.74259,W,1,12,0.7,-01.63,M,-16.8,M,,*49
$GPGGA,223342.000,4911.15439,N,12307.74259,W,1,13,0.7,-01.63,M,-16.8,M,,*4B
$GPGGA,223343.000,4911.15439,N,12307.74259,W,1,13,0.7,-01.63,M,-16.8,M,,*4A
$GPGGA,223344.000,4911.15439,N,12307.74259,W,1,13,0.7,-01.63,M,-16.8,M,,*4D
$GPGGA,223345.000,4911.15439,N,12307.74259,W,1,12,0.7,-01.63,M,-16.8,M,,*4D
$GPGGA,223346.000,4911.15439,N,12307.74259,W,1,12,0.8,-01.63,M,-16.8,M,,*41
$GPGGA,223347.000,4911.15439,N,12307.74259,W,1,11,0.8,-01.63,M,-16.8,M,,*43
$GPGGA,223348.000,4911.15439,N,12307.74259,W,1,12,0.8,-01.63,M,-16.8,M,,*4F
$GPGGA,223349.000,4911.15439,N,12307.74259,W,1,13,0.7,-01.63,M,-16.8,M,,*40
$GPGGA,223350.000,4911.15439,N,12307.74259,W,1,13,0.7,-01.63,M,-16.8,M,,*48
$GPGGA,223351.000,4911.15439,N,12307.74259,W,1,14,0.7,-01.63,M,-16.8,M,,*4E
$GPGGA,223352.000,4911.15439,N,12307.74259,W,1,14,0.7,-01.63,M,-16.8,M,,*4D
$GPGGA,223353.000,4911.15439,N,12307.74259,W,1,14,0.8,-01.63,M,-16.8,M,,*43
$GPGGA,223354.000,4911.15439,N,12307.74259,W,1,14,0.7,-01.63,M,-16.8,M,,*4B
$GPGGA,223355.000,4911.15439,N,12307.74259,W,1,14,0.7,-01.63,M,-16.8,M,,*4A
$GPGGA,223356.000,4911.15439,N,12307.74259,W,1,13,0.7,-01.63,M,-16.8,M,,*4E
$GPGGA,223357.000,4911.15439,N,12307.74259,W,1,14,0.7,-01.63,M,-16.8,M,,*48
$GPGGA,223358.000,4911.15439,N,12307.74259,W,1,14,0.7,-01.63,M,-16.8,M,,*47
$GPGGA,223359.000,4911.15439,N,12307.74259,W,1,14,0.7,-01.63,M,-16.8,M,,*46
$GPGGA,223400.000,4911.15439,N,12307.74259,W,1,13,0.7,-01.63,M,-16.8,M,,*4A
$GPGGA,223401.000,4911.15439,N,12307.74259,W,1,13,0.8,-01.63,M,-16.8,M,,*44
$GPGGA,223402.000,4911.15439,N,12307.74259,W,1,13,0.7,-01.63,M,-16.8,M,,*48
$GPGGA,223403.000,4911.15439,N,12307.74259,W,1,14,0.7,-01.63,M,-16.8,M,,*4E
$GPGGA,223404.000,4911.15439,N,12307.74259,W,1,14,0.7,-01.63,M,-16.8,M,,*49
$GPGGA,223405.000,4911.15439,N,12307.74259,W,1,13,0.8,-01.63,M,-16.8,M,,*40
$GPGGA,223406.000,4911.15439,N,12307.74259,W,1,13,0.7,-01.63,M,-16.8,M,,*4C
$GPGGA,223407.000,4911.15439,N,12307.74259,W,1,14,0.7,-01.63,M,-16.8,M,,*4A
$GPGGA,223408.000,4911.15439,N,12307.74259,W,1,13,0.8,-01.63,M,-16.8,M,,*4D
$GPGGA,223409.000,4911.15439,N,12307.74259,W,1,13,0.8,-01.63,M,-16.8,M,,*4C
$GPGGA,223410.000,4911.15439,N,12307.74259,W,1,13,0.8,-01.63,M,-16.8,M,,*44
$GPGGA,223411.000,4911.15439,N,12307.74259,W,1,14,0.7,-01.63,M,-16.8,M,,*4D
$GPGGA,223412.000,4911.15439,N,12307.74259,W,1,14,0.7,-01.63,M,-16.8,M,,*4E
$GPGGA,223413.000,4911.15439,N,12307.74259,W,1,14,0.7,-01.63,M,-16.8,M,,*4F
$GPGGA,223414.000,4911.15439,N,12307.74259,W,1,12,0.8,-01.63,M,-16.8,M,,*41
$GPGGA,223415.000,4911.15439,N,12307.74259,W,1,13,0.8,-01.63,M,-16.8,M,,*41
$GPGGA,223416.000,4911.15439,N,12307.74259,W,1,13,0.7,-01.63,M,-16.8,M,,*4D
$GPGGA,223417.000,4911.15434,N,12307.74278,W,1,13,0.7,-01.37,M,-16.8,M,,*43
$GPGGA,223418.000,4911.15434,N,12307.74278,W,1,13,0.7,-01.37,M,-16.8,M,,*4C
$GPGGA,223419.000,4911.15434,N,12307.74278,W,1,13,0.7,-01.37,M,-16.8,M,,*4D
$GPGGA,223420.000,4911.15434,N,12307.74278,W,1,13,0.7,-01.37,M,-16.8,M,,*47
$GPGGA,223421.000,4911.15434,N,12307.74278,W,1,13,0.7,-01.37,M,-16.8,M,,*46
$GPGGA,223422.000,4911.15434,N,12307.74278,W,1,12,0.7,-01.37,M,-16.8,M,,*44
$GPGGA,223423.000,4911.15434,N,12307.74278,W,1,12,0.7,-01.37,M,-16.8,M,,*45
$GPGGA,223424.000,4911.15434,N,12307.74278,W,1,12,0.7,-01.37,M,-16.8,M,,*42
$GPGGA,223425.000,4911.15434,N,12307.74278,W,1,12,0.7,-01.37,M,-16.8,M,,*43
$GPGGA,223426.000,4911.15434,N,12307.74278,W,1,12,0.7,-01.37,M,-16.8,M,,*40
$GPGGA,223427.000,4911.15434,N,12307.74278,W,1,12,0.8,-01.37,M,-16.8,M,,*4E
$GPGGA,223428.000,4911.15434,N,12307.74278,W,1,12,0.8,-01.37,M,-16.8,M,,*41
$GPGGA,223429.000,4911.15434,N,12307.74278,W,1,12,0.7,-01.37,M,-16.8,M,,*4F
$GPGGA,223430.000,4911.15434,N,12307.74278,W,1,12,0.7,-01.37,M,-16.8,M,,*47
$GPGGA,223431.000,4911.15434,N,12307.74278,W,1,12,0.7,-01.37,M,-16.8,M,,*46
$GPGGA,223432.000,4911.15434,N,12307.74278,W,1,12,0.7,-01.37,M,-16.8,M,,*45
$GPGGA,223433.000,4911.15434,N,12307.74278,W,1,12,0.7,-01.37,M,-16.8,M,,*44
$GPGGA,223434.000,4911.15434,N,12307.74278,W,1,13,0.8,-01.37,M,-16.8,M,,*4D
$GPGGA,223435.000,4911.15434,N,12307.74278,W,1,13,0.7,-01.37,M,-16.8,M,,*43
$GPGGA,223436.000,4911.15434,N,12307.74278,W,1,13,0.7,-01.37,M,-16.8,M,,*40
$GPGGA,223437.000,4911.15434,N,12307.74278,W,1,13,0.7,-01.37,M,-16.8,M,,*41
$GPGGA,223438.000,4911.15434,N,12307.74278,W,1,13,0.7,-01.37,M,-16.8,M,,*4E
$GPGGA,223439.000,4911.15434,N,12307.74278,W,1,13,0.7,-01.37,M,-16.8,M,,*4F
$GPGGA,223440.000,4911.15434,N,12307.74278,W,1,13,0.7,-01.37,M,-16.8,M,,*41
$GPGGA,223441.000,4911.15434,N,12307.74278,W,1,13,0.7,-01.37,M,-16.8,M,,*40
$GPGGA,223442.000,4911.15434,N,12307.74278,W,1,12,0.7,-01.37,M,-16.8,M,,*42
$GPGGA,223443.000,4911.15434,N,12307.74278,W,1,12,0.7,-01.37,M,-16.8,M,,*43
$GPGGA,223444.000,4911.15434,N,12307.74278,W,1,12,0.7,-01.37,M,-16.8,M,,*44
$GPGGA,223445.000,4911.15434,N,12307.74278,W,1,12,0.7,-01.37,M,-16.8,M,,*45
$GPGGA,223446.000,4911.15434,N,12307.74278,W,1,13,0.7,-01.37,M,-16.8,M,,*47
$GPGGA,223447.000,4911.15434,N,12307.74278,W,1,13,0.7,-01.37,M,-16.8,M,,*46
$GPGGA,223448.000,4911.15434,N,12307.74278,W,1,13,0.7,-01.37,M,-16.8,M,,*49
$GPGGA,223449.000,4911.15434,N,12307.74278,W,1,13,0.7,-01.37,M,-16.8,M,,*48
$GPGGA,223450.000,4911.15434,N,12307.74278,W,1,13,0.7,-01.37,M,-16.8,M,,*40
$GPGGA,223451.000,4911.15434,N,12307.74278,W,1,14,0.7,-01.37,M,-16.8,M,,*46
$GPGGA,223452.000,4911.15434,N,12307.74278,W,1,14,0.7,-01.37,M,-16.8,M,,*45
$GPGGA,223453.000,4911.15434,N,12307.74278,W,1,14,0.7,-01.37,M,-16.8,M,,*44
$GPGGA,223454.000,4911.15434,N,12307.74278,W,1,14,0.7,-01.37,M,-16.8,M,,*43
$GPGGA,223455.000,4911.15434,N,12307.74278,W,1,13,0.7,-01.37,M,-16.8,M,,*45
$GPGGA,223456.000,4911.15434,N,12307.74278,W,1,13,0.7,-01.37,M,-16.8,M,,*46
$GPGGA,223457.000,4911.15458,N,12307.74235,W,1,13,0.7,-00.97,M,-16.8,M,,*4F
$GPGGA,223458.000,4911.15458,N,12307.74235,W,1,13,0.7,-00.97,M,-16.8,M,,*40
$GPGGA,223459.000,4911.15458,N,12307.74235,W,1,13,0.7,-00.97,M,-16.8,M,,*41
$GPGGA,223500.000,4911.15458,N,12307.74235,W,1,13,0.7,-00.97,M,-16.8,M,,*4C
$GPGGA,223501.000,4911.15458,N,12307.74235,W,1,13,0.7,-00.97,M,-16.8,M,,*4D
$GPGGA,223502.000,4911.15458,N,12307.74235,W,1,13,0.7,-00.97,M,-16.8,M,,*4E
$GPGGA,223503.000,4911.15458,N,12307.74235,W,1,13,0.7,-00.97,M,-16.8,M,,*4F
$GPGGA,223504.000,4911.15458,N,12307.74235,W,1,13,0.7,-00.97,M,-16.8,M,,*48
$GPGGA,223505.000,4911.15458,N,12307.74235,W,1,14,0.7,-00.97,M,-16.8,M,,*4E
$GPGGA,223506.000,4911.15458,N,12307.74235,W,1,13,0.7,-00.97,M,-16.8,M,,*4A
$GPGGA,223507.000,4911.15458,N,12307.74235,W,1,13,0.7,-00.97,M,-16.8,M,,*4B
$GPGGA,223508.000,4911.15458,N,12307.74235,W,1,14,0.7,-00.97,M,-16.8,M,,*43
$GPGGA,223509.000,4911.15458,N,12307.74235,W,1,14,0.7,-00.97,M,-16.8,M,,*42
$GPGGA,223510.000,4911.15458,N,12307.74235,W,1,14,0.7,-00.97,M,-16.8,M,,*4A
$GPGGA,223511.000,4911.15458,N,12307.74235,W,1,14,0.7,-00.97,M,-16.8,M,,*4B
$GPGGA,223512.000,4911.15458,N,12307.74235,W,1,14,0.7,-00.97,M,-16.8,M,,*48
$GPGGA,223513.000,4911.15458,N,12307.74235,W,1,14,0.7,-00.97,M,-16.8,M,,*49
$GPGGA,223514.000,4911.15458,N,12307.74235,W,1,14,0.7,-00.97,M,-16.8,M,,*4E
$GPGGA,223515.000,4911.15458,N,12307.74235,W,1,14,0.7,-00.97,M,-16.8,M,,*4F
$GPGGA,223516.000,4911.15458,N,12307.74235,W,1,14,0.7,-00.97,M,-16.8,M,,*4C
$GPGGA,223517.000,4911.15458,N,12307.74235,W,1,14,0.7,-00.97,M,-16.8,M,,*4D
$GPGGA,223518.000,4911.15458,N,12307.74235,W,1,14,0.7,-00.97,M,-16.8,M,,*42
$GPGGA,223519.000,4911.15458,N,12307.74235,W,1,14,0.7,-00.97,M,-16.8,M,,*43
$GPGGA,223520.000,4911.15458,N,12307.74235,W,1,14,0.7,-00.97,M,-16.8,M,,*49
$GPGGA,223521.000,4911.15458,N,12307.74235,W,1,14,0.7,-00.97,M,-16.8,M,,*48
$GPGGA,223522.000,4911.15458,N,12307.74235,W,1,14,0.7,-00.97,M,-16.8,M,,*4B
$GPGGA,223523.000,4911.15458,N,12307.74235,W,1,14,0.7,-00.97,M,-16.8,M,,*4A
$GPGGA,223524.000,4911.15458,N,12307.74235,W,1,14,0.7,-00.97,M,-16.8,M,,*4D
$GPGGA,223525.000,4911.15458,N,12307.74235,W,1,14,0.7,-00.97,M,-16.8,M,,*4C
$GPGGA,223526.000,4911.15458,N,12307.74235,W,1,14,0.7,-00.97,M,-16.8,M,,*4F
$GPGGA,223527.000,4911.15458,N,12307.74235,W,1,14,0.7,-00.97,M,-16.8,M,,*4E
$GPGGA,223528.000,4911.15458,N,12307.74235,W,1,14,0.7,-00.97,M,-16.8,M,,*41
$GPGGA,223529.000,4911.15458,N,12307.74235,W,1,14,0.7,-00.97,M,-16.8,M,,*40
$GPGGA,223530.000,4911.15458,N,12307.74235,W,1,13,0.7,-00.97,M,-16.8,M,,*4F
$GPGGA,223531.000,4911.15458,N,12307.74235,W,1,13,0.7,-00.97,M,-16.8,M,,*4E
$GPGGA,223532.000,4911.15458,N,12307.74235,W,1,13,0.7,-00.97,M,-16.8,M,,*4D
$GPGGA,223533.000,4911.15458,N,12307.74235,W,1,13,0.7,-00.97,M,-16.8,M,,*4C
$GPGGA,223534.000,4911.15458,N,12307.74235,W,1,12,0.7,-00.97,M,-16.8,M,,*4A
$GPGGA,223535.000,4911.15458,N,12307.74235,W,1,12,0.7,-00.97,M,-16.8,M,,*4B
$GPGGA,223536.000,4911.15458,N,12307.74235,W,1,13,0.7,-00.97,M,-16.8,M,,*49
$GPGGA,223537.000,4911.15425,N,12307.74239,W,1,12,0.7,000.33,M,-16.8,M,,*5C
$GPGGA,223538.000,4911.15425,N,12307.74239,W,1,13,0.7,000.33,M,-16.8,M,,*52
$GPGGA,223539.000,4911.15425,N,12307.74239,W,1,13,0.7,000.33,M,-16.8,M,,*53
$GPGGA,223540.000,4911.15425,N,12307.74239,W,1,12,0.7,000.33,M,-16.8,M,,*5C
$GPGGA,223541.000,4911.15425,N,12307.74239,W,1,13,0.7,000.33,M,-16.8,M,,*5C
$GPGGA,223542.000,4911.15425,N,12307.74239,W,1,13,0.7,000.33,M,-16.8,M,,*5F
$GPGGA,223543.000,4911.15425,N,12307.74239,W,1,13,0.7,000.33,M,-16.8,M,,*5E
$GPGGA,223544.000,4911.15425,N,12307.74239,W,1,13,0.7,000.33,M,-16.8,M,,*59
$GPGGA,223545.000,4911.15425,N,12307.74239,W,1,13,0.7,000.33,M,-16.8,M,,*58
$GPGGA,223546.000,4911.15425,N,12307.74239,W,1,14,0.7,000.33,M,-16.8,M,,*5C
$GPGGA,223547.000,4911.15425,N,12307.74239,W,1,13,0.7,000.33,M,-16.8,M,,*5A
$GPGGA,223548.000,4911.15425,N,12307.74239,W,1,13,0.7,000.33,M,-16.8,M,,*55
$GPGGA,223549.000,4911.15425,N,12307.74239,W,1,13,0.7,000.33,M,-16.8,M,,*54
$GPGGA,223550.000,4911.15425,N,12307.74239,W,1,13,0.7,000.33,M,-16.8,M,,*5C
$GPGGA,223551.000,4911.15425,N,12307.74239,W,1,13,0.7,000.33,M,-16.8,M,,*5D
$GPGGA,223552.000,4911.15425,N,12307.74239,W,1,13,0.7,000.33,M,-16.8,M,,*5E
$GPGGA,223553.000,4911.15425,N,12307.74239,W,1,13,0.7,000.33,M,-16.8,M,,*5F
$GPGGA,223554.000,4911.15425,N,12307.74239,W,1,13,0.7,000.33,M,-16.8,M,,*58
$GPGGA,223555.000,4911.15425,N,12307.74239,W,1,13,0.7,000.33,M,-16.8,M,,*59
$GPGGA,223556.000,4911.15425,N,12307.74239,W,1,13,0.7,000.33,M,-16.8,M,,*5A
$GPGGA,223557.000,4911.15425,N,12307.74239,W,1,13,0.7,000.33,M,-16.8,M,,*5B
$GPGGA,223558.000,4911.15425,N,12307.74239,W,1,13,0.7,000.33,M,-16.8,M,,*54
$GPGGA,223559.000,4911.15425,N,12307.74239,W,1,13,0.7,000.33,M,-16.8,M,,*55
$GPGGA,223600.000,4911.15425,N,12307.74239,W,1,13,0.7,000.33,M,-16.8,M,,*5A
$GPGGA,223601.000,4911.15425,N,12307.74239,W,1,13,0.7,000.33,M,-16.8,M,,*5B
$GPGGA,223602.000,4911.15425,N,12307.74239,W,1,13,0.7,000.33,M,-16.8,M,,*58
$GPGGA,223603.000,4911.15425,N,12307.74239,W,1,13,0.7,000.33,M,-16.8,M,,*59
$GPGGA,223604.000,4911.15425,N,12307.74239,W,1,13,0.7,000.33,M,-16.8,M,,*5E
$GPGGA,223605.000,4911.15425,N,12307.74239,W,1,13,0.7,000.33,M,-16.8,M,,*5F
$GPGGA,223606.000,4911.15425,N,12307.74239,W,1,13,0.7,000.33,M,-16.8,M,,*5C
$GPGGA,223607.000,4911.15425,N,12307.74239,W,1,13,0.7,000.33,M,-16.8,M,,*5D
$GPGGA,223608.000,4911.15425,N,12307.74239,W,1,12,0.7,000.33,M,-16.8,M,,*53
$GPGGA,223609.000,4911.15425,N,12307.74239,W,1,12,0.7,000.33,M,-16.8,M,,*52
$GPGGA,223610.000,4911.15425,N,12307.74239,W,1,13,0.7,000.33,M,-16.8,M,,*5B
$GPGGA,223611.000,4911.15425,N,12307.74239,W,1,13,0.7,000.33,M,-16.8,M,,*5A
$GPGGA,223612.000,4911.15425,N,12307.74239,W,1,13,0.8,000.33,M,-16.8,M,,*56
$GPGGA,223613.000,4911.15425,N,12307.74239,W,1,13,0.8,000.33,M,-16.8,M,,*57
$GPGGA,223614.000,4911.15425,N,12307.74239,W,1,13,0.8,000.33,M,-16.8,M,,*50
$GPGGA,223615.000,4911.15425,N,12307.74239,W,1,13,0.7,000.33,M,-16.8,M,,*5E
$GPGGA,223616.000,4911.15425,N,12307.74239,W,1,13,0.7,000.33,M,-16.8,M,,*5D
$GPGGA,223617.000,4911.15384,N,12307.74259,W,1,13,0.7,001.63,M,-16.8,M,,*52
$GPGGA,223618.000,4911.15384,N,12307.74259,W,1,13,0.7,001.63,M,-16.8,M,,*5D
$GPGGA,223619.000,4911.15384,N,12307.74259,W,1,13,0.7,001.63,M,-16.8,M,,*5C
$GPGGA,223620.000,4911.15384,N,12307.74259,W,1,13,0.7,001.63,M,-16.8,M,,*56
$GPGGA,223621.000,4911.15384,N,12307.74259,W,1,13,0.7,001.63,M,-16.8,M,,*57
