$GPGGA,221410.000,4911.14272,N,12307.98117,W,1,14,0.7,-01.96,M,-16.8,M,,*47
$GPRMC,221410.000,A,4911.14272,N,12307.98117,W,0.1,0.0,230419,,,A*7A
$GPGGA,221411.000,4911.14272,N,12307.98117,W,1,15,0.7,-01.96,M,-16.8,M,,*47
$GPRMC,221411.000,A,4911.14272,N,12307.98117,W,0.0,0.0,230419,,,A*7A
$GPGGA,221412.000,4911.14272,N,12307.98117,W,1,15,0.7,-01.96,M,-16.8,M,,*44
$GPRMC,221412.000,A,4911.14272,N,12307.98117,W,0.0,0.0,230419,,,A*79
$GPGGA,221413.000,4911.14272,N,12307.98117,W,1,15,0.7,-01.96,M,-16.8,M,,*45
$GPRMC,221413.000,A,4911.14272,N,12307.98117,W,0.0,0.0,230419,,,A*78
$GPGGA,221414.000,4911.14256,N,12307.98144,W,1,15,0.7,-01.82,M,-16.8,M,,*47
$GPRMC,221414.000,A,4911.14256,N,12307.98144,W,0.1,0.0,230419,,,A*7E
$GPGGA,221415.000,4911.14256,N,12307.98144,W,1,16,0.6,-01.82,M,-16.8,M,,*44
$GPRMC,221415.000,A,4911.14256,N,12307.98144,W,0.1,0.0,230419,,,A*7F
$GPGGA,221416.000,4911.14256,N,12307.98144,W,1,15,0.6,-01.82,M,-16.8,M,,*44
$GPRMC,221416.000,A,4911.14256,N,12307.98144,W,0.0,0.0,230419,,,A*7D
$GPGGA,221417.000,4911.14256,N,12307.98144,W,1,15,0.6,-01.82,M,-16.8,M,,*45
$GPRMC,221417.000,A,4911.14256,N,12307.98144,W,0.0,0.0,230419,,,A*7C
$GPGGA,221418.000,4911.14256,N,12307.98144,W,1,15,0.6,-01.82,M,-16.8,M,,*4A
$GPRMC,221418.000,A,4911.14256,N,12307.98144,W,0.1,0.0,230419,,,A*72
$GPGGA,221419.000,4911.14256,N,12307.98144,W,1,15,0.6,-01.82,M,-16.8,M,,*4B
$GPRMC,221419.000,A,4911.14256,N,12307.98144,W,0.1,0.0,230419,,,A*73
$GPGGA,221420.000,4911.14256,N,12307.98144,W,1,13,0.7,-01.82,M,-16.8,M,,*46
$GPRMC,221420.000,A,4911.14256,N,12307.98144,W,0.1,0.0,230419,,,A*79
$GPGGA,221421.000,4911.14256,N,12307.98144,W,1,14,0.6,-01.82,M,-16.8,M,,*41
$GPRMC,221421.000,A,4911.14256,N,12307.98144,W,0.1,0.0,230419,,,A*78
$GPGGA,221422.000,4911.14256,N,12307.98144,W,1,14,0.7,-01.82,M,-16.8,M,,*43
$GPRMC,221422.000,A,4911.14256,N,12307.98144,W,0.1,0.0,230419,,,A*7B
$GPGGA,221423.000,4911.14256,N,12307.98144,W,1,14,0.7,-01.82,M,-16.8,M,,*42
$GPRMC,221423.000,A,4911.14256,N,12307.98144,W,0.1,0.0,230419,,,A*7A
$GPGGA,221424.000,4911.14256,N,12307.98144,W,1,14,0.7,-01.82,M,-16.8,M,,*45
$GPRMC,221424.000,A,4911.14256,N,12307.98144,W,0.2,0.0,230419,,,A*7E
$GPGGA,221425.000,4911.14256,N,12307.98144,W,1,15,0.6,-01.82,M,-16.8,M,,*44
$GPRMC,221425.000,A,4911.14256,N,12307.98144,W,0.1,0.0,230419,,,A*7C
$GPGGA,221426.000,4911.14256,N,12307.98144,W,1,16,0.6,-01.82,M,-16.8,M,,*44
$GPRMC,221426.000,A,4911.14256,N,12307.98144,W,0.1,0.0,230419,,,A*7F
$GPGGA,221427.000,4911.14256,N,12307.98144,W,1,16,0.6,-01.82,M,-16.8,M,,*45
$GPRMC,221427.000,A,4911.14256,N,12307.98144,W,0.2,0.0,230419,,,A*7D
$GPGGA,221428.000,4911.14256,N,12307.98144,W,1,16,0.7,-01.82,M,-16.8,M,,*4B
$GPRMC,221428.000,A,4911.14256,N,12307.98144,W,0.2,164.9,230419,,,A*78
$GPGGA,221429.000,4911.14256,N,12307.98144,W,1,16,0.7,-01.82,M,-16.8,M,,*4A
$GPRMC,221429.000,A,4911.14256,N,12307.98144,W,0.1,0.0,230419,,,A*70
$GPGGA,221430.000,4911.14256,N,12307.98144,W,1,16,0.7,-01.82,M,-16.8,M,,*42
$GPRMC,221430.000,A,4911.14256,N,12307.98144,W,0.2,0.0,230419,,,A*7B
$GPGGA,221431.000,4911.14256,N,12307.98144,W,1,16,0.6,-01.82,M,-16.8,M,,*42
$GPRMC,221431.000,A,4911.14256,N,12307.98144,W,0.0,0.0,230419,,,A*78
$GPGGA,221432.000,4911.14256,N,12307.98144,W,1,15,0.6,-01.82,M,-16.8,M,,*42
$GPRMC,221432.000,A,4911.14256,N,12307.98144,W,0.1,0.0,230419,,,A*7A
$GPGGA,221433.000,4911.14256,N,12307.98144,W,1,15,0.6,-01.82,M,-16.8,M,,*43
$GPRMC,221433.000,A,4911.14256,N,12307.98144,W,0.1,0.0,230419,,,A*7B
$GPGGA,221434.000,4911.14256,N,12307.98144,W,1,15,0.6,-01.82,M,-16.8,M,,*44
$GPRMC,221434.000,A,4911.14256,N,12307.98144,W,0.1,0.0,230419,,,A*7C
$GPGGA,221435.000,4911.14256,N,12307.98144,W,1,15,0.6,-01.82,M,-16.8,M,,*45
$GPRMC,221435.000,A,4911.14256,N,12307.98144,W,0.1,0.0,230419,,,A*7D
$GPGGA,221436.000,4911.14256,N,12307.98144,W,1,16,0.6,-01.82,M,-16.8,M,,*45
$GPRMC,221436.000,A,4911.14256,N,12307.98144,W,0.1,0.0,230419,,,A*7E
$GPGGA,221437.000,4911.14256,N,12307.98144,W,1,16,0.6,-01.82,M,-16.8,M,,*44
$GPRMC,221437.000,A,4911.14256,N,12307.98144,W,0.1,0.0,230419,,,A*7F
$GPGGA,221438.000,4911.14256,N,12307.98144,W,1,16,0.6,-01.82,M,-16.8,M,,*4B
$GPRMC,221438.000,A,4911.14256,N,12307.98144,W,0.1,0.0,230419,,,A*70
$GPGGA,221439.000,4911.14256,N,12307.98144,W,1,16,0.6,-01.82,M,-16.8,M,,*4A
$GPRMC,221439.000,A,4911.14256,N,12307.98144,W,0.1,0.0,230419,,,A*71
$GPGGA,221440.000,4911.14256,N,12307.98144,W,1,16,0.6,-01.82,M,-16.8,M,,*44
$GPRMC,221440.000,A,4911.14256,N,12307.98144,W,0.1,0.0,230419,,,A*7F
$GPGGA,221441.000,4911.14256,N,12307.98144,W,1,16,0.6,-01.82,M,-16.8,M,,*45
$GPRMC,221441.000,A,4911.14256,N,12307.98144,W,0.1,0.0,230419,,,A*7E
$GPGGA,221442.000,4911.14256,N,12307.98144,W,1,15,0.7,-01.82,M,-16.8,M,,*44
$GPRMC,221442.000,A,4911.14256,N,12307.98144,W,0.1,0.0,230419,,,A*7D
$GPGGA,221443.000,4911.14256,N,12307.98144,W,1,15,0.7,-01.82,M,-16.8,M,,*45
$GPRMC,221443.000,A,4911.14256,N,12307.98144,W,0.1,0.0,230419,,,A*7C
$GPGGA,221444.000,4911.14256,N,12307.98144,W,1,15,0.7,-01.82,M,-16.8,M,,*42
$GPRMC,221444.000,A,4911.14256,N,12307.98144,W,0.1,0.0,230419,,,A*7B
$GPGGA,221445.000,4911.14256,N,12307.98144,W,1,16,0.6,-01.82,M,-16.8,M,,*41
$GPRMC,221445.000,A,4911.14256,N,12307.98144,W,0.0,0.0,230419,,,A*7B
$GPGGA,221446.000,4911.14256,N,12307.98144,W,1,16,0.6,-01.82,M,-16.8,M,,*42
$GPRMC,221446.000,A,4911.14256,N,12307.98144,W,0.0,0.0,230419,,,A*78
$GPGGA,221447.000,4911.14256,N,12307.98144,W,1,16,0.7,-01.82,M,-16.8,M,,*42
$GPRMC,221447.000,A,4911.14256,N,12307.98144,W,0.0,0.0,230419,,,A*79
$GPGGA,221448.000,4911.14256,N,12307.98144,W,1,16,0.6,-01.82,M,-16.8,M,,*4C
$GPRMC,221448.000,A,4911.14256,N,12307.98144,W,0.1,0.0,230419,,,A*77
$GPGGA,221449.000,4911.14256,N,12307.98144,W,1,16,0.6,-01.82,M,-16.8,M,,*4D
$GPRMC,221449.000,A,4911.14256,N,12307.98144,W,0.1,0.0,230419,,,A*76
$GPGGA,221450.000,4911.14256,N,12307.98144,W,1,16,0.6,-01.82,M,-16.8,M,,*45
$GPRMC,221450.000,A,4911.14256,N,12307.98144,W,0.1,0.0,230419,,,A*7E
$GPGGA,221451.000,4911.14256,N,12307.98144,W,1,16,0.6,-01.82,M,-16.8,M,,*44
$GPRMC,221451.000,A,4911.14256,N,12307.98144,W,0.1,0.0,230419,,,A*7F
$GPGGA,221452.000,4911.14256,N,12307.98144,W,1,16,0.6,-01.82,M,-16.8,M,,*47
$GPRMC,221452.000,A,4911.14256,N,12307.98144,W,0.0,0.0,230419,,,A*7D
$GPGGA,221453.000,4911.14256,N,12307.98144,W,1,16,0.6,-01.82,M,-16.8,M,,*46
$GPRMC,221453.000,A,4911.14256,N,12307.98144,W,0.0,0.0,230419,,,A*7C
$GPGGA,221454.000,4911.14249,N,12307.98147,W,1,16,0.6,-01.29,M,-16.8,M,,*4D
$GPRMC,221454.000,A,4911.14249,N,12307.98147,W,0.0,0.0,230419,,,A*76
$GPGGA,221455.000,4911.14249,N,12307.98147,W,1,16,0.6,-01.29,M,-16.8,M,,*4C
$GPRMC,221455.000,A,4911.14249,N,12307.98147,W,0.1,0.0,230419,,,A*76
$GPGGA,221456.000,4911.14249,N,12307.98147,W,1,16,0.6,-01.29,M,-16.8,M,,*4F
$GPRMC,221456.000,A,4911.14249,N,12307.98147,W,0.1,0.0,230419,,,A*75
$GPGGA,221457.000,4911.14249,N,12307.98147,W,1,16,0.6,-01.29,M,-16.8,M,,*4E
$GPRMC,221457.000,A,4911.14249,N,12307.98147,W,0.1,0.0,230419,,,A*74
$GPGGA,221458.000,4911.14249,N,12307.98147,W,1,16,0.6,-01.29,M,-16.8,M,,*41
$GPRMC,221458.000,A,4911.14249,N,12307.98147,W,0.1,0.0,230419,,,A*7B
$GPGGA,221459.000,4911.14249,N,12307.98147,W,1,16,0.6,-01.29,M,-16.8,M,,*40
$GPRMC,221459.000,A,4911.14249,N,12307.98147,W,0.1,0.0,230419,,,A*7A
$GPGGA,221500.000,4911.14249,N,12307.98147,W,1,15,0.7,-01.29,M,-16.8,M,,*4F
$GPRMC,221500.000,A,4911.14249,N,12307.98147,W,0.1,0.0,230419,,,A*77
$GPGGA,221501.000,4911.14249,N,12307.98147,W,1,16,0.6,-01.29,M,-16.8,M,,*4C
$GPRMC,221501.000,A,4911.14249,N,12307.98147,W,0.0,0.0,230419,,,A*77
$GPGGA,221502.000,4911.14249,N,12307.98147,W,1,16,0.6,-01.29,M,-16.8,M,,*4F
$GPRMC,221502.000,A,4911.14249,N,12307.98147,W,0.1,0.0,230419,,,A*75
$GPGGA,221503.000,4911.14249,N,12307.98147,W,1,16,0.6,-01.29,M,-16.8,M,,*4E
$GPRMC,221503.000,A,4911.14249,N,12307.98147,W,0.0,0.0,230419,,,A*75
$GPGGA,221504.000,4911.14249,N,12307.98147,W,1,16,0.6,-01.29,M,-16.8,M,,*49
$GPRMC,221504.000,A,4911.14249,N,12307.98147,W,0.1,0.0,230419,,,A*73
$GPGGA,221505.000,4911.14249,N,12307.98147,W,1,15,0.7,-01.29,M,-16.8,M,,*4A
$GPRMC,221505.000,A,4911.14249,N,12307.98147,W,0.1,0.0,230419,,,A*72
$GPGGA,221506.000,4911.14249,N,12307.98147,W,1,16,0.6,-01.29,M,-16.8,M,,*4B
$GPRMC,221506.000,A,4911.14249,N,12307.98147,W,0.1,0.0,230419,,,A*71
$GPGGA,221507.000,4911.14249,N,12307.98147,W,1,16,0.6,-01.29,M,-16.8,M,,*4A
$GPRMC,221507.000,A,4911.14249,N,12307.98147,W,0.1,0.0,230419,,,A*70
$GPGGA,221508.000,4911.14249,N,12307.98147,W,1,16,0.6,-01.29,M,-16.8,M,,*45
$GPRMC,221508.000,A,4911.14249,N,12307.98147,W,0.1,0.0,230419,,,A*7F
$GPGGA,221509.000,4911.14249,N,12307.98147,W,1,16,0.6,-01.29,M,-16.8,M,,*44
$GPRMC,221509.000,A,4911.14249,N,12307.98147,W,0.1,0.0,230419,,,A*7E
$GPGGA,221510.000,4911.14249,N,12307.98147,W,1,16,0.6,-01.29,M,-16.8,M,,*4C
$GPRMC,221510.000,A,4911.14249,N,12307.98147,W,0.0,0.0,230419,,,A*77
$GPGGA,221511.000,4911.14249,N,12307.98147,W,1,15,0.7,-01.29,M,-16.8,M,,*4F
$GPRMC,221511.000,A,4911.14249,N,12307.98147,W,0.0,0.0,230419,,,A*76
$GPGGA,221512.000,4911.14249,N,12307.98147,W,1,15,0.7,-01.29,M,-16.8,M,,*4C
$GPRMC,221512.000,A,4911.14249,N,12307.98147,W,0.1,0.0,230419,,,A*74
$GPGGA,221513.000,4911.14249,N,12307.98147,W,1,15,0.6,-01.29,M,-16.8,M,,*4C
$GPRMC,221513.000,A,4911.14249,N,12307.98147,W,0.1,0.0,230419,,,A*75
$GPGGA,221514.000,4911.14249,N,12307.98147,W,1,15,0.6,-01.29,M,-16.8,M,,*4B
$GPRMC,221514.000,A,4911.14249,N,12307.98147,W,0.1,0.0,230419,,,A*72
$GPGGA,221515.000,4911.14249,N,12307.98147,W,1,15,0.6,-01.29,M,-16.8,M,,*4A
$GPRMC,221515.000,A,4911.14249,N,12307.98147,W,0.1,0.0,230419,,,A*73
$GPGGA,221516.000,4911.14249,N,12307.98147,W,1,15,0.6,-01.29,M,-16.8,M,,*49
$GPRMC,221516.000,A,4911.14249,N,12307.98147,W,0.1,0.0,230419,,,A*70
$GPGGA,221517.000,4911.14249,N,12307.98147,W,1,15,0.6,-01.29,M,-16.8,M,,*48
$GPRMC,221517.000,A,4911.14249,N,12307.98147,W,0.1,0.0,230419,,,A*71
$GPGGA,221518.000,4911.14249,N,12307.98147,W,1,15,0.6,-01.29,M,-16.8,M,,*47
$GPRMC,221518.000,A,4911.14249,N,12307.98147,W,0.1,0.0,230419,,,A*7E
$GPGGA,221519.000,4911.14249,N,12307.98147,W,1,15,0.6,-01.29,M,-16.8,M,,*46
$GPRMC,221519.000,A,4911.14249,N,12307.98147,W,0.1,0.0,230419,,,A*7F
$GPGGA,221520.000,4911.14249,N,12307.98147,W,1,15,0.6,-01.29,M,-16.8,M,,*4C
$GPRMC,221520.000,A,4911.14249,N,12307.98147,W,0.1,0.0,230419,,,A*75
$GPGGA,221521.000,4911.14249,N,12307.98147,W,1,16,0.6,-01.29,M,-16.8,M,,*4E
$GPRMC,221521.000,A,4911.14249,N,12307.98147,W,0.1,0.0,230419,,,A*74
$GPGGA,221522.000,4911.14249,N,12307.98147,W,1,16,0.6,-01.29,M,-16.8,M,,*4D
$GPRMC,221522.000,A,4911.14249,N,12307.98147,W,0.1,0.0,230419,,,A*77
$GPGGA,221523.000,4911.14249,N,12307.98147,W,1,16,0.6,-01.29,M,-16.8,M,,*4C
$GPRMC,221523.000,A,4911.14249,N,12307.98147,W,0.0,0.0,230419,,,A*77
$GPGGA,221524.000,4911.14249,N,12307.98147,W,1,15,0.6,-01.29,M,-16.8,M,,*48
$GPRMC,221524.000,A,4911.14249,N,12307.98147,W,0.1,0.0,230419,,,A*71
$GPGGA,221525.000,4911.14249,N,12307.98147,W,1,15,0.6,-01.29,M,-16.8,M,,*49
$GPRMC,221525.000,A,4911.14249,N,12307.98147,W,0.1,0.0,230419,,,A*70
$GPGGA,221526.000,4911.14249,N,12307.98147,W,1,15,0.6,-01.29,M,-16.8,M,,*4A
$GPRMC,221526.000,A,4911.14249,N,12307.98147,W,0.1,0.0,230419,,,A*73
$GPGGA,221527.000,4911.14249,N,12307.98147,W,1,16,0.6,-01.29,M,-16.8,M,,*48
$GPRMC,221527.000,A,4911.14249,N,12307.98147,W,0.1,0.0,230419,,,A*72
$GPGGA,221528.000,4911.14249,N,12307.98147,W,1,15,0.6,-01.29,M,-16.8,M,,*44
$GPRMC,221528.000,A,4911.14249,N,12307.98147,W,0.1,0.0,230419,,,A*7D
$GPGGA,221529.000,4911.14249,N,12307.98147,W,1,15,0.6,-01.29,M,-16.8,M,,*45
$GPRMC,221529.000,A,4911.14249,N,12307.98147,W,0.1,0.0,230419,,,A*7C
$GPGGA,221530.000,4911.14249,N,12307.98147,W,1,15,0.6,-01.29,M,-16.8,M,,*4D
$GPRMC,221530.000,A,4911.14249,N,12307.98147,W,0.0,0.0,230419,,,A*75
$GPGGA,221531.000,4911.14249,N,12307.98147,W,1,15,0.6,-01.29,M,-16.8,M,,*4C
$GPRMC,221531.000,A,4911.14249,N,12307.98147,W,0.0,0.0,230419,,,A*74
$GPGGA,221532.000,4911.14249,N,12307.98147,W,1,15,0.6,-01.29,M,-16.8,M,,*4F
$GPRMC,221532.000,A,4911.14249,N,12307.98147,W,0.0,0.0,230419,,,A*77
$GPGGA,221533.000,4911.14249,N,12307.98147,W,1,15,0.6,-01.29,M,-16.8,M,,*4E
$GPRMC,221533.000,A,4911.14249,N,12307.98147,W,0.1,0.0,230419,,,A*77
$GPGGA,221534.000,4911.14227,N,12307.98127,W,1,15,0.6,-01.96,M,-16.8,M,,*43
$GPRMC,221534.000,A,4911.14227,N,12307.98127,W,0.1,0.0,230419,,,A*7E
$GPGGA,221535.000,4911.14227,N,12307.98127,W,1,14,0.6,-01.96,M,-16.8,M,,*43
$GPRMC,221535.000,A,4911.14227,N,12307.98127,W,0.0,0.0,230419,,,A*7E
$GPGGA,221536.000,4911.14227,N,12307.98127,W,1,14,0.6,-01.96,M,-16.8,M,,*40
$GPRMC,221536.000,A,4911.14227,N,12307.98127,W,0.1,0.0,230419,,,A*7C
$GPGGA,221537.000,4911.14227,N,12307.98127,W,1,14,0.6,-01.96,M,-16.8,M,,*41
$GPRMC,221537.000,A,4911.14227,N,12307.98127,W,0.1,0.0,230419,,,A*7D
$GPGGA,221538.000,4911.14227,N,12307.98127,W,1,14,0.6,-01.96,M,-16.8,M,,*4E
$GPRMC,221538.000,A,4911.14227,N,12307.98127,W,0.0,0.0,230419,,,A*73
$GPGGA,221539.000,4911.14227,N,12307.98127,W,1,14,0.6,-01.96,M,-16.8,M,,*4F
$GPRMC,221539.000,A,4911.14227,N,12307.98127,W,0.1,0.0,230419,,,A*73
$GPGGA,221540.000,4911.14227,N,12307.98127,W,1,14,0.6,-01.96,M,-16.8,M,,*41
$GPRMC,221540.000,A,4911.14227,N,12307.98127,W,0.1,0.0,230419,,,A*7D
$GPGGA,221541.000,4911.14227,N,12307.98127,W,1,14,0.6,-01.96,M,-16.8,M,,*40
$GPRMC,221541.000,A,4911.14227,N,12307.98127,W,0.1,0.0,230419,,,A*7C
$GPGGA,221542.000,4911.14227,N,12307.98127,W,1,14,0.6,-01.96,M,-16.8,M,,*43
$GPRMC,221542.000,A,4911.14227,N,12307.98127,W,0.1,0.0,230419,,,A*7F
$GPGGA,221543.000,4911.14227,N,12307.98127,W,1,14,0.6,-01.96,M,-16.8,M,,*42
$GPRMC,221543.000,A,4911.14227,N,12307.98127,W,0.0,0.0,230419,,,A*7F
$GPGGA,221544.000,4911.14227,N,12307.98127,W,1,14,0.6,-01.96,M,-16.8,M,,*45
$GPRMC,221544.000,A,4911.14227,N,12307.98127,W,0.1,0.0,230419,,,A*79
$GPGGA,221545.000,4911.14227,N,12307.98127,W,1,14,0.6,-01.96,M,-16.8,M,,*44
$GPRMC,221545.000,A,4911.14227,N,12307.98127,W,0.1,0.0,230419,,,A*78
$GPGGA,221546.000,4911.14227,N,12307.98127,W,1,15,0.6,-01.96,M,-16.8,M,,*46
$GPRMC,221546.000,A,4911.14227,N,12307.98127,W,0.0,0.0,230419,,,A*7A
$GPGGA,221547.000,4911.14227,N,12307.98127,W,1,15,0.6,-01.96,M,-16.8,M,,*47
$GPRMC,221547.000,A,4911.14227,N,12307.98127,W,0.0,0.0,230419,,,A*7B
$GPGGA,221548.000,4911.14227,N,12307.98127,W,1,16,0.6,-01.96,M,-16.8,M,,*4B
$GPRMC,221548.000,A,4911.14227,N,12307.98127,W,0.0,0.0,230419,,,A*74
$GPGGA,221549.000,4911.14227,N,12307.98127,W,1,15,0.6,-01.96,M,-16.8,M,,*49
$GPRMC,221549.000,A,4911.14227,N,12307.98127,W,0.1,0.0,230419,,,A*74
$GPGGA,221550.000,4911.14227,N,12307.98127,W,1,15,0.6,-01.96,M,-16.8,M,,*41
$GPRMC,221550.000,A,4911.14227,N,12307.98127,W,0.0,0.0,230419,,,A*7D
$GPGGA,221551.000,4911.14227,N,12307.98127,W,1,15,0.6,-01.96,M,-16.8,M,,*40
$GPRMC,221551.000,A,4911.14227,N,12307.98127,W,0.0,0.0,230419,,,A*7C
$GPGGA,221552.000,4911.14227,N,12307.98127,W,1,16,0.6,-01.96,M,-16.8,M,,*40
$GPRMC,221552.000,A,4911.14227,N,12307.98127,W,0.0,0.0,230419,,,A*7F
$GPGGA,221553.000,4911.14227,N,12307.98127,W,1,16,0.6,-01.96,M,-16.8,M,,*41
$GPRMC,221553.000,A,4911.14227,N,12307.98127,W,0.0,0.0,230419,,,A*7E
$GPGGA,221554.000,4911.14227,N,12307.98127,W,1,15,0.6,-01.96,M,-16.8,M,,*45
$GPRMC,221554.000,A,4911.14227,N,12307.98127,W,0.1,0.0,230419,,,A*78
$GPGGA,221555.000,4911.14227,N,12307.98127,W,1,15,0.6,-01.96,M,-16.8,M,,*44
$GPRMC,221555.000,A,4911.14227,N,12307.98127,W,0.1,0.0,230419,,,A*79
$GPGGA,221556.000,4911.14227,N,12307.98127,W,1,15,0.6,-01.96,M,-16.8,M,,*47
$GPRMC,221556.000,A,4911.14227,N,12307.98127,W,0.1,0.0,230419,,,A*7A
$GPGGA,221557.000,4911.14227,N,12307.98127,W,1,15,0.6,-01.96,M,-16.8,M,,*46
$GPRMC,221557.000,A,4911.14227,N,12307.98127,W,0.1,0.0,230419,,,A*7B
$GPGGA,221558.000,4911.14227,N,12307.98127,W,1,15,0.6,-01.96,M,-16.8,M,,*49
$GPRMC,221558.000,A,4911.14227,N,12307.98127,W,0.1,0.0,230419,,,A*74
$GPGGA,221559.000,4911.14227,N,12307.98127,W,1,15,0.6,-01.96,M,-16.8,M,,*48
$GPRMC,221559.000,A,4911.14227,N,12307.98127,W,0.1,0.0,230419,,,A*75
$GPGGA,221600.000,4911.14227,N,12307.98127,W,1,15,0.6,-01.96,M,-16.8,M,,*47
$GPRMC,221600.000,A,4911.14227,N,12307.98127,W,0.1,0.0,230419,,,A*7A
$GPGGA,221601.000,4911.14227,N,12307.98127,W,1,15,0.6,-01.96,M,-16.8,M,,*46
$GPRMC,221601.000,A,4911.14227,N,12307.98127,W,0.1,0.0,230419,,,A*7B
$GPGGA,221602.000,4911.14227,N,12307.98127,W,1,15,0.6,-01.96,M,-16.8,M,,*45
$GPRMC,221602.000,A,4911.14227,N,12307.98127,W,0.0,0.0,230419,,,A*79
$GPGGA,221603.000,4911.14227,N,12307.98127,W,1,15,0.6,-01.96,M,-16.8,M,,*44
$GPRMC,221603.000,A,4911.14227,N,12307.98127,W,0.1,0.0,230419,,,A*79
$GPGGA,221604.000,4911.14227,N,12307.98127,W,1,15,0.6,-01.96,M,-16.8,M,,*43
$GPRMC,221604.000,A,4911.14227,N,12307.98127,W,0.0,0.0,230419,,,A*7F
$GPGGA,221605.000,4911.14227,N,12307.98127,W,1,15,0.6,-01.96,M,-16.8,M,,*42
$GPRMC,221605.000,A,4911.14227,N,12307.98127,W,0.1,0.0,230419,,,A*7F
$GPGGA,221606.000,4911.14227,N,12307.98127,W,1,14,0.7,-01.96,M,-16.8,M,,*41
$GPRMC,221606.000,A,4911.14227,N,12307.98127,W,0.0,0.0,230419,,,A*7D
$GPGGA,221607.000,4911.14227,N,12307.98127,W,1,15,0.6,-01.96,M,-16.8,M,,*40
$GPRMC,221607.000,A,4911.14227,N,12307.98127,W,0.0,0.0,230419,,,A*7C
$GPGGA,221608.000,4911.14227,N,12307.98127,W,1,15,0.6,-01.96,M,-16.8,M,,*4F
$GPRMC,221608.000,A,4911.14227,N,12307.98127,W,0.1,0.0,230419,,,A*72
$GPGGA,221609.000,4911.14227,N,12307.98127,W,1,15,0.6,-01.96,M,-16.8,M,,*4E
$GPRMC,221609.000,A,4911.14227,N,12307.98127,W,0.0,0.0,230419,,,A*72
$GPGGA,221610.000,4911.14227,N,12307.98127,W,1,14,0.7,-01.96,M,-16.8,M,,*46
$GPRMC,221610.000,A,4911.14227,N,12307.98127,W,0.1,0.0,230419,,,A*7B
$GPGGA,221611.000,4911.14227,N,12307.98127,W,1,15,0.6,-01.96,M,-16.8,M,,*47
$GPRMC,221611.000,A,4911.14227,N,12307.98127,W,0.1,0.0,230419,,,A*7A
$GPGGA,221612.000,4911.14227,N,12307.98127,W,1,14,0.7,-01.96,M,-16.8,M,,*44
$GPRMC,221612.000,A,4911.14227,N,12307.98127,W,0.1,0.0,230419,,,A*79
$GPGGA,221613.000,4911.14227,N,12307.98127,W,1,14,0.7,-01.96,M,-16.8,M,,*45
$GPRMC,221613.000,A,4911.14227,N,12307.98127,W,0.1,0.0,230419,,,A*78
$GPGGA,221614.000,4911.14228,N,12307.98157,W,1,14,0.7,-01.31,M,-16.8,M,,*47
$GPRMC,221614.000,A,4911.14228,N,12307.98157,W,0.1,0.0,230419,,,A*77
$GPGGA,221615.000,4911.14228,N,12307.98157,W,1,13,0.7,-01.31,M,-16.8,M,,*41
$GPRMC,221615.000,A,4911.14228,N,12307.98157,W,0.1,0.0,230419,,,A*76
$GPGGA,221616.000,4911.14228,N,12307.98157,W,1,13,0.7,-01.31,M,-16.8,M,,*42
$GPRMC,221616.000,A,4911.14228,N,12307.98157,W,0.1,0.0,230419,,,A*75
$GPGGA,221617.000,4911.14228,N,12307.98157,W,1,13,0.7,-01.31,M,-16.8,M,,*43
$GPRMC,221617.000,A,4911.14228,N,12307.98157,W,0.1,0.0,230419,,,A*74
$GPGGA,221618.000,4911.14228,N,12307.98157,W,1,14,0.7,-01.31,M,-16.8,M,,*4B
$GPRMC,221618.000,A,4911.14228,N,12307.98157,W,0.1,0.0,230419,,,A*7B
$GPGGA,221619.000,4911.14228,N,12307.98157,W,1,14,0.7,-01.31,M,-16.8,M,,*4A
$GPRMC,221619.000,A,4911.14228,N,12307.98157,W,0.1,0.0,230419,,,A*7A
$GPGGA,221620.000,4911.14228,N,12307.98157,W,1,14,0.7,-01.31,M,-16.8,M,,*40
$GPRMC,221620.000,A,4911.14228,N,12307.98157,W,0.1,0.0,230419,,,A*70
$GPGGA,221621.000,4911.14228,N,12307.98157,W,1,14,0.7,-01.31,M,-16.8,M,,*41
$GPRMC,221621.000,A,4911.14228,N,12307.98157,W,0.1,0.0,230419,,,A*71
$GPGGA,221622.000,4911.14228,N,12307.98157,W,1,14,0.7,-01.31,M,-16.8,M,,*42
$GPRMC,221622.000,A,4911.14228,N,12307.98157,W,0.1,0.0,230419,,,A*72
$GPGGA,221623.000,4911.14228,N,12307.98157,W,1,14,0.7,-01.31,M,-16.8,M,,*43
$GPRMC,221623.000,A,4911.14228,N,12307.98157,W,0.1,0.0,230419,,,A*73
$GPGGA,221624.000,4911.14228,N,12307.98157,W,1,14,0.7,-01.31,M,-16.8,M,,*44
$GPRMC,221624.000,A,4911.14228,N,12307.98157,W,0.1,0.0,230419,,,A*74
$GPGGA,221625.000,4911.14228,N,12307.98157,W,1,14,0.7,-01.31,M,-16.8,M,,*45
$GPRMC,221625.000,A,4911.14228,N,12307.98157,W,0.1,0.0,230419,,,A*75
$GPGGA,221626.000,4911.14228,N,12307.98157,W,1,14,0.7,-01.31,M,-16.8,M,,*46
$GPRMC,221626.000,A,4911.14228,N,12307.98157,W,0.1,0.0,230419,,,A*76
$GPGGA,221627.000,4911.14228,N,12307.98157,W,1,14,0.7,-01.31,M,-16.8,M,,*47
$GPRMC,221627.000,A,4911.14228,N,12307.98157,W,0.1,0.0,230419,,,A*77
$GPGGA,221628.000,4911.14228,N,12307.98157,W,1,14,0.7,-01.31,M,-16.8,M,,*48
$GPRMC,221628.000,A,4911.14228,N,12307.98157,W,0.1,0.0,230419,,,A*78
$GPGGA,221629.000,4911.14228,N,12307.98157,W,1,14,0.7,-01.31,M,-16.8,M,,*49
$GPRMC,221629.000,A,4911.14228,N,12307.98157,W,0.0,0.0,230419,,,A*78
$GPGGA,221630.000,4911.14228,N,12307.98157,W,1,14,0.7,-01.31,M,-16.8,M,,*41
$GPRMC,221630.000,A,4911.14228,N,12307.98157,W,0.1,0.0,230419,,,A*71
$GPGGA,221631.000,4911.14228,N,12307.98157,W,1,14,0.7,-01.31,M,-16.8,M,,*40
$GPRMC,221631.000,A,4911.14228,N,12307.98157,W,0.1,0.0,230419,,,A*70
$GPGGA,221632.000,4911.14228,N,12307.98157,W,1,14,0.7,-01.31,M,-16.8,M,,*43
$GPRMC,221632.000,A,4911.14228,N,12307.98157,W,0.0,0.0,230419,,,A*72
$GPGGA,221633.000,4911.14228,N,12307.98157,W,1,14,0.7,-01.31,M,-16.8,M,,*42
$GPRMC,221633.000,A,4911.14228,N,12307.98157,W,0.1,0.0,230419,,,A*72
$GPGGA,221634.000,4911.14228,N,12307.98157,W,1,14,0.7,-01.31,M,-16.8,M,,*45
$GPRMC,221634.000,A,4911.14228,N,12307.98157,W,0.1,0.0,230419,,,A*75
$GPGGA,221635.000,4911.14228,N,12307.98157,W,1,14,0.7,-01.31,M,-16.8,M,,*44
$GPRMC,221635.000,A,4911.14228,N,12307.98157,W,0.0,0.0,230419,,,A*75
$GPGGA,221636.000,4911.14228,N,12307.98157,W,1,14,0.7,-01.31,M,-16.8,M,,*47
$GPRMC,221636.000,A,4911.14228,N,12307.98157,W,0.1,0.0,230419,,,A*77
$GPGGA,221637.000,4911.14228,N,12307.98157,W,1,14,0.7,-01.31,M,-16.8,M,,*46
$GPRMC,221637.000,A,4911.14228,N,12307.98157,W,0.0,0.0,230419,,,A*77
$GPGGA,221638.000,4911.14228,N,12307.98157,W,1,14,0.7,-01.31,M,-16.8,M,,*49
$GPRMC,221638.000,A,4911.14228,N,12307.98157,W,0.1,0.0,230419,,,A*79
$GPGGA,221639.000,4911.14228,N,12307.98157,W,1,14,0.7,-01.31,M,-16.8,M,,*48
$GPRMC,221639.000,A,4911.14228,N,12307.98157,W,0.1,0.0,230419,,,A*78
$GPGGA,221640.000,4911.14228,N,12307.98157,W,1,14,0.7,-01.31,M,-16.8,M,,*46
$GPRMC,221640.000,A,4911.14228,N,12307.98157,W,0.0,0.0,230419,,,A*77
$GPGGA,221641.000,4911.14228,N,12307.98157,W,1,14,0.7,-01.31,M,-16.8,M,,*47
$GPRMC,221641.000,A,4911.14228,N,12307.98157,W,0.1,0.0,230419,,,A*77
$GPGGA,221642.000,4911.14228,N,12307.98157,W,1,14,0.7,-01.31,M,-16.8,M,,*44
$GPRMC,221642.000,A,4911.14228,N,12307.98157,W,0.0,0.0,230419,,,A*75
$GPGGA,221643.000,4911.14228,N,12307.98157,W,1,14,0.7,-01.31,M,-16.8,M,,*45
$GPRMC,221643.000,A,4911.14228,N,12307.98157,W,0.0,0.0,230419,,,A*74
$GPGGA,221644.000,4911.14228,N,12307.98157,W,1,14,0.7,-01.31,M,-16.8,M,,*42
$GPRMC,221644.000,A,4911.14228,N,12307.98157,W,0.0,0.0,230419,,,A*73
$GPGGA,221645.000,4911.14228,N,12307.98157,W,1,14,0.7,-01.31,M,-16.8,M,,*43
$GPRMC,221645.000,A,4911.14228,N,12307.98157,W,0.0,0.0,230419,,,A*72
$GPGGA,221646.000,4911.14228,N,12307.98157,W,1,14,0.7,-01.31,M,-16.8,M,,*40
$GPRMC,221646.000,A,4911.14228,N,12307.98157,W,0.0,0.0,230419,,,A*71
$GPGGA,221647.000,4911.14228,N,12307.98157,W,1,14,0.7,-01.31,M,-16.8,M,,*41
$GPRMC,221647.000,A,4911.14228,N,12307.98157,W,0.1,0.0,230419,,,A*71
$GPGGA,221648.000,4911.14228,N,12307.98157,W,1,14,0.7,-01.31,M,-16.8,M,,*4E
$GPRMC,221648.000,A,4911.14228,N,12307.98157,W,0.1,0.0,230419,,,A*7E
$GPGGA,221649.000,4911.14228,N,12307.98157,W,1,14,0.7,-01.31,M,-16.8,M,,*4F
$GPRMC,221649.000,A,4911.14228,N,12307.98157,W,0.0,0.0,230419,,,A*7E
$GPGGA,221650.000,4911.14228,N,12307.98157,W,1,14,0.7,-01.31,M,-16.8,M,,*47
$GPRMC,221650.000,A,4911.14228,N,12307.98157,W,0.0,0.0,230419,,,A*76
$GPGGA,221651.000,4911.14228,N,12307.98157,W,1,14,0.7,-01.31,M,-16.8,M,,*46
$GPRMC,221651.000,A,4911.14228,N,12307.98157,W,0.1,0.0,230419,,,A*76
$GPGGA,221652.000,4911.14228,N,12307.98157,W,1,14,0.7,-01.31,M,-16.8,M,,*45
$GPRMC,221652.000,A,4911.14228,N,12307.98157,W,0.1,0.0,230419,,,A*75
$GPGGA,221653.000,4911.14228,N,12307.98157,W,1,14,0.7,-01.31,M,-16.8,M,,*44
$GPRMC,221653.000,A,4911.14228,N,12307.98157,W,0.1,0.0,230419,,,A*74
$GPGGA,221654.000,4911.14206,N,12307.98124,W,1,14,0.7,-00.86,M,-16.8,M,,*46
$GPRMC,221654.000,A,4911.14206,N,12307.98124,W,0.1,0.0,230419,,,A*7B
$GPGGA,221655.000,4911.14206,N,12307.98124,W,1,13,0.7,-00.86,M,-16.8,M,,*40
$GPRMC,221655.000,A,4911.14206,N,12307.98124,W,0.0,0.0,230419,,,A*7B
$GPGGA,221656.000,4911.14206,N,12307.98124,W,1,14,0.7,-00.86,M,-16.8,M,,*44
$GPRMC,221656.000,A,4911.14206,N,12307.98124,W,0.1,0.0,230419,,,A*79
$GPGGA,221657.000,4911.14206,N,12307.98124,W,1,13,0.7,-00.86,M,-16.8,M,,*42
$GPRMC,221657.000,A,4911.14206,N,12307.98124,W,0.1,0.0,230419,,,A*78
$GPGGA,221658.000,4911.14206,N,12307.98124,W,1,13,0.7,-00.86,M,-16.8,M,,*4D
$GPRMC,221658.000,A,4911.14206,N,12307.98124,W,0.1,0.0,230419,,,A*77
$GPGGA,221659.000,4911.14206,N,12307.98124,W,1,13,0.7,-00.86,M,-16.8,M,,*4C
$GPRMC,221659.000,A,4911.14206,N,12307.98124,W,0.0,0.0,230419,,,A*77
$GPGGA,221700.000,4911.14206,N,12307.98124,W,1,13,0.7,-00.86,M,-16.8,M,,*41
$GPRMC,221700.000,A,4911.14206,N,12307.98124,W,0.1,0.0,230419,,,A*7B
$GPGGA,221701.000,4911.14206,N,12307.98124,W,1,13,0.7,-00.86,M,-16.8,M,,*40
$GPRMC,221701.000,A,4911.14206,N,12307.98124,W,0.1,0.0,230419,,,A*7A
$GPGGA,221702.000,4911.14206,N,12307.98124,W,1,13,0.7,-00.86,M,-16.8,M,,*43
$GPRMC,221702.000,A,4911.14206,N,12307.98124,W,0.0,0.0,230419,,,A*78
$GPGGA,221703.000,4911.14206,N,12307.98124,W,1,13,0.7,-00.86,M,-16.8,M,,*42
$GPRMC,221703.000,A,4911.14206,N,12307.98124,W,0.1,0.0,230419,,,A*78
$GPGGA,221704.000,4911.14206,N,12307.98124,W,1,14,0.7,-00.86,M,-16.8,M,,*42
$GPRMC,221704.000,A,4911.14206,N,12307.98124,W,0.1,0.0,230419,,,A*7F
$GPGGA,221705.000,4911.14206,N,12307.98124,W,1,14,0.7,-00.86,M,-16.8,M,,*43
$GPRMC,221705.000,A,4911.14206,N,12307.98124,W,0.1,0.0,230419,,,A*7E
$GPGGA,221706.000,4911.14206,N,12307.98124,W,1,14,0.7,-00.86,M,-16.8,M,,*40
$GPRMC,221706.000,A,4911.14206,N,12307.98124,W,0.1,0.0,230419,,,A*7D
$GPGGA,221707.000,4911.14206,N,12307.98124,W,1,14,0.7,-00.86,M,-16.8,M,,*41
$GPRMC,221707.000,A,4911.14206,N,12307.98124,W,0.1,0.0,230419,,,A*7C
$GPGGA,221708.000,4911.14206,N,12307.98124,W,1,14,0.7,-00.86,M,-16.8,M,,*4E
$GPRMC,221708.000,A,4911.14206,N,12307.98124,W,0.1,0.0,230419,,,A*73
$GPGGA,221709.000,4911.14206,N,12307.98124,W,1,14,0.7,-00.86,M,-16.8,M,,*4F
$GPRMC,221709.000,A,4911.14206,N,12307.98124,W,0.0,0.0,230419,,,A*73
$GPGGA,221710.000,4911.14206,N,12307.98124,W,1,14,0.7,-00.86,M,-16.8,M,,*47
$GPRMC,221710.000,A,4911.14206,N,12307.98124,W,0.1,0.0,230419,,,A*7A
$GPGGA,221711.000,4911.14206,N,12307.98124,W,1,14,0.7,-00.86,M,-16.8,M,,*46
$GPRMC,221711.000,A,4911.14206,N,12307.98124,W,0.1,0.0,230419,,,A*7B
$GPGGA,221712.000,4911.14206,N,12307.98124,W,1,14,0.7,-00.86,M,-16.8,M,,*45
$GPRMC,221712.000,A,4911.14206,N,12307.98124,W,0.1,0.0,230419,,,A*78
$GPGGA,221713.000,4911.14206,N,12307.98124,W,1,14,0.7,-00.86,M,-16.8,M,,*44
$GPRMC,221713.000,A,4911.14206,N,12307.98124,W,0.1,0.0,230419,,,A*79
$GPGGA,221714.000,4911.14206,N,12307.98124,W,1,14,0.7,-00.86,M,-16.8,M,,*43
$GPRMC,221714.000,A,4911.14206,N,12307.98124,W,0.1,0.0,230419,,,A*7E
$GPGGA,221715.000,4911.14206,N,12307.98124,W,1,13,0.7,-00.86,M,-16.8,M,,*45
$GPRMC,221715.000,A,4911.14206,N,12307.98124,W,0.1,0.0,230419,,,A*7F
$GPGGA,221716.000,4911.14206,N,12307.98124,W,1,14,0.7,-00.86,M,-16.8,M,,*41
$GPRMC,221716.000,A,4911.14206,N,12307.98124,W,0.1,0.0,230419,,,A*7C
$GPGGA,221717.000,4911.14206,N,12307.98124,W,1,14,0.7,-00.86,M,-16.8,M,,*40
$GPRMC,221717.000,A,4911.14206,N,12307.98124,W,0.1,0.0,230419,,,A*7D
$GPGGA,221718.000,4911.14206,N,12307.98124,W,1,14,0.7,-00.86,M,-16.8,M,,*4F
$GPRMC,221718.000,A,4911.14206,N,12307.98124,W,0.1,0.0,230419,,,A*72
$GPGGA,221719.000,4911.14206,N,12307.98124,W,1,14,0.7,-00.86,M,-16.8,M,,*4E
$GPRMC,221719.000,A,4911.14206,N,12307.98124,W,0.1,0.0,230419,,,A*73
$GPGGA,221720.000,4911.14206,N,12307.98124,W,1,14,0.7,-00.86,M,-16.8,M,,*44
$GPRMC,221720.000,A,4911.14206,N,12307.98124,W,0.1,0.0,230419,,,A*79
$GPGGA,221721.000,4911.14206,N,12307.98124,W,1,14,0.7,-00.86,M,-16.8,M,,*45
$GPRMC,221721.000,A,4911.14206,N,12307.98124,W,0.1,0.0,230419,,,A*78
$GPGGA,221722.000,4911.14206,N,12307.98124,W,1,14,0.7,-00.86,M,-16.8,M,,*46
$GPRMC,221722.000,A,4911.14206,N,12307.98124,W,0.1,0.0,230419,,,A*7B
$GPGGA,221723.000,4911.14206,N,12307.98124,W,1,14,0.7,-00.86,M,-16.8,M,,*47
$GPRMC,221723.000,A,4911.14206,N,12307.98124,W,0.0,0.0,230419,,,A*7B
$GPGGA,221724.000,4911.14206,N,12307.98124,W,1,14,0.7,-00.86,M,-16.8,M,,*40
$GPRMC,221724.000,A,4911.14206,N,12307.98124,W,0.0,0.0,230419,,,A*7C
$GPGGA,221725.000,4911.14206,N,12307.98124,W,1,14,0.7,-00.86,M,-16.8,M,,*41
$GPRMC,221725.000,A,4911.14206,N,12307.98124,W,0.1,0.0,230419,,,A*7C
$GPGGA,221726.000,4911.14206,N,12307.98124,W,1,14,0.7,-00.86,M,-16.8,M,,*42
$GPRMC,221726.000,A,4911.14206,N,12307.98124,W,0.1,0.0,230419,,,A*7F
$GPGGA,221727.000,4911.14206,N,12307.98124,W,1,14,0.7,-00.86,M,-16.8,M,,*43
$GPRMC,221727.000,A,4911.14206,N,12307.98124,W,0.0,0.0,230419,,,A*7F
$GPGGA,221728.000,4911.14206,N,12307.98124,W,1,14,0.7,-00.86,M,-16.8,M,,*4C
$GPRMC,221728.000,A,4911.14206,N,12307.98124,W,0.0,0.0,230419,,,A*70
$GPGGA,221729.000,4911.14206,N,12307.98124,W,1,14,0.7,-00.86,M,-16.8,M,,*4D
$GPRMC,221729.000,A,4911.14206,N,12307.98124,W,0.0,0.0,230419,,,A*71
$GPGGA,221730.000,4911.14206,N,12307.98124,W,1,14,0.7,-00.86,M,-16.8,M,,*45
$GPRMC,221730.000,A,4911.14206,N,12307.98124,W,0.1,0.0,230419,,,A*78
$GPGGA,221731.000,4911.14206,N,12307.98124,W,1,14,0.7,-00.86,M,-16.8,M,,*44
$GPRMC,221731.000,A,4911.14206,N,12307.98124,W,0.1,0.0,230419,,,A*79
$GPGGA,221732.000,4911.14206,N,12307.98124,W,1,14,0.7,-00.86,M,-16.8,M,,*47
$GPRMC,221732.000,A,4911.14206,N,12307.98124,W,0.0,0.0,230419,,,A*7B
$GPGGA,221733.000,4911.14206,N,12307.98124,W,1,14,0.7,-00.86,M,-16.8,M,,*46
$GPRMC,221733.000,A,4911.14206,N,12307.98124,W,0.0,0.0,230419,,,A*7A
$GPGGA,221734.000,4911.14174,N,12307.98098,W,1,14,0.7,-00.57,M,-16.8,M,,*4D
$GPRMC,221734.000,A,4911.14174,N,12307.98098,W,0.1,0.0,230419,,,A*7C
$GPGGA,221735.000,4911.14174,N,12307.98098,W,1,13,0.7,-00.57,M,-16.8,M,,*4B
$GPRMC,221735.000,A,4911.14174,N,12307.98098,W,0.0,0.0,230419,,,A*7C
$GPGGA,221736.000,4911.14174,N,12307.98098,W,1,14,0.7,-00.57,M,-16.8,M,,*4F
$GPRMC,221736.000,A,4911.14174,N,12307.98098,W,0.0,0.0,230419,,,A*7F
$GPGGA,221737.000,4911.14174,N,12307.98098,W,1,14,0.7,-00.57,M,-16.8,M,,*4E
$GPRMC,221737.000,A,4911.14174,N,12307.98098,W,0.0,0.0,230419,,,A*7E
$GPGGA,221738.000,4911.14174,N,12307.98098,W,1,14,0.7,-00.57,M,-16.8,M,,*41
$GPRMC,221738.000,A,4911.14174,N,12307.98098,W,0.0,0.0,230419,,,A*71
$GPGGA,221739.000,4911.14174,N,12307.98098,W,1,13,0.7,-00.57,M,-16.8,M,,*47
$GPRMC,221739.000,A,4911.14174,N,12307.98098,W,0.0,0.0,230419,,,A*70
$GPGGA,221740.000,4911.14174,N,12307.98098,W,1,14,0.7,-00.57,M,-16.8,M,,*4E
$GPRMC,221740.000,A,4911.14174,N,12307.98098,W,0.0,0.0,230419,,,A*7E
$GPGGA,221741.000,4911.14174,N,12307.98098,W,1,13,0.7,-00.57,M,-16.8,M,,*48
$GPRMC,221741.000,A,4911.14174,N,12307.98098,W,0.0,0.0,230419,,,A*7F
$GPGGA,221742.000,4911.14174,N,12307.98098,W,1,14,0.7,-00.57,M,-16.8,M,,*4C
$GPRMC,221742.000,A,4911.14174,N,12307.98098,W,0.0,0.0,230419,,,A*7C
$GPGGA,221743.000,4911.14174,N,12307.98098,W,1,14,0.7,-00.57,M,-16.8,M,,*4D
$GPRMC,221743.000,A,4911.14174,N,12307.98098,W,0.1,0.0,230419,,,A*7C
$GPGGA,221744.000,4911.14174,N,12307.98098,W,1,14,0.7,-00.57,M,-16.8,M,,*4A
$GPRMC,221744.000,A,4911.14174,N,12307.98098,W,0.1,0.0,230419,,,A*7B
$GPGGA,221745.000,4911.14174,N,12307.98098,W,1,14,0.7,-00.57,M,-16.8,M,,*4B
$GPRMC,221745.000,A,4911.14174,N,12307.98098,W,0.1,0.0,230419,,,A*7A
$GPGGA,221746.000,4911.14174,N,12307.98098,W,1,14,0.7,-00.57,M,-16.8,M,,*48
$GPRMC,221746.000,A,4911.14174,N,12307.98098,W,0.1,0.0,230419,,,A*79
$GPGGA,221747.000,4911.14174,N,12307.98098,W,1,14,0.7,-00.57,M,-16.8,M,,*49
$GPRMC,221747.000,A,4911.14174,N,12307.98098,W,0.0,0.0,230419,,,A*79
$GPGGA,221748.000,4911.14174,N,12307.98098,W,1,14,0.7,-00.57,M,-16.8,M,,*46
$GPRMC,221748.000,A,4911.14174,N,12307.98098,W,0.1,0.0,230419,,,A*77
$GPGGA,221749.000,4911.14174,N,12307.98098,W,1,14,0.7,-00.57,M,-16.8,M,,*47
$GPRMC,221749.000,A,4911.14174,N,12307.98098,W,0.1,0.0,230419,,,A*76
$GPGGA,221750.000,4911.14174,N,12307.98098,W,1,14,0.7,-00.57,M,-16.8,M,,*4F
$GPRMC,221750.000,A,4911.14174,N,12307.98098,W,0.1,0.0,230419,,,A*7E
$GPGGA,221751.000,4911.14174,N,12307.98098,W,1,14,0.7,-00.57,M,-16.8,M,,*4E
$GPRMC,221751.000,A,4911.14174,N,12307.98098,W,0.1,0.0,230419,,,A*7F
$GPGGA,221752.000,4911.14174,N,12307.98098,W,1,14,0.7,-00.57,M,-16.8,M,,*4D
$GPRMC,221752.000,A,4911.14174,N,12307.98098,W,0.0,0.0,230419,,,A*7D
$GPGGA,221753.000,4911.14174,N,12307.98098,W,1,15,0.7,-00.57,M,-16.8,M,,*4D
$GPRMC,221753.000,A,4911.14174,N,12307.98098,W,0.0,0.0,230419,,,A*7C
$GPGGA,221754.000,4911.14174,N,12307.98098,W,1,15,0.7,-00.57,M,-16.8,M,,*4A
$GPRMC,221754.000,A,4911.14174,N,12307.98098,W,0.0,0.0,230419,,,A*7B
$GPGGA,221755.000,4911.14174,N,12307.98098,W,1,15,0.7,-00.57,M,-16.8,M,,*4B
$GPRMC,221755.000,A,4911.14174,N,12307.98098,W,0.1,0.0,230419,,,A*7B
$GPGGA,221756.000,4911.14174,N,12307.98098,W,1,15,0.7,-00.57,M,-16.8,M,,*48
$GPRMC,221756.000,A,4911.14174,N,12307.98098,W,0.1,0.0,230419,,,A*78
$GPGGA,221757.000,4911.14174,N,12307.98098,W,1,15,0.7,-00.57,M,-16.8,M,,*49
$GPRMC,221757.000,A,4911.14174,N,12307.98098,W,0.1,0.0,230419,,,A*79
$GPGGA,221758.000,4911.14174,N,12307.98098,W,1,14,0.7,-00.57,M,-16.8,M,,*47
$GPRMC,221758.000,A,4911.14174,N,12307.98098,W,0.1,0.0,230419,,,A*76
$GPGGA,221759.000,4911.14174,N,12307.98098,W,1,14,0.7,-00.57,M,-16.8,M,,*46
$GPRMC,221759.000,A,4911.14174,N,12307.98098,W,0.1,0.0,230419,,,A*77
$GPGGA,221800.000,4911.14174,N,12307.98098,W,1,14,0.7,-00.57,M,-16.8,M,,*45
$GPRMC,221800.000,A,4911.14174,N,12307.98098,W,0.1,0.0,230419,,,A*74
$GPGGA,221801.000,4911.14174,N,12307.98098,W,1,14,0.7,-00.57,M,-16.8,M,,*44
$GPRMC,221801.000,A,4911.14174,N,12307.98098,W,0.1,0.0,230419,,,A*75
$GPGGA,221802.000,4911.14174,N,12307.98098,W,1,14,0.7,-00.57,M,-16.8,M,,*47
$GPRMC,221802.000,A,4911.14174,N,12307.98098,W,0.1,0.0,230419,,,A*76
$GPGGA,221803.000,4911.14174,N,12307.98098,W,1,14,0.7,-00.57,M,-16.8,M,,*46
$GPRMC,221803.000,A,4911.14174,N,12307.98098,W,0.1,0.0,230419,,,A*77
$GPGGA,221804.000,4911.14174,N,12307.98098,W,1,14,0.7,-00.57,M,-16.8,M,,*41
$GPRMC,221804.000,A,4911.14174,N,12307.98098,W,0.1,0.0,230419,,,A*70
$GPGGA,221805.000,4911.14174,N,12307.98098,W,1,14,0.7,-00.57,M,-16.8,M,,*40
$GPRMC,221805.000,A,4911.14174,N,12307.98098,W,0.0,0.0,230419,,,A*70
$GPGGA,221806.000,4911.14174,N,12307.98098,W,1,14,0.7,-00.57,M,-16.8,M,,*43
$GPRMC,221806.000,A,4911.14174,N,12307.98098,W,0.0,0.0,230419,,,A*73
$GPGGA,221807.000,4911.14174,N,12307.98098,W,1,14,0.7,-00.57,M,-16.8,M,,*42
$GPRMC,221807.000,A,4911.14174,N,12307.98098,W,0.1,0.0,230419,,,A*73
$GPGGA,221808.000,4911.14174,N,12307.98098,W,1,14,0.7,-00.57,M,-16.8,M,,*4D
$GPRMC,221808.000,A,4911.14174,N,12307.98098,W,0.1,0.0,230419,,,A*7C
$GPGGA,221809.000,4911.14174,N,12307.98098,W,1,14,0.7,-00.57,M,-16.8,M,,*4C
$GPRMC,221809.000,A,4911.14174,N,12307.98098,W,0.1,0.0,230419,,,A*7D
$GPGGA,221810.000,4911.14174,N,12307.98098,W,1,14,0.7,-00.57,M,-16.8,M,,*44
$GPRMC,221810.000,A,4911.14174,N,12307.98098,W,0.1,0.0,230419,,,A*75
$GPGGA,221811.000,4911.14174,N,12307.98098,W,1,14,0.7,-00.57,M,-16.8,M,,*45
$GPRMC,221811.000,A,4911.14174,N,12307.98098,W,0.1,0.0,230419,,,A*74
$GPGGA,221812.000,4911.14174,N,12307.98098,W,1,14,0.7,-00.57,M,-16.8,M,,*46
$GPRMC,221812.000,A,4911.14174,N,12307.98098,W,0.1,0.0,230419,,,A*77
$GPGGA,221813.000,4911.14174,N,12307.98098,W,1,14,0.7,-00.57,M,-16.8,M,,*47
$GPRMC,221813.000,A,4911.14174,N,12307.98098,W,0.1,0.0,230419,,,A*76
$GPGGA,221814.000,4911.14167,N,12307.98090,W,1,14,0.7,-00.35,M,-16.8,M,,*4E
$GPRMC,221814.000,A,4911.14167,N,12307.98090,W,0.1,0.0,230419,,,A*7B
$GPGGA,221815.000,4911.14167,N,12307.98090,W,1,13,0.7,-00.35,M,-16.8,M,,*48
$GPRMC,221815.000,A,4911.14167,N,12307.98090,W,0.1,0.0,230419,,,A*7A
$GPGGA,221816.000,4911.14167,N,12307.98090,W,1,14,0.7,-00.35,M,-16.8,M,,*4C
$GPRMC,221816.000,A,4911.14167,N,12307.98090,W,0.1,0.0,230419,,,A*79
$GPGGA,221817.000,4911.14167,N,12307.98090,W,1,15,0.7,-00.35,M,-16.8,M,,*4C
$GPRMC,221817.000,A,4911.14167,N,12307.98090,W,0.1,0.0,230419,,,A*78
$GPGGA,221818.000,4911.14167,N,12307.98090,W,1,14,0.7,-00.35,M,-16.8,M,,*42
$GPRMC,221818.000,A,4911.14167,N,12307.98090,W,0.1,0.0,230419,,,A*77
$GPGGA,221819.000,4911.14167,N,12307.98090,W,1,14,0.7,-00.35,M,-16.8,M,,*43
$GPRMC,221819.000,A,4911.14167,N,12307.98090,W,0.0,0.0,230419,,,A*77
$GPGGA,221820.000,4911.14167,N,12307.98090,W,1,14,0.7,-00.35,M,-16.8,M,,*49
$GPRMC,221820.000,A,4911.14167,N,12307.98090,W,0.0,0.0,230419,,,A*7D
$GPGGA,221821.000,4911.14167,N,12307.98090,W,1,14,0.7,-00.35,M,-16.8,M,,*48
$GPRMC,221821.000,A,4911.14167,N,12307.98090,W,0.0,0.0,230419,,,A*7C
$GPGGA,221822.000,4911.14167,N,12307.98090,W,1,14,0.7,-00.35,M,-16.8,M,,*4B
$GPRMC,221822.000,A,4911.14167,N,12307.98090,W,0.1,0.0,230419,,,A*7E
$GPGGA,221823.000,4911.14167,N,12307.98090,W,1,14,0.7,-00.35,M,-16.8,M,,*4A
$GPRMC,221823.000,A,4911.14167,N,12307.98090,W,0.1,0.0,230419,,,A*7F
$GPGGA,221824.000,4911.14167,N,12307.98090,W,1,14,0.7,-00.35,M,-16.8,M,,*4D
$GPRMC,221824.000,A,4911.14167,N,12307.98090,W,0.0,0.0,230419,,,A*79
$GPGGA,221825.000,4911.14167,N,12307.98090,W,1,14,0.7,-00.35,M,-16.8,M,,*4C
$GPRMC,221825.000,A,4911.14167,N,12307.98090,W,0.0,0.0,230419,,,A*78
$GPGGA,221826.000,4911.14167,N,12307.98090,W,1,14,0.7,-00.35,M,-16.8,M,,*4F
$GPRMC,221826.000,A,4911.14167,N,12307.98090,W,0.0,0.0,230419,,,A*7B
$GPGGA,221827.000,4911.14167,N,12307.98090,W,1,14,0.7,-00.35,M,-16.8,M,,*4E
$GPRMC,221827.000,A,4911.14167,N,12307.98090,W,0.0,0.0,230419,,,A*7A
$GPGGA,221828.000,4911.14167,N,12307.98090,W,1,14,0.7,-00.35,M,-16.8,M,,*41
$GPRMC,221828.000,A,4911.14167,N,12307.98090,W,0.0,0.0,230419,,,A*75
$GPGGA,221829.000,4911.14167,N,12307.98090,W,1,14,0.7,-00.35,M,-16.8,M,,*40
$GPRMC,221829.000,A,4911.14167,N,12307.98090,W,0.0,0.0,230419,,,A*74
$GPGGA,221830.000,4911.14167,N,12307.98090,W,1,14,0.7,-00.35,M,-16.8,M,,*48
$GPRMC,221830.000,A,4911.14167,N,12307.98090,W,0.1,0.0,230419,,,A*7D
$GPGGA,221831.000,4911.14167,N,12307.98090,W,1,15,0.7,-00.35,M,-16.8,M,,*48
$GPRMC,221831.000,A,4911.14167,N,12307.98090,W,0.0,0.0,230419,,,A*7D
$GPGGA,221832.000,4911.14167,N,12307.98090,W,1,15,0.7,-00.35,M,-16.8,M,,*4B
$GPRMC,221832.000,A,4911.14167,N,12307.98090,W,0.0,0.0,230419,,,A*7E
$GPGGA,221833.000,4911.14167,N,12307.98090,W,1,15,0.7,-00.35,M,-16.8,M,,*4A
$GPRMC,221833.000,A,4911.14167,N,12307.98090,W,0.1,0.0,230419,,,A*7E
$GPGGA,221834.000,4911.14167,N,12307.98090,W,1,15,0.7,-00.35,M,-16.8,M,,*4D
$GPRMC,221834.000,A,4911.14167,N,12307.98090,W,0.0,0.0,230419,,,A*78
$GPGGA,221835.000,4911.14167,N,12307.98090,W,1,15,0.7,-00.35,M,-16.8,M,,*4C
$GPRMC,221835.000,A,4911.14167,N,12307.98090,W,0.0,0.0,230419,,,A*79
$GPGGA,221836.000,4911.14167,N,12307.98090,W,1,15,0.7,-00.35,M,-16.8,M,,*4F
$GPRMC,221836.000,A,4911.14167,N,12307.98090,W,0.1,0.0,230419,,,A*7B
$GPGGA,221837.000,4911.14167,N,12307.98090,W,1,15,0.7,-00.35,M,-16.8,M,,*4E
$GPRMC,221837.000,A,4911.14167,N,12307.98090,W,0.0,0.0,230419,,,A*7B
$GPGGA,221838.000,4911.14167,N,12307.98090,W,1,15,0.7,-00.35,M,-16.8,M,,*41
$GPRMC,221838.000,A,4911.14167,N,12307.98090,W,0.0,0.0,230419,,,A*74
$GPGGA,221839.000,4911.14167,N,12307.98090,W,1,15,0.7,-00.35,M,-16.8,M,,*40
$GPRMC,221839.000,A,4911.14167,N,12307.98090,W,0.1,0.0,230419,,,A*74
$GPGGA,221840.000,4911.14167,N,12307.98090,W,1,15,0.7,-00.35,M,-16.8,M,,*4E
$GPRMC,221840.000,A,4911.14167,N,12307.98090,W,0.0,0.0,230419,,,A*7B
$GPGGA,221841.000,4911.14167,N,12307.98090,W,1,15,0.7,-00.35,M,-16.8,M,,*4F
$GPRMC,221841.000,A,4911.14167,N,12307.98090,W,0.0,0.0,230419,,,A*7A
$GPGGA,221842.000,4911.14167,N,12307.98090,W,1,14,0.7,-00.35,M,-16.8,M,,*4D
$GPRMC,221842.000,A,4911.14167,N,12307.98090,W,0.0,0.0,230419,,,A*79
$GPGGA,221843.000,4911.14167,N,12307.98090,W,1,14,0.7,-00.35,M,-16.8,M,,*4C
$GPRMC,221843.000,A,4911.14167,N,12307.98090,W,0.0,0.0,230419,,,A*78
$GPGGA,221844.000,4911.14167,N,12307.98090,W,1,14,0.8,-00.35,M,-16.8,M,,*44
$GPRMC,221844.000,A,4911.14167,N,12307.98090,W,0.0,0.0,230419,,,A*7F
$GPGGA,221845.000,4911.14167,N,12307.98090,W,1,14,0.7,-00.35,M,-16.8,M,,*4A
$GPRMC,221845.000,A,4911.14167,N,12307.98090,W,0.1,0.0,230419,,,A*7F
$GPGGA,221846.000,4911.14167,N,12307.98090,W,1,14,0.7,-00.35,M,-16.8,M,,*49
$GPRMC,221846.000,A,4911.14167,N,12307.98090,W,0.1,0.0,230419,,,A*7C
$GPGGA,221847.000,4911.14167,N,12307.98090,W,1,14,0.7,-00.35,M,-16.8,M,,*48
$GPRMC,221847.000,A,4911.14167,N,12307.98090,W,0.0,0.0,230419,,,A*7C
$GPGGA,221848.000,4911.14167,N,12307.98090,W,1,14,0.7,-00.35,M,-16.8,M,,*47
$GPRMC,221848.000,A,4911.14167,N,12307.98090,W,0.1,0.0,230419,,,A*72
$GPGGA,221849.000,4911.14167,N,12307.98090,W,1,14,0.7,-00.35,M,-16.8,M,,*46
$GPRMC,221849.000,A,4911.14167,N,12307.98090,W,0.0,0.0,230419,,,A*72
$GPGGA,221850.000,4911.14167,N,12307.98090,W,1,14,0.7,-00.35,M,-16.8,M,,*4E
$GPRMC,221850.000,A,4911.14167,N,12307.98090,W,0.1,0.0,230419,,,A*7B
$GPGGA,221851.000,4911.14167,N,12307.98090,W,1,13,0.7,-00.35,M,-16.8,M,,*48
$GPRMC,221851.000,A,4911.14167,N,12307.98090,W,0.1,0.0,230419,,,A*7A
$GPGGA,221852.000,4911.14167,N,12307.98090,W,1,13,0.7,-00.35,M,-16.8,M,,*4B
$GPRMC,221852.000,A,4911.14167,N,12307.98090,W,0.1,0.0,230419,,,A*79
$GPGGA,221853.000,4911.14167,N,12307.98090,W,1,13,0.7,-00.35,M,-16.8,M,,*4A
$GPRMC,221853.000,A,4911.14167,N,12307.98090,W,0.1,0.0,230419,,,A*78
$GPGGA,221854.000,4911.14172,N,12307.98045,W,1,13,0.7,-00.27,M,-16.8,M,,*42
$GPRMC,221854.000,A,4911.14172,N,12307.98045,W,0.0,0.0,230419,,,A*72
$GPGGA,221855.000,4911.14172,N,12307.98045,W,1,12,0.7,-00.27,M,-16.8,M,,*42
$GPRMC,221855.000,A,4911.14172,N,12307.98045,W,0.0,0.0,230419,,,A*73
$GPGGA,221856.000,4911.14172,N,12307.98045,W,1,12,0.7,-00.27,M,-16.8,M,,*41
$GPRMC,221856.000,A,4911.14172,N,12307.98045,W,0.1,0.0,230419,,,A*71
$GPGGA,221857.000,4911.14172,N,12307.98045,W,1,14,0.7,-00.27,M,-16.8,M,,*46
$GPRMC,221857.000,A,4911.14172,N,12307.98045,W,0.1,0.0,230419,,,A*70
$GPGGA,221858.000,4911.14172,N,12307.98045,W,1,14,0.7,-00.27,M,-16.8,M,,*49
$GPRMC,221858.000,A,4911.14172,N,12307.98045,W,0.0,0.0,230419,,,A*7E
$GPGGA,221859.000,4911.14172,N,12307.98045,W,1,13,0.7,-00.27,M,-16.8,M,,*4F
$GPRMC,221859.000,A,4911.14172,N,12307.98045,W,0.1,0.0,230419,,,A*7E
$GPGGA,221900.000,4911.14172,N,12307.98045,W,1,13,0.7,-00.27,M,-16.8,M,,*42
$GPRMC,221900.000,A,4911.14172,N,12307.98045,W,0.1,0.0,230419,,,A*73
$GPGGA,221901.000,4911.14172,N,12307.98045,W,1,14,0.7,-00.27,M,-16.8,M,,*44
$GPRMC,221901.000,A,4911.14172,N,12307.98045,W,0.1,0.0,230419,,,A*72
$GPGGA,221902.000,4911.14172,N,12307.98045,W,1,14,0.7,-00.27,M,-16.8,M,,*47
$GPRMC,221902.000,A,4911.14172,N,12307.98045,W,0.1,0.0,230419,,,A*71
$GPGGA,221903.000,4911.14172,N,12307.98045,W,1,14,0.7,-00.27,M,-16.8,M,,*46
$GPRMC,221903.000,A,4911.14172,N,12307.98045,W,0.1,0.0,230419,,,A*70
$GPGGA,221904.000,4911.14172,N,12307.98045,W,1,14,0.7,-00.27,M,-16.8,M,,*41
$GPRMC,221904.000,A,4911.14172,N,12307.98045,W,0.1,0.0,230419,,,A*77
$GPGGA,221905.000,4911.14172,N,12307.98045,W,1,13,0.7,-00.27,M,-16.8,M,,*47
$GPRMC,221905.000,A,4911.14172,N,12307.98045,W,0.1,0.0,230419,,,A*76
$GPGGA,221906.000,4911.14172,N,12307.98045,W,1,13,0.7,-00.27,M,-16.8,M,,*44
$GPRMC,221906.000,A,4911.14172,N,12307.98045,W,0.1,0.0,230419,,,A*75
$GPGGA,221907.000,4911.14172,N,12307.98045,W,1,13,0.7,-00.27,M,-16.8,M,,*45
$GPRMC,221907.000,A,4911.14172,N,12307.98045,W,0.1,0.0,230419,,,A*74
$GPGGA,221908.000,4911.14172,N,12307.98045,W,1,14,0.7,-00.27,M,-16.8,M,,*4D
$GPRMC,221908.000,A,4911.14172,N,12307.98045,W,0.1,0.0,230419,,,A*7B
$GPGGA,221909.000,4911.14172,N,12307.98045,W,1,14,0.7,-00.27,M,-16.8,M,,*4C
$GPRMC,221909.000,A,4911.14172,N,12307.98045,W,0.1,0.0,230419,,,A*7A
$GPGGA,221910.000,4911.14172,N,12307.98045,W,1,14,0.7,-00.27,M,-16.8,M,,*44
$GPRMC,221910.000,A,4911.14172,N,12307.98045,W,0.1,0.0,230419,,,A*72
$GPGGA,221911.000,4911.14172,N,12307.98045,W,1,14,0.7,-00.27,M,-16.8,M,,*45
$GPRMC,221911.000,A,4911.14172,N,12307.98045,W,0.1,0.0,230419,,,A*73
$GPGGA,221912.000,4911.14172,N,12307.98045,W,1,14,0.7,-00.27,M,-16.8,M,,*46
$GPRMC,221912.000,A,4911.14172,N,12307.98045,W,0.1,0.0,230419,,,A*70
$GPGGA,221913.000,4911.14172,N,12307.98045,W,1,14,0.7,-00.27,M,-16.8,M,,*47
$GPRMC,221913.000,A,4911.14172,N,12307.98045,W,0.1,0.0,230419,,,A*71
$GPGGA,221914.000,4911.14172,N,12307.98045,W,1,14,0.7,-00.27,M,-16.8,M,,*40
$GPRMC,221914.000,A,4911.14172,N,12307.98045,W,0.1,0.0,230419,,,A*76
$GPGGA,221915.000,4911.14172,N,12307.98045,W,1,14,0.7,-00.27,M,-16.8,M,,*41
$GPRMC,221915.000,A,4911.14172,N,12307.98045,W,0.0,0.0,230419,,,A*76
$GPGGA,221916.000,4911.14172,N,12307.98045,W,1,14,0.7,-00.27,M,-16.8,M,,*42
$GPRMC,221916.000,A,4911.14172,N,12307.98045,W,0.0,0.0,230419,,,A*75
$GPGGA,221917.000,4911.14172,N,12307.98045,W,1,14,0.7,-00.27,M,-16.8,M,,*43
$GPRMC,221917.000,A,4911.14172,N,12307.98045,W,0.1,0.0,230419,,,A*75
$GPGGA,221918.000,4911.14172,N,12307.98045,W,1,14,0.7,-00.27,M,-16.8,M,,*4C
$GPRMC,221918.000,A,4911.14172,N,12307.98045,W,0.0,0.0,230419,,,A*7B
$GPGGA,221919.000,4911.14172,N,12307.98045,W,1,14,0.7,-00.27,M,-16.8,M,,*4D
$GPRMC,221919.000,A,4911.14172,N,12307.98045,W,0.0,0.0,230419,,,A*7A
$GPGGA,221920.000,4911.14172,N,12307.98045,W,1,14,0.7,-00.27,M,-16.8,M,,*47
$GPRMC,221920.000,A,4911.14172,N,12307.98045,W,0.0,0.0,230419,,,A*70
$GPGGA,221921.000,4911.14172,N,12307.98045,W,1,14,0.7,-00.27,M,-16.8,M,,*46
$GPRMC,221921.000,A,4911.14172,N,12307.98045,W,0.0,0.0,230419,,,A*71
$GPGGA,221922.000,4911.14172,N,12307.98045,W,1,14,0.7,-00.27,M,-16.8,M,,*45
$GPRMC,221922.000,A,4911.14172,N,12307.98045,W,0.1,0.0,230419,,,A*73
$GPGGA,221923.000,4911.14172,N,12307.98045,W,1,14,0.7,-00.27,M,-16.8,M,,*44
$GPRMC,221923.000,A,4911.14172,N,12307.98045,W,0.0,0.0,230419,,,A*73
$GPGGA,221924.000,4911.14172,N,12307.98045,W,1,14,0.7,-00.27,M,-16.8,M,,*43
$GPRMC,221924.000,A,4911.14172,N,12307.98045,W,0.0,0.0,230419,,,A*74
$GPGGA,221925.000,4911.14172,N,12307.98045,W,1,14,0.7,-00.27,M,-16.8,M,,*42
$GPRMC,221925.000,A,4911.14172,N,12307.98045,W,0.1,0.0,230419,,,A*74
$GPGGA,221926.000,4911.14172,N,12307.98045,W,1,14,0.7,-00.27,M,-16.8,M,,*41
$GPRMC,221926.000,A,4911.14172,N,12307.98045,W,0.0,0.0,230419,,,A*76
$GPGGA,221927.000,4911.14172,N,12307.98045,W,1,14,0.7,-00.27,M,-16.8,M,,*40
$GPRMC,221927.000,A,4911.14172,N,12307.98045,W,0.0,0.0,230419,,,A*77
$GPGGA,221928.000,4911.14172,N,12307.98045,W,1,14,0.7,-00.27,M,-16.8,M,,*4F
$GPRMC,221928.000,A,4911.14172,N,12307.98045,W,0.1,0.0,230419,,,A*79
$GPGGA,221929.000,4911.14172,N,12307.98045,W,1,14,0.7,-00.27,M,-16.8,M,,*4E
$GPRMC,221929.000,A,4911.14172,N,12307.98045,W,0.0,0.0,230419,,,A*79
$GPGGA,221930.000,4911.14172,N,12307.98045,W,1,14,0.7,-00.27,M,-16.8,M,,*46
$GPRMC,221930.000,A,4911.14172,N,12307.98045,W,0.0,0.0,230419,,,A*71
$GPGGA,221931.000,4911.14172,N,12307.98045,W,1,13,0.7,-00.27,M,-16.8,M,,*40
$GPRMC,221931.000,A,4911.14172,N,12307.98045,W,0.0,0.0,230419,,,A*70
$GPGGA,221932.000,4911.14172,N,12307.98045,W,1,14,0.7,-00.27,M,-16.8,M,,*44
$GPRMC,221932.000,A,4911.14172,N,12307.98045,W,0.0,0.0,230419,,,A*73
$GPGGA,221933.000,4911.14172,N,12307.98045,W,1,14,0.7,-00.27,M,-16.8,M,,*45
$GPRMC,221933.000,A,4911.14172,N,12307.98045,W,0.1,0.0,230419,,,A*73
$GPGGA,221934.000,4911.14185,N,12307.98088,W,1,14,0.7,000.01,M,-16.8,M,,*52
$GPRMC,221934.000,A,4911.14185,N,12307.98088,W,0.1,0.0,230419,,,A*7D
$GPGGA,221935.000,4911.14185,N,12307.98088,W,1,13,0.7,000.01,M,-16.8,M,,*54
$GPRMC,221935.000,A,4911.14185,N,12307.98088,W,0.0,0.0,230419,,,A*7D
$GPGGA,221936.000,4911.14185,N,12307.98088,W,1,12,0.7,000.01,M,-16.8,M,,*56
$GPRMC,221936.000,A,4911.14185,N,12307.98088,W,0.0,0.0,230419,,,A*7E
$GPGGA,221937.000,4911.14185,N,12307.98088,W,1,13,0.7,000.01,M,-16.8,M,,*56
$GPRMC,221937.000,A,4911.14185,N,12307.98088,W,0.0,0.0,230419,,,A*7F
$GPGGA,221938.000,4911.14185,N,12307.98088,W,1,14,0.7,000.01,M,-16.8,M,,*5E
$GPRMC,221938.000,A,4911.14185,N,12307.98088,W,0.0,0.0,230419,,,A*70
$GPGGA,221939.000,4911.14185,N,12307.98088,W,1,14,0.7,000.01,M,-16.8,M,,*5F
$GPRMC,221939.000,A,4911.14185,N,12307.98088,W,0.1,0.0,230419,,,A*70
$GPGGA,221940.000,4911.14185,N,12307.98088,W,1,14,0.7,000.01,M,-16.8,M,,*51
$GPRMC,221940.000,A,4911.14185,N,12307.98088,W,0.0,0.0,230419,,,A*7F
$GPGGA,221941.000,4911.14185,N,12307.98088,W,1,14,0.7,000.01,M,-16.8,M,,*50
$GPRMC,221941.000,A,4911.14185,N,12307.98088,W,0.0,0.0,230419,,,A*7E
$GPGGA,221942.000,4911.14185,N,12307.98088,W,1,14,0.7,000.01,M,-16.8,M,,*53
$GPRMC,221942.000,A,4911.14185,N,12307.98088,W,0.1,0.0,230419,,,A*7C
$GPGGA,221943.000,4911.14185,N,12307.98088,W,1,14,0.7,000.01,M,-16.8,M,,*52
$GPRMC,221943.000,A,4911.14185,N,12307.98088,W,0.0,0.0,230419,,,A*7C
$GPGGA,221944.000,4911.14185,N,12307.98088,W,1,14,0.7,000.01,M,-16.8,M,,*55
$GPRMC,221944.000,A,4911.14185,N,12307.98088,W,0.0,0.0,230419,,,A*7B
$GPGGA,221945.000,4911.14185,N,12307.98088,W,1,14,0.7,000.01,M,-16.8,M,,*54
$GPRMC,221945.000,A,4911.14185,N,12307.98088,W,0.0,0.0,230419,,,A*7A
$GPGGA,221946.000,4911.14185,N,12307.98088,W,1,14,0.7,000.01,M,-16.8,M,,*57
$GPRMC,221946.000,A,4911.14185,N,12307.98088,W,0.1,0.0,230419,,,A*78
$GPGGA,221947.000,4911.14185,N,12307.98088,W,1,14,0.7,000.01,M,-16.8,M,,*56
$GPRMC,221947.000,A,4911.14185,N,12307.98088,W,0.1,0.0,230419,,,A*79
$GPGGA,221948.000,4911.14185,N,12307.98088,W,1,13,0.7,000.01,M,-16.8,M,,*5E
$GPRMC,221948.000,A,4911.14185,N,12307.98088,W,0.1,0.0,230419,,,A*76
$GPGGA,221949.000,4911.14185,N,12307.98088,W,1,14,0.7,000.01,M,-16.8,M,,*58
$GPRMC,221949.000,A,4911.14185,N,12307.98088,W,0.1,0.0,230419,,,A*77
$GPGGA,221950.000,4911.14185,N,12307.98088,W,1,14,0.7,000.01,M,-16.8,M,,*50
$GPRMC,221950.000,A,4911.14185,N,12307.98088,W,0.0,0.0,230419,,,A*7E
$GPGGA,221951.000,4911.14185,N,12307.98088,W,1,14,0.7,000.01,M,-16.8,M,,*51
$GPRMC,221951.000,A,4911.14185,N,12307.98088,W,0.0,0.0,230419,,,A*7F
$GPGGA,221952.000,4911.14185,N,12307.98088,W,1,14,0.7,000.01,M,-16.8,M,,*52
$GPRMC,221952.000,A,4911.14185,N,12307.98088,W,0.1,0.0,230419,,,A*7D
$GPGGA,221953.000,4911.14185,N,12307.98088,W,1,14,0.7,000.01,M,-16.8,M,,*53
$GPRMC,221953.000,A,4911.14185,N,12307.98088,W,0.1,0.0,230419,,,A*7C
$GPGGA,221954.000,4911.14185,N,12307.98088,W,1,14,0.7,000.01,M,-16.8,M,,*54
$GPRMC,221954.000,A,4911.14185,N,12307.98088,W,0.1,0.0,230419,,,A*7B
$GPGGA,221955.000,4911.14185,N,12307.98088,W,1,13,0.7,000.01,M,-16.8,M,,*52
$GPRMC,221955.000,A,4911.14185,N,12307.98088,W,0.1,0.0,230419,,,A*7A
$GPGGA,221956.000,4911.14185,N,12307.98088,W,1,13,0.7,000.01,M,-16.8,M,,*51
$GPRMC,221956.000,A,4911.14185,N,12307.98088,W,0.0,0.0,230419,,,A*78
$GPGGA,221957.000,4911.14185,N,12307.98088,W,1,13,0.7,000.01,M,-16.8,M,,*50
$GPRMC,221957.000,A,4911.14185,N,12307.98088,W,0.1,0.0,230419,,,A*78
$GPGGA,221958.000,4911.14185,N,12307.98088,W,1,13,0.7,000.01,M,-16.8,M,,*5F
$GPRMC,221958.000,A,4911.14185,N,12307.98088,W,0.1,0.0,230419,,,A*77
$GPGGA,221959.000,4911.14185,N,12307.98088,W,1,13,0.7,000.01,M,-16.8,M,,*5E
$GPRMC,221959.000,A,4911.14185,N,12307.98088,W,0.1,0.0,230419,,,A*76
$GPGGA,222000.000,4911.14185,N,12307.98088,W,1,13,0.7,000.01,M,-16.8,M,,*58
$GPRMC,222000.000,A,4911.14185,N,12307.98088,W,0.1,0.0,230419,,,A*70
$GPGGA,222001.000,4911.14185,N,12307.98088,W,1,13,0.7,000.01,M,-16.8,M,,*59
$GPRMC,222001.000,A,4911.14185,N,12307.98088,W,0.3,354.1,230419,,,A*70
$GPGGA,222002.000,4911.14185,N,12307.98088,W,1,13,0.7,000.01,M,-16.8,M,,*5A
$GPRMC,222002.000,A,4911.14185,N,12307.98088,W,0.4,357.1,230419,,,A*77
$GPGGA,222003.000,4911.14185,N,12307.98088,W,1,13,0.7,000.01,M,-16.8,M,,*5B
$GPRMC,222003.000,A,4911.14185,N,12307.98088,W,0.6,356.1,230419,,,A*75
$GPGGA,222004.000,4911.14185,N,12307.98088,W,1,14,0.7,000.01,M,-16.8,M,,*5B
$GPRMC,222004.000,A,4911.14185,N,12307.98088,W,0.6,359.5,230419,,,A*79
$GPGGA,222005.000,4911.14185,N,12307.98088,W,1,14,0.7,000.01,M,-16.8,M,,*5A
$GPRMC,222005.000,A,4911.14185,N,12307.98088,W,0.9,358.5,230419,,,A*76
$GPGGA,222006.000,4911.14185,N,12307.98088,W,1,14,0.7,000.01,M,-16.8,M,,*59
$GPRMC,222006.000,A,4911.14185,N,12307.98088,W,0.5,355.0,230419,,,A*71
$GPGGA,222007.000,4911.14185,N,12307.98088,W,1,14,0.7,000.01,M,-16.8,M,,*58
$GPRMC,222007.000,A,4911.14185,N,12307.98088,W,0.2,353.0,230419,,,A*71
$GPGGA,222008.000,4911.14185,N,12307.98088,W,1,14,0.7,000.01,M,-16.8,M,,*57
$GPRMC,222008.000,A,4911.14185,N,12307.98088,W,0.2,0.0,230419,,,A*7B
$GPGGA,222009.000,4911.14185,N,12307.98088,W,1,14,0.7,000.01,M,-16.8,M,,*56
$GPRMC,222009.000,A,4911.14185,N,12307.98088,W,0.7,354.6,230419,,,A*7B
$GPGGA,222010.000,4911.14185,N,12307.98088,W,1,14,0.7,000.01,M,-16.8,M,,*5E
$GPRMC,222010.000,A,4911.14185,N,12307.98088,W,1.3,351.8,230419,,,A*7D
$GPGGA,222011.000,4911.14185,N,12307.98088,W,1,14,0.7,000.01,M,-16.8,M,,*5F
$GPRMC,222011.000,A,4911.14185,N,12307.98088,W,1.2,345.4,230419,,,A*74
$GPGGA,222012.000,4911.14185,N,12307.98088,W,1,14,0.7,000.01,M,-16.8,M,,*5C
$GPRMC,222012.000,A,4911.14185,N,12307.98088,W,1.2,336.9,230419,,,A*7E
$GPGGA,222013.000,4911.14185,N,12307.98088,W,1,14,0.7,000.01,M,-16.8,M,,*5D
$GPRMC,222013.000,A,4911.14185,N,12307.98088,W,1.3,327.3,230419,,,A*74
$GPGGA,222014.000,4911.14253,N,12307.98122,W,1,14,0.7,-00.14,M,-16.8,M,,*4A
$GPRMC,222014.000,A,4911.14253,N,12307.98122,W,0.2,0.0,230419,,,A*7F
$GPGGA,222015.000,4911.14253,N,12307.98122,W,1,13,0.7,-00.14,M,-16.8,M,,*4C
$GPRMC,222015.000,A,4911.14253,N,12307.98122,W,0.3,144.1,230419,,,A*7F
$GPGGA,222016.000,4911.14253,N,12307.98122,W,1,13,0.7,-00.14,M,-16.8,M,,*4F
$GPRMC,222016.000,A,4911.14253,N,12307.98122,W,1.4,136.9,230419,,,A*77
$GPGGA,222017.000,4911.14253,N,12307.98122,W,1,13,0.7,-00.14,M,-16.8,M,,*4E
$GPRMC,222017.000,A,4911.14253,N,12307.98122,W,3.3,120.1,230419,,,A*7C
$GPGGA,222018.000,4911.14219,N,12307.97931,W,1,13,0.7,-00.36,M,-16.8,M,,*4A
$GPRMC,222018.000,A,4911.14219,N,12307.97931,W,4.9,100.6,230419,,,A*70
$GPGGA,222019.000,4911.14215,N,12307.97692,W,1,14,0.7,-00.38,M,-16.8,M,,*48
$GPRMC,222019.000,A,4911.14215,N,12307.97692,W,5.9,90.7,230419,,,A*43
$GPGGA,222020.000,4911.14233,N,12307.97412,W,1,14,0.7,-00.58,M,-16.8,M,,*4A
$GPRMC,222020.000,A,4911.14233,N,12307.97412,W,6.7,87.0,230419,,,A*4B
$GPGGA,222021.000,4911.14250,N,12307.97091,W,1,13,0.7,-00.77,M,-16.8,M,,*4B
$GPRMC,222021.000,A,4911.14250,N,12307.97091,W,7.3,88.2,230419,,,A*48
$GPGGA,222022.000,4911.14275,N,12307.96773,W,1,13,0.7,-00.83,M,-16.8,M,,*4E
$GPRMC,222022.000,A,4911.14275,N,12307.96773,W,7.3,89.1,230419,,,A*44
$GPGGA,222023.000,4911.14294,N,12307.96460,W,1,13,0.7,-00.83,M,-16.8,M,,*41
$GPRMC,222023.000,A,4911.14294,N,12307.96460,W,7.0,89.6,230419,,,A*4F
$GPGGA,222024.000,4911.14310,N,12307.96181,W,1,12,0.7,-00.84,M,-16.8,M,,*47
$GPRMC,222024.000,A,4911.14310,N,12307.96181,W,6.0,90.0,230419,,,A*40
$GPGGA,222025.000,4911.14316,N,12307.95970,W,1,14,0.7,-00.76,M,-16.8,M,,*4E
$GPRMC,222025.000,A,4911.14316,N,12307.95970,W,4.2,89.5,230419,,,A*4F
$GPGGA,222026.000,4911.14310,N,12307.95796,W,1,13,0.7,-00.68,M,-16.8,M,,*45
$GPRMC,222026.000,A,4911.14310,N,12307.95796,W,3.9,90.6,230419,,,A*4B
$GPGGA,222027.000,4911.14306,N,12307.95636,W,1,11,0.7,-00.64,M,-16.8,M,,*46
$GPRMC,222027.000,A,4911.14306,N,12307.95636,W,3.7,95.2,230419,,,A*49
$GPGGA,222028.000,4911.14280,N,12307.95496,W,1,13,0.7,-00.54,M,-16.8,M,,*4F
$GPRMC,222028.000,A,4911.14280,N,12307.95496,W,3.0,105.9,230419,,,A*75
$GPGGA,222029.000,4911.14238,N,12307.95360,W,1,13,0.7,-00.84,M,-16.8,M,,*4E
$GPRMC,222029.000,A,4911.14238,N,12307.95360,W,4.0,125.6,230419,,,A*73
$GPGGA,222030.000,4911.14162,N,12307.95208,W,1,14,0.7,-00.83,M,-16.8,M,,*45
$GPRMC,222030.000,A,4911.14162,N,12307.95208,W,5.8,144.2,230419,,,A*72
$GPGGA,222031.000,4911.13992,N,12307.95068,W,1,13,0.7,-00.40,M,-16.8,M,,*48
$GPRMC,222031.000,A,4911.13992,N,12307.95068,W,8.3,162.3,230419,,,A*74
$GPGGA,222032.000,4911.13744,N,12307.95004,W,1,14,0.7,-00.08,M,-16.8,M,,*4F
$GPRMC,222032.000,A,4911.13744,N,12307.95004,W,10.7,174.7,230419,,,A*46
$GPGGA,222033.000,4911.13423,N,12307.94989,W,1,15,0.7,000.42,M,-16.8,M,,*53
$GPRMC,222033.000,A,4911.13423,N,12307.94989,W,13.4,180.0,230419,,,A*44
$GPGGA,222034.000,4911.13035,N,12307.94986,W,1,15,0.7,000.79,M,-16.8,M,,*50
$GPRMC,222034.000,A,4911.13035,N,12307.94986,W,15.5,179.3,230419,,,A*4D
$GPGGA,222035.000,4911.12588,N,12307.94959,W,1,15,0.7,000.91,M,-16.8,M,,*57
$GPRMC,222035.000,A,4911.12588,N,12307.94959,W,16.6,178.5,230419,,,A*4B
$GPGGA,222036.000,4911.12118,N,12307.94933,W,1,15,0.7,000.88,M,-16.8,M,,*5D
$GPRMC,222036.000,A,4911.12118,N,12307.94933,W,17.0,177.9,230419,,,A*4D
$GPGGA,222037.000,4911.11656,N,12307.94904,W,1,15,0.7,001.18,M,-16.8,M,,*5E
$GPRMC,222037.000,A,4911.11656,N,12307.94904,W,16.6,178.3,230419,,,A*44
$GPGGA,222038.000,4911.11206,N,12307.94910,W,1,14,0.7,001.51,M,-16.8,M,,*59
$GPRMC,222038.000,A,4911.11206,N,12307.94910,W,16.1,178.9,230419,,,A*42
$GPGGA,222039.000,4911.10781,N,12307.94896,W,1,15,0.7,001.53,M,-16.8,M,,*5F
$GPRMC,222039.000,A,4911.10781,N,12307.94896,W,14.9,179.4,230419,,,A*41
$GPGGA,222040.000,4911.10389,N,12307.94887,W,1,15,0.7,001.57,M,-16.8,M,,*59
$GPRMC,222040.000,A,4911.10389,N,12307.94887,W,14.1,179.6,230419,,,A*49
$GPGGA,222041.000,4911.10023,N,12307.94891,W,1,15,0.7,001.50,M,-16.8,M,,*5B
$GPRMC,222041.000,A,4911.10023,N,12307.94891,W,13.1,180.1,230419,,,A*4A
$GPGGA,222042.000,4911.09684,N,12307.94897,W,1,15,0.7,001.59,M,-16.8,M,,*54
$GPRMC,222042.000,A,4911.09684,N,12307.94897,W,11.2,180.0,230419,,,A*4C
$GPGGA,222043.000,4911.09407,N,12307.94893,W,1,14,0.7,001.62,M,-16.8,M,,*51
$GPRMC,222043.000,A,4911.09407,N,12307.94893,W,8.8,179.6,230419,,,A*72
$GPGGA,222044.000,4911.09200,N,12307.94898,W,1,14,0.7,001.40,M,-16.8,M,,*5C
$GPRMC,222044.000,A,4911.09200,N,12307.94898,W,6.2,179.1,230419,,,A*7C
$GPGGA,222045.000,4911.09063,N,12307.94898,W,1,14,0.7,001.41,M,-16.8,M,,*5B
$GPRMC,222045.000,A,4911.09063,N,12307.94898,W,4.0,179.0,230419,,,A*7B
$GPGGA,222046.000,4911.08982,N,12307.94910,W,1,14,0.7,001.58,M,-16.8,M,,*56
$GPRMC,222046.000,A,4911.08982,N,12307.94910,W,2.4,180.1,230419,,,A*7B
$GPGGA,222047.000,4911.08920,N,12307.94912,W,1,14,0.7,001.71,M,-16.8,M,,*56
$GPRMC,222047.000,A,4911.08920,N,12307.94912,W,1.9,177.9,230419,,,A*7E
$GPGGA,222048.000,4911.08864,N,12307.94900,W,1,14,0.7,001.63,M,-16.8,M,,*58
$GPRMC,222048.000,A,4911.08864,N,12307.94900,W,2.0,176.1,230419,,,A*70
$GPGGA,222049.000,4911.08816,N,12307.94893,W,1,14,0.7,001.71,M,-16.8,M,,*54
$GPRMC,222049.000,A,4911.08816,N,12307.94893,W,1.9,176.4,230419,,,A*70
$GPGGA,222050.000,4911.08766,N,12307.94892,W,1,14,0.7,001.62,M,-16.8,M,,*57
$GPRMC,222050.000,A,4911.08766,N,12307.94892,W,1.7,171.9,230419,,,A*75
$GPGGA,222051.000,4911.08719,N,12307.94881,W,1,14,0.7,001.60,M,-16.8,M,,*5E
$GPRMC,222051.000,A,4911.08719,N,12307.94881,W,1.8,168.8,230419,,,A*78
$GPGGA,222052.000,4911.08670,N,12307.94851,W,1,14,0.7,001.72,M,-16.8,M,,*5D
$GPRMC,222052.000,A,4911.08670,N,12307.94851,W,2.1,168.0,230419,,,A*7A
$GPGGA,222053.000,4911.08613,N,12307.94827,W,1,14,0.7,001.75,M,-16.8,M,,*5F
$GPRMC,222053.000,A,4911.08613,N,12307.94827,W,2.1,165.5,230419,,,A*77
$GPGGA,222054.000,4911.08542,N,12307.94802,W,1,13,0.7,001.78,M,-16.8,M,,*52
$GPRMC,222054.000,A,4911.08542,N,12307.94802,W,2.9,157.9,230419,,,A*75
$GPGGA,222055.000,4911.08445,N,12307.94700,W,1,14,0.7,001.86,M,-16.8,M,,*5E
$GPRMC,222055.000,A,4911.08445,N,12307.94700,W,5.2,139.6,230419,,,A*74
$GPGGA,222056.000,4911.08327,N,12307.94494,W,1,13,0.7,001.80,M,-16.8,M,,*51
$GPRMC,222056.000,A,4911.08327,N,12307.94494,W,7.3,122.1,230419,,,A*74
$GPGGA,222057.000,4911.08221,N,12307.94169,W,1,13,0.7,001.76,M,-16.8,M,,*59
$GPRMC,222057.000,A,4911.08221,N,12307.94169,W,9.1,107.3,230419,,,A*7C
$GPGGA,222058.000,4911.08170,N,12307.93749,W,1,11,0.7,001.52,M,-16.8,M,,*56
$GPRMC,222058.000,A,4911.08170,N,12307.93749,W,11.1,95.1,230419,,,A*76
$GPGGA,222059.000,4911.08148,N,12307.93211,W,1,12,0.7,001.26,M,-16.8,M,,*54
$GPRMC,222059.000,A,4911.08148,N,12307.93211,W,14.2,91.2,230419,,,A*75
$GPGGA,222100.000,4911.08143,N,12307.92535,W,1,12,0.7,000.98,M,-16.8,M,,*56
$GPRMC,222100.000,A,4911.08143,N,12307.92535,W,17.3,90.4,230419,,,A*76
$GPGGA,222101.000,4911.08155,N,12307.91739,W,1,13,0.7,000.69,M,-16.8,M,,*52
$GPRMC,222101.000,A,4911.08155,N,12307.91739,W,19.1,89.7,230419,,,A*7A
$GPGGA,222102.000,4911.08162,N,12307.90889,W,1,13,0.8,000.42,M,-16.8,M,,*56
