$GPGGA,161315.000,4910.32570,N,12304.20846,W,1,13,0.7,013.36,M,-16.8,M,,*5C
$GPGGA,161316.000,4910.32570,N,12304.20846,W,1,13,0.7,013.36,M,-16.8,M,,*5F
$GPGGA,161317.000,4910.32570,N,12304.20846,W,1,13,0.7,013.36,M,-16.8,M,,*5E
$GPGGA,161318.000,4910.32570,N,12304.20846,W,1,13,0.7,013.36,M,-16.8,M,,*51
$GPGGA,161319.000,4910.32570,N,12304.20846,W,1,13,0.7,013.36,M,-16.8,M,,*50
$GPGGA,161320.000,4910.32570,N,12304.20846,W,1,13,0.7,013.36,M,-16.8,M,,*5A
$GPGGA,161321.000,4910.32570,N,12304.20846,W,1,13,0.7,013.36,M,-16.8,M,,*5B
$GPGGA,161322.000,4910.32570,N,12304.20846,W,1,12,0.7,013.36,M,-16.8,M,,*59
$GPGGA,161323.000,4910.32570,N,12304.20846,W,1,13,0.7,013.36,M,-16.8,M,,*59
$GPGGA,161324.000,4910.32570,N,12304.20846,W,1,13,0.7,013.36,M,-16.8,M,,*5E
$GPGGA,161325.000,4910.32570,N,12304.20846,W,1,13,0.7,013.36,M,-16.8,M,,*5F
$GPGGA,161326.000,4910.32570,N,12304.20846,W,1,12,0.7,013.36,M,-16.8,M,,*5D
$GPGGA,161327.000,4910.32570,N,12304.20846,W,1,13,0.7,013.36,M,-16.8,M,,*5D
$GPGGA,161328.000,4910.32570,N,12304.20846,W,1,13,0.7,013.36,M,-16.8,M,,*52
$GPGGA,161329.000,4910.32570,N,12304.20846,W,1,13,0.7,013.20,M,-16.8,M,,*54
$GPGGA,161330.000,4910.32570,N,12304.20846,W,1,13,0.7,013.20,M,-16.8,M,,*5C
$GPGGA,161331.000,4910.32570,N,12304.20846,W,1,13,0.7,013.20,M,-16.8,M,,*5D
$GPGGA,161332.000,4910.32570,N,12304.20846,W,1,13,0.7,013.20,M,-16.8,M,,*5E
$GPGGA,161333.000,4910.32570,N,12304.20846,W,1,13,0.7,013.20,M,-16.8,M,,*5F
$GPGGA,161334.000,4910.32570,N,12304.20846,W,1,13,0.7,013.20,M,-16.8,M,,*58
$GPGGA,161335.000,4910.32570,N,12304.20846,W,1,13,0.7,013.20,M,-16.8,M,,*59
$GPGGA,161336.000,4910.32570,N,12304.20846,W,1,13,0.7,013.20,M,-16.8,M,,*5A
$GPGGA,161337.000,4910.32570,N,12304.20846,W,1,13,0.7,013.20,M,-16.8,M,,*5B
$GPGGA,161338.000,4910.32570,N,12304.20846,W,1,13,0.7,013.20,M,-16.8,M,,*54
$GPGGA,161339.000,4910.32570,N,12304.20846,W,1,13,0.7,013.20,M,-16.8,M,,*55
$GPGGA,161340.000,4910.32570,N,12304.20846,W,1,13,0.7,013.20,M,-16.8,M,,*5B
$GPGGA,161341.000,4910.32570,N,12304.20846,W,1,13,0.7,013.20,M,-16.8,M,,*5A
$GPGGA,161342.000,4910.32570,N,12304.20846,W,1,13,0.7,013.20,M,-16.8,M,,*59
$GPGGA,161343.000,4910.32570,N,12304.20846,W,1,13,0.7,013.20,M,-16.8,M,,*58
$GPGGA,161344.000,4910.32570,N,12304.20846,W,1,13,0.7,013.20,M,-16.8,M,,*5F
$GPGGA,161345.000,4910.32570,N,12304.20846,W,1,13,0.7,013.20,M,-16.8,M,,*5E
$GPGGA,161346.000,4910.32570,N,12304.20846,W,1,13,0.7,013.20,M,-16.8,M,,*5D
$GPGGA,161347.000,4910.32570,N,12304.20846,W,1,12,0.7,013.20,M,-16.8,M,,*5D
$GPGGA,161348.000,4910.32570,N,12304.20846,W,1,13,0.7,013.20,M,-16.8,M,,*53
$GPGGA,161349.000,4910.32570,N,12304.20846,W,1,13,0.7,013.20,M,-16.8,M,,*52
$GPGGA,161350.000,4910.32570,N,12304.20846,W,1,13,0.7,013.20,M,-16.8,M,,*5A
$GPGGA,161351.000,4910.32570,N,12304.20846,W,1,13,0.7,013.20,M,-16.8,M,,*5B
$GPGGA,161352.000,4910.32570,N,12304.20846,W,1,13,0.7,013.20,M,-16.8,M,,*58
$GPGGA,161353.000,4910.32570,N,12304.20846,W,1,13,0.7,013.20,M,-16.8,M,,*59
$GPGGA,161354.000,4910.32570,N,12304.20846,W,1,12,0.7,013.20,M,-16.8,M,,*5F
$GPGGA,161355.000,4910.32570,N,12304.20846,W,1,13,0.7,013.20,M,-16.8,M,,*5F
$GPGGA,161356.000,4910.32570,N,12304.20846,W,1,13,0.7,013.20,M,-16.8,M,,*5C
$GPGGA,161357.000,4910.32570,N,12304.20846,W,1,13,0.7,013.20,M,-16.8,M,,*5D
$GPGGA,161358.000,4910.32570,N,12304.20846,W,1,12,0.7,013.20,M,-16.8,M,,*53
$GPGGA,161359.000,4910.32570,N,12304.20846,W,1,13,0.7,013.20,M,-16.8,M,,*53
$GPGGA,161400.000,4910.32570,N,12304.20846,W,1,13,0.7,013.20,M,-16.8,M,,*58
$GPGGA,161401.000,4910.32570,N,12304.20846,W,1,13,0.7,013.20,M,-16.8,M,,*59
$GPGGA,161402.000,4910.32570,N,12304.20846,W,1,12,0.7,013.20,M,-16.8,M,,*5B
$GPGGA,161403.000,4910.32570,N,12304.20846,W,1,12,0.7,013.20,M,-16.8,M,,*5A
$GPGGA,161404.000,4910.32570,N,12304.20846,W,1,12,0.7,013.20,M,-16.8,M,,*5D
$GPGGA,161405.000,4910.32570,N,12304.20846,W,1,13,0.7,013.20,M,-16.8,M,,*5D
$GPGGA,161406.000,4910.32570,N,12304.20846,W,1,13,0.7,013.20,M,-16.8,M,,*5E
$GPGGA,161407.000,4910.32570,N,12304.20846,W,1,13,0.7,013.20,M,-16.8,M,,*5F
$GPGGA,161408.000,4910.32570,N,12304.20846,W,1,12,0.7,013.20,M,-16.8,M,,*51
$GPGGA,161409.000,4910.32570,N,12304.20846,W,1,12,0.7,014.16,M,-16.8,M,,*52
$GPGGA,161410.000,4910.32570,N,12304.20846,W,1,13,0.7,014.16,M,-16.8,M,,*5B
$GPGGA,161411.000,4910.32570,N,12304.20846,W,1,13,0.7,014.16,M,-16.8,M,,*5A
$GPGGA,161412.000,4910.32570,N,12304.20846,W,1,13,0.7,014.16,M,-16.8,M,,*59
$GPGGA,161413.000,4910.32570,N,12304.20846,W,1,13,0.7,014.16,M,-16.8,M,,*58
$GPGGA,161414.000,4910.32570,N,12304.20846,W,1,13,0.7,014.16,M,-16.8,M,,*5F
$GPGGA,161415.000,4910.32570,N,12304.20846,W,1,13,0.7,014.16,M,-16.8,M,,*5E
$GPGGA,161416.000,4910.32570,N,12304.20846,W,1,13,0.7,014.16,M,-16.8,M,,*5D
$GPGGA,161417.000,4910.32570,N,12304.20846,W,1,13,0.7,014.16,M,-16.8,M,,*5C
$GPGGA,161418.000,4910.32570,N,12304.20846,W,1,13,0.7,014.16,M,-16.8,M,,*53
$GPGGA,161419.000,4910.32570,N,12304.20846,W,1,13,0.7,014.16,M,-16.8,M,,*52
$GPGGA,161420.000,4910.32570,N,12304.20846,W,1,13,0.7,014.16,M,-16.8,M,,*58
$GPGGA,161421.000,4910.32570,N,12304.20846,W,1,13,0.7,014.16,M,-16.8,M,,*59
$GPGGA,161422.000,4910.32570,N,12304.20846,W,1,13,0.7,014.16,M,-16.8,M,,*5A
$GPGGA,161424.000,4910.32570,N,12304.20846,W,1,13,0.
$GPGGA,161425.000,4910.32570,N,12304.20846,W,1,13,0.7,014.16,M,-16.8,M,,*5D
$GPGGA,161426.000,4910.32570,N,12304.20846,W,1,13,0.7,014.16,M,-16.8,M,,*5E
$GPGGA,161427.000,4910.32570,N,12304.20846,W,1,13,0.7,014.16,M,-16.8,M,,*5F
$GPGGA,161428.000,4910.32570,N,12304.20846,W,1,13,0.7,014.16,M,-16.8,M,,*50
$GPGGA,161429.000,4910.32570,N,12304.20846,W,1,13,0.7,014.16,M,-16.8,M,,*51
$GPGGA,161430.000,4910.32570,N,12304.20846,W,1,13,0.7,014.16,M,-16.8,M,,*59
$GPGGA,161431.000,4910.32570,N,12304.20846,W,1,13,0.7,014.16,M,-16.8,M,,*58
$GPGGA,161432.000,4910.32570,N,12304.20846,W,1,13,0.7,014.16,M,-16.8,M,,*5B
$GPGGA,161433.000,4910.32570,N,12304.20846,W,1,12,0.8,014.16,M,-16.8,M,,*54
$GPGGA,161434.000,4910.32570,N,12304.20846,W,1,13,0.7,014.16,M,-16.8,M,,*5D
$GPGGA,161435.000,4910.32570,N,12304.20846,W,1,13,0.7,014.16,M,-16.8,M,,*5C
$GPGGA,161436.000,4910.32570,N,12304.20846,W,1,13,0.7,014.16,M,-16.8,M,,*5F
$GPGGA,161437.000,4910.32570,N,12304.20846,W,1,13,0.7,014.16,M,-16.8,M,,*5E
$GPGGA,161438.000,4910.32570,N,12304.20846,W,1,13,0.7,014.16,M,-16.8,M,,*51
$GPGGA,161439.000,4910.32570,N,12304.20846,W,1,13,0.7,014.16,M,-16.8,M,,*50
$GPGGA,161440.000,4910.32570,N,12304.20846,W,1,13,0.7,014.16,M,-16.8,M,,*5E
$GPGGA,161441.000,4910.32570,N,12304.20846,W,1,13,0.7,014.16,M,-16.8,M,,*5F
$GPGGA,161442.000,4910.32570,N,12304.20846,W,1,13,0.7,014.16,M,-16.8,M,,*5C
$GPGGA,161443.000,4910.32570,N,12304.20846,W,1,13,0.7,014.16,M,-16.8,M,,*5D
$GPGGA,161444.000,4910.32570,N,12304.20846,W,1,13,0.7,014.16,M,-16.8,M,,*5A
$GPGGA,161445.000,4910.32570,N,12304.20846,W,1,12,0.7,014.16,M,-16.8,M,,*5A
$GPGGA,161446.000,4910.32570,N,12304.20846,W,1,13,0.7,014.16,M,-16.8,M,,*58
$GPGGA,161447.000,4910.32570,N,12304.20846,W,1,13,0.7,014.16,M,-16.8,M,,*59
$GPGGA,161448.000,4910.32570,N,12304.20846,W,1,13,0.7,014.16,M,-16.8,M,,*56
$GPGGA,161449.000,4910.32570,N,12304.20846,W,1,13,0.7,014.63,M,-16.8,M,,*55
$GPGGA,161450.000,4910.32570,N,12304.20846,W,1,13,0.7,014.63,M,-16.8,M,,*5D
$GPGGA,161451.000,4910.32570,N,12304.20846,W,1,13,0.7,014.63,M,-16.8,M,,*5C
$GPGGA,161452.000,4910.32570,N,12304.20846,W,1,13,0.7,014.63,M,-16.8,M,,*5F
$GPGGA,161453.000,4910.32570,N,12304.20846,W,1,13,0.7,014.63,M,-16.8,M,,*5E
$GPGGA,161454.000,4910.32570,N,12304.20846,W,1,13,0.7,014.63,M,-16.8,M,,*59
$GPGGA,161455.000,4910.32570,N,12304.20846,W,1,13,0.7,014.63,M,-16.8,M,,*58
$GPGGA,161456.000,4910.32570,N,12304.20846,W,1,13,0.7,014.63,M,-16.8,M,,*5B
$GPGGA,161457.000,4910.32570,N,12304.20846,W,1,13,0.7,014.63,M,-16.8,M,,*5A
$GPGGA,161458.000,4910.32570,N,12304.20846,W,1,13,0.7,014.63,M,-16.8,M,,*55
$GPGGA,161459.000,4910.32570,N,12304.20846,W,1,13,0.7,014.63,M,-16.8,M,,*54
$GPGGA,161500.000,4910.32570,N,12304.20846,W,1,13,0.7,014.63,M,-16.8,M,,*59
$GPGGA,161501.000,4910.32570,N,12304.20846,W,1,12,0.7,014.63,M,-16.8,M,,*59
$GPGGA,161502.000,4910.32570,N,12304.20846,W,1,12,0.7,014.63,M,-16.8,M,,*5A
$GPGGA,161503.000,4910.32570,N,12304.20846,W,1,13,0.7,014.63,M,-16.8,M,,*5A
$GPGGA,161504.000,4910.32570,N,12304.20846,W,1,13,0.7,014.63,M,-16.8,M,,*5D
$GPGGA,161505.000,4910.32570,N,12304.20846,W,1,13,0.7,014.63,M,-16.8,M,,*5C
$GPGGA,161506.000,4910.32570,N,12304.20846,W,1,13,0.7,014.63,M,-16.8,M,,*5F
$GPGGA,161507.000,4910.32570,N,12304.20846,W,1,13,0.7,014.63,M,-16.8,M,,*5E
$GPGGA,161508.000,4910.32570,N,12304.20846,W,1,13,0.7,014.63,M,-16.8,M,,*51
$GPGGA,161509.000,4910.32570,N,12304.20846,W,1,13,0.7,014.63,M,-16.8,M,,*50
$GPGGA,161510.000,4910.32570,N,12304.20846,W,1,13,0.7,014.63,M,-16.8,M,,*58
$GPGGA,161511.000,4910.32570,N,12304.20846,W,1,13,0.7,014.63,M,-16.8,M,,*59
$GPGGA,161512.000,4910.32570,N,12304.20846,W,1,13,0.7,014.63,M,-16.8,M,,*5A
$GPGGA,161513.000,4910.32570,N,12304.20846,W,1,12,0.7,014.63,M,-16.8,M,,*5A
$GPGGA,161514.000,4910.32570,N,12304.20846,W,1,12,0.7,014.63,M,-16.8,M,,*5D
$GPGGA,161515.000,4910.32570,N,12304.20846,W,1,13,0.7,014.63,M,-16.8,M,,*5D
$GPGGA,161516.000,4910.32570,N,12304.20846,W,1,13,0.7,014.63,M,-16.8,M,,*5E
$GPGGA,161517.000,4910.32570,N,12304.20846,W,1,13,0.7,014.63,M,-16.8,M,,*5F
$GPGGA,161518.000,4910.32570,N,12304.20846,W,1,13,0.7,014.63,M,-16.8,M,,*50
$GPGGA,161519.000,4910.32570,N,12304.20846,W,1,13,0.7,014.63,M,-16.8,M,,*51
$GPGGA,161520.000,4910.32570,N,12304.20846,W,1,13,0.7,014.63,M,-16.8,M,,*5B
$GPGGA,161521.000,4910.32570,N,12304.20846,W,1,13,0.7,014.63,M,-16.8,M,,*5A
$GPGGA,161522.000,4910.32570,N,12304.20846,W,1,13,0.7,014.63,M,-16.8,M,,*59
$GPGGA,161523.000,4910.32570,N,12304.20846,W,1,13,0.7,014.63,M,-16.8,M,,*58
$GPGGA,161524.000,4910.32570,N,12304.20846,W,1,13,0.7,014.63,M,-16.8,M,,*5F
$GPGGA,161525.000,4910.32570,N,12304.20846,W,1,13,0.7,014.63,M,-16.8,M,,*5E
$GPGGA,161526.000,4910.32570,N,12304.20846,W,1,13,0.7,014.63,M,-16.8,M,,*5D
$GPGGA,161527.000,4910.32570,N,12304.20846,W,1,13,0.7,014.63,M,-16.8,M,,*5C
$GPGGA,161528.000,4910.32570,N,12304.20846,W,1,13,0.7,014.63,M,-16.8,M,,*53
$GPGGA,161529.000,4910.32570,N,12304.20846,W,1,13,0.7,014.08,M,-16.8,M,,*5F
$GPGGA,161530.000,4910.32570,N,12304.20846,W,1,13,0.7,014.08,M,-16.8,M,,*57
$GPGGA,161531.000,4910.32570,N,12304.20846,W,1,13,0.7,014.08,M,-16.8,M,,*56
$GPGGA,161532.000,4910.32570,N,12304.20846,W,1,13,0.7,014.08,M,-16.8,M,,*55
$GPGGA,161533.000,4910.32570,N,12304.20846,W,1,13,0.7,014.08,M,-16.8,M,,*54
$GPGGA,161534.000,4910.32570,N,12304.20846,W,1,13,0.7,014.08,M,-16.8,M,,*53
$GPGGA,161535.000,4910.32570,N,12304.20846,W,1,13,0.7,014.08,M,-16.8,M,,*52
$GPGGA,161536.000,4910.32570,N,12304.20846,W,1,13,0.7,014.08,M,-16.8,M,,*51
$GPGGA,161537.000,4910.32570,N,12304.20846,W,1,13,0.7,014.08,M,-16.8,M,,*50
$GPGGA,161538.000,4910.32570,N,12304.20846,W,1,13,0.7,014.08,M,-16.8,M,,*5F
$GPGGA,161539.000,4910.32570,N,12304.20846,W,1,13,0.7,014.08,M,-16.8,M,,*5E
$GPGGA,161540.000,4910.32570,N,12304.20846,W,1,13,0.7,014.08,M,-16.8,M,,*50
$GPGGA,161541.000,4910.32570,N,12304.20846,W,1,13,0.7,014.08,M,-16.8,M,,*51
$GPGGA,161542.000,4910.32570,N,12304.20846,W,1,13,0.7,014.08,M,-16.8,M,,*52
$GPGGA,161543.000,4910.32570,N,12304.20846,W,1,13,0.7,014.08,M,-16.8,M,,*53
$GPGGA,161544.000,4910.32570,N,12304.20846,W,1,13,0.7,014.08,M,-16.8,M,,*54
$GPGGA,161545.000,4910.32570,N,12304.20846,W,1,13,0.7,014.08,M,-16.8,M,,*55
$GPGGA,161546.000,4910.32570,N,12304.20846,W,1,13,0.7,014.08,M,-16.8,M,,*56
$GPGGA,161547.000,4910.32570,N,12304.20846,W,1,13,0.7,014.08,M,-16.8,M,,*57
$GPGGA,161548.000,4910.32570,N,12304.20846,W,1,13,0.7,014.08,M,-16.8,M,,*58
$GPGGA,161549.000,4910.32570,N,12304.20846,W,1,13,0.7,014.08,M,-16.8,M,,*59
$GPGGA,161550.000,4910.32570,N,12304.20846,W,1,13,0.7,014.08,M,-16.8,M,,*51
$GPGGA,161551.000,4910.32570,N,12304.20846,W,1,13,0.7,014.08,M,-16.8,M,,*50
$GPGGA,161552.000,4910.32570,N,12304.20846,W,1,13,0.7,014.08,M,-16.8,M,,*53
$GPGGA,161553.000,4910.32570,N,12304.20846,W,1,13,0.7,014.08,M,-16.8,M,,*52
$GPGGA,161554.000,4910.32570,N,12304.20846,W,1,13,0.7,014.08,M,-16.8,M,,*55
$GPGGA,161555.000,4910.32570,N,12304.20846,W,1,13,0.7,014.08,M,-16.8,M,,*54
$GPGGA,161556.000,4910.32570,N,12304.20846,W,1,13,0.7,014.08,M,-16.8,M,,*57
$GPGGA,161557.000,4910.32570,N,12304.20846,W,1,13,0.7,014.08,M,-16.8,M,,*56
$GPGGA,161558.000,4910.32570,N,12304.20846,W,1,13,0.7,014.08,M,-16.8,M,,*59
$GPGGA,161559.000,4910.32570,N,12304.20846,W,1,13,0.7,014.08,M,-16.8,M,,*58
$GPGGA,161600.000,4910.32570,N,12304.20846,W,1,13,0.7,014.08,M,-16.8,M,,*57
$GPGGA,161601.000,4910.32570,N,12304.20846,W,1,13,0.7,014.08,M,-16.8,M,,*56
$GPGGA,161602.000,4910.32570,N,12304.20846,W,1,13,0.7,014.08,M,-16.8,M,,*55
$GPGGA,161603.000,4910.32570,N,12304.20846,W,1,13,0.7,014.08,M,-16.8,M,,*54
$GPGGA,161604.000,4910.32570,N,12304.20846,W,1,13,0.7,014.08,M,-16.8,M,,*53
$GPGGA,161605.000,4910.32570,N,12304.20846,W,1,13,0.7,014.08,M,-16.8,M,,*52
$GPGGA,161606.000,4910.32570,N,12304.20846,W,1,13,0.7,014.08,M,-16.8,M,,*51
$GPGGA,161607.000,4910.32570,N,12304.20846,W,1,13,0.7,014.08,M,-16.8,M,,*50
$GPGGA,161608.000,4910.32570,N,12304.20846,W,1,13,0.7,014.08,M,-16.8,M,,*5F
$GPGGA,161609.000,4910.32570,N,12304.20846,W,1,13,0.7,014.17,M,-16.8,M,,*50
$GPGGA,161610.000,4910.32570,N,12304.20846,W,1,13,0.7,014.17,M,-16.8,M,,*58
$GPGGA,161611.000,4910.32570,N,12304.20846,W,1,12,0.7,014.17,M,-16.8,M,,*58
$GPGGA,161612.000,4910.32570,N,12304.20846,W,1,13,0.7,014.17,M,-16.8,M,,*5A
$GPGGA,161613.000,4910.32570,N,12304.20846,W,1,13,0.7,014.17,M,-16.8,M,,*5B
$GPGGA,161614.000,4910.32570,N,12304.20846,W,1,13,0.7,014.17,M,-16.8,M,,*5C
$GPGGA,161615.000,4910.32570,N,12304.20846,W,1,13,0.7,014.17,M,-16.8,M,,*5D
$GPGGA,161616.000,4910.32570,N,12304.20846,W,1,13,0.7,014.17,M,-16.8,M,,*5E
$GPGGA,161617.000,4910.32570,N,12304.20846,W,1,13,0.7,014.17,M,-16.8,M,,*5F
$GPGGA,161618.000,4910.32570,N,12304.20846,W,1,13,0.7,014.17,M,-16.8,M,,*50
$GPGGA,161619.000,4910.32570,N,12304.20846,W,1,13,0.7,014.17,M,-16.8,M,,*51
$GPGGA,161620.000,4910.32570,N,12304.20846,W,1,12,0.7,014.17,M,-16.8,M,,*5A
$GPGGA,161621.000,4910.32570,N,12304.20846,W,1,13,0.7,014.17,M,-16.8,M,,*5A
$GPGGA,161622.000,4910.32570,N,12304.20846,W,1,13,0.7,014.17,M,-16.8,M,,*59
$GPGGA,161623.000,4910.32570,N,12304.20846,W,1,13,0.7,014.17,M,-16.8,M,,*58
$GPGGA,161624.000,4910.32570,N,12304.20846,W,1,13,0.7,014.17,M,-16.8,M,,*5F
$GPGGA,161625.000,4910.32570,N,12304.20846,W,1,13,0.7,014.17,M,-16.8,M,,*5E
$GPGGA,161626.000,4910.32570,N,12304.20846,W,1,13,0.7,014.17,M,-16.8,M,,*5D
$GPGGA,161627.000,4910.32570,N,12304.20846,W,1,13,0.7,014.17,M,-16.8,M,,*5C
$GPGGA,161628.000,4910.32570,N,12304.20846,W,1,13,0.7,014.17,M,-16.8,M,,*53
$GPGGA,161629.000,4910.32570,N,12304.20846,W,1,13,0.7,014.17,M,-16.8,M,,*52
$GPGGA,161630.000,4910.32570,N,12304.20846,W,1,13,0.7,014.17,M,-16.8,M,,*5A
$GPGGA,161631.000,4910.32570,N,12304.20846,W,1,13,0.7,014.17,M,-16.8,M,,*5B
$GPGGA,161632.000,4910.32570,N,12304.20846,W,1,13,0.7,014.17,M,-16.8,M,,*58
$GPGGA,161633.000,4910.32570,N,12304.20846,W,1,12,0.7,014.17,M,-16.8,M,,*58
$GPGGA,161634.000,4910.32570,N,12304.20846,W,1,13,0.7,014.17,M,-16.8,M,,*5E
$GPGGA,161635.000,4910.32570,N,12304.20846,W,1,13,0.7,014.17,M,-16.8,M,,*5F
$GPGGA,161636.000,4910.32570,N,12304.20846,W,1,13,0.7,014.17,M,-16.8,M,,*5C
$GPGGA,161637.000,4910.32570,N,12304.20846,W,1,13,0.7,014.17,M,-16.8,M,,*5D
$GPGGA,161638.000,4910.32570,N,12304.20846,W,1,13,0.7,014.17,M,-16.8,M,,*52
$GPGGA,161639.000,4910.32570,N,12304.20846,W,1,13,0.7,014.17,M,-16.8,M,,*53
$GPGGA,161640.000,4910.32570,N,12304.20846,W,1,14,0.7,014.17,M,-16.8,M,,*5A
