$GPGGA,210200.000,4910.3020,N,12304.2389,W,1,08,0.7,5.7,M,-16.8,M,,0000*69
$GNGNS,210200.000,4910.3020,N,12304.2389,W,AA,17,0.7,5.7,-16.8,,0000*53
$GNGSA,A,3,12,29,02,05,31,25,06,10,,,,,1.4,0.7,1.2*20
$GNGSA,A,3,83,74,84,67,68,82,75,73,66,,,,1.4,0.7,1.2*2A
$GNRMC,210200.000,A,4910.3020,N,12304.2389,W,14.79,91.12,050914,,,A*63
$GPGGA,210201.000,4910.3020,N,12304.2311,W,1,08,0.7,5.5,M,-16.8,M,,0000*6B
$GNGNS,210201.000,4910.3020,N,12304.2311,W,AA,16,0.7,5.5,-16.8,,0000*50
$GNGSA,A,3,12,29,02,05,31,25,06,10,,,,,1.5,0.7,1.3*20
$GNGSA,A,3,83,74,84,67,68,82,73,75,,,,,1.5,0.7,1.3*2A
$GNRMC,210201.000,A,4910.3020,N,12304.2311,W,18.22,88.90,050914,,,A*63
$GPGGA,210202.000,4910.3021,N,12304.2223,W,1,08,0.7,5.2,M,-16.8,M,,0000*6E
$GNGNS,210202.000,4910.3021,N,12304.2223,W,AA,16,0.7,5.2,-16.8,,0000*55
$GNGSA,A,3,12,29,02,05,31,25,06,10,,,,,1.5,0.7,1.3*20
$GNGSA,A,3,83,74,84,67,68,82,73,75,,,,,1.5,0.7,1.3*2A
$GPGSV,3,1,11,12,58,163,49,29,37,280,48,02,62,068,48,05,31,137,48*7F
$GPGSV,3,2,11,31,20,313,45,25,70,268,45,06,23,053,43,10,33,074,42*77
$GPGSV,3,3,11,24,01,198,21,09,01,024,,23,00,018,*4B
$GLGSV,3,1,10,83,69,003,50,74,47,294,48,84,35,275,45,67,30,056,44*6D
$GLGSV,3,2,10,68,23,116,43,82,21,068,42,73,38,219,39,75,11,340,24*66
$GLGSV,3,3,10,66,06,008,,80,01,185,*6F
$GNRMC,210202.000,A,4910.3021,N,12304.2223,W,20.31,89.48,050914,,,A*6C
$GPGGA,210203.000,4910.3021,N,12304.2133,W,1,08,0.7,4.9,M,-16.8,M,,0000*67
$GNGNS,210203.000,4910.3021,N,12304.2133,W,AA,16,0.7,4.9,-16.8,,0000*5C
$GNGSA,A,3,12,29,02,05,31,25,06,10,,,,,1.5,0.7,1.3*20
$GNGSA,A,3,83,74,84,67,68,82,73,75,,,,,1.5,0.7,1.3*2A
$GNRMC,210203.000,A,4910.3021,N,12304.2133,W,20.92,90.05,050914,,,A*67
$GPGGA,210204.000,4910.3021,N,12304.2044,W,1,08,0.7,4.7,M,-16.8,M,,0000*6F
$GNGNS,210204.000,4910.3021,N,12304.2044,W,AA,16,0.7,4.7,-16.8,,0000*54
$GNGSA,A,3,12,29,02,05,31,25,10,06,,,,,1.4,0.7,1.2*20
$GNGSA,A,3,83,74,84,67,68,82,73,66,,,,,1.4,0.7,1.2*28
$GNRMC,210204.000,A,4910.3021,N,12304.2044,W,20.62,89.92,050914,,,A*68
$GPGGA,210205.000,4910.3022,N,12304.1960,W,1,08,0.7,4.6,M,-16.8,M,,0000*60
$GNGNS,210205.000,4910.3022,N,12304.1960,W,AA,16,0.7,4.6,-16.8,,0000*5B
$GNGSA,A,3,12,29,02,05,25,31,10,06,,,,,1.5,0.7,1.3*20
$GNGSA,A,3,83,74,84,67,82,68,73,75,,,,,1.5,0.7,1.3*2A
$GNRMC,210205.000,A,4910.3022,N,12304.1960,W,19.80,89.88,050914,,,A*6B
$GPGGA,210206.000,4910.3021,N,12304.1880,W,1,08,0.7,4.4,M,-16.8,M,,0000*6D
$GNGNS,210206.000,4910.3021,N,12304.1880,W,AA,17,0.7,4.4,-16.8,,0000*57
$GNGSA,A,3,29,02,12,05,25,31,10,06,,,,,1.4,0.7,1.2*20
$GNGSA,A,3,83,74,84,67,82,68,73,66,75,,,,1.4,0.7,1.2*2A
$GNRMC,210206.000,A,4910.3021,N,12304.1880,W,18.68,90.21,050914,,,A*68
$GPGGA,210207.000,4910.3021,N,12304.1807,W,1,08,0.7,4.3,M,-16.8,M,,0000*64
$GNGNS,210207.000,4910.3021,N,12304.1807,W,AA,17,0.7,4.3,-16.8,,0000*5E
$GNGSA,A,3,29,02,12,05,25,10,06,31,,,,,1.4,0.7,1.2*20
$GNGSA,A,3,83,74,84,67,82,68,73,66,75,,,,1.4,0.7,1.2*2A
$GPGSV,3,1,11,29,37,280,48,02,62,068,48,12,58,163,48,05,31,137,46*70
$GPGSV,3,2,11,25,70,268,45,10,33,074,43,06,23,053,41,31,20,313,37*71
$GPGSV,3,3,11,24,01,198,26,09,01,024,,23,00,018,*4C
$GLGSV,3,1,10,83,69,003,50,74,47,294,48,84,35,275,45,67,30,056,43*6A
$GLGSV,3,2,10,82,21,068,42,68,23,116,42,73,38,219,35,66,06,008,25*61
$GLGSV,3,3,10,75,11,340,23,80,01,185,*65
$GNRMC,210207.000,A,4910.3021,N,12304.1807,W,17.28,91.02,050914,,,A*6D
$GPGGA,210208.000,4910.3018,N,12304.1740,W,1,08,0.8,4.1,M,-16.8,M,,0000*60
$GNGNS,210208.000,4910.3018,N,12304.1740,W,AA,15,0.8,4.1,-16.8,,0000*58
$GNGSA,A,3,02,29,12,05,25,10,31,06,,,,,1.6,0.8,1.4*2B
$GNGSA,A,3,83,74,84,67,82,68,73,,,,,,1.6,0.8,1.4*23
$GNRMC,210208.000,A,4910.3018,N,12304.1740,W,15.77,94.71,050914,,,A*6D
$GPGGA,210209.000,4910.3014,N,12304.1682,W,1,08,0.7,4.0,M,-16.8,M,,0000*6C
$GNGNS,210209.000,4910.3014,N,12304.1682,W,AA,17,0.7,4.0,-16.8,,0000*56
$GNGSA,A,3,02,29,12,05,25,10,06,31,,,,,1.4,0.7,1.2*20
$GNGSA,A,3,83,74,84,82,67,68,73,75,66,,,,1.4,0.7,1.2*2A
$GNRMC,210209.000,A,4910.3014,N,12304.1682,W,13.73,98.42,050914,,,A*61
$GPGGA,210210.000,4910.3008,N,12304.1634,W,1,08,0.7,3.9,M,-16.8,M,,0000*6A
$GNGNS,210210.000,4910.3008,N,12304.1634,W,AA,17,0.7,3.9,-16.8,,0000*50
$GNGSA,A,3,29,02,12,05,25,10,06,31,,,,,1.4,0.7,1.2*20
$GNGSA,A,3,83,74,82,84,73,67,68,66,75,,,,1.4,0.7,1.2*2A
$GNRMC,210210.000,A,4910.3008,N,12304.1634,W,11.58,102.77,050914,,,A*56
$GPGGA,210211.000,4910.3001,N,12304.1597,W,1,08,0.7,3.8,M,-16.8,M,,0000*69
$GNGNS,210211.000,4910.3001,N,12304.1597,W,AA,17,0.7,3.8,-16.8,,0000*53
$GNGSA,A,3,12,29,02,05,25,06,31,10,,,,,1.4,0.7,1.2*20
$GNGSA,A,3,83,67,74,82,84,73,68,66,75,,,,1.4,0.7,1.2*2A
$GNRMC,210211.000,A,4910.3001,N,12304.1597,W,9.19,108.33,050914,,,A*62
$GPGGA,210212.000,4910.2994,N,12304.1573,W,1,08,0.7,3.7,M,-16.8,M,,0000*6B
$GNGNS,210212.000,4910.2994,N,12304.1573,W,AA,16,0.7,3.7,-16.8,,0000*50
$GNGSA,A,3,12,29,02,05,31,25,06,10,,,,,1.4,0.7,1.2*20
$GNGSA,A,3,83,67,74,82,68,84,73,66,,,,,1.4,0.7,1.2*28
$GPGSV,3,1,11,12,58,163,48,29,37,280,48,02,62,068,48,05,31,137,47*71
$GPGSV,3,2,11,31,20,313,39,25,70,267,46,06,23,053,43,10,33,074,35*70
$GPGSV,3,3,11,24,01,197,17,09,01,024,,23,00,018,*41
$GLGSV,3,1,10,83,69,003,51,67,30,056,49,74,47,294,48,82,21,068,47*6E
$GLGSV,3,2,10,68,23,116,47,84,35,275,45,73,38,219,42,66,06,008,41*6C
$GLGSV,3,3,10,75,11,340,38,80,01,185,*6F
$GNRMC,210212.000,A,4910.2994,N,12304.1573,W,6.09,116.41,050914,,,A*6B
$GPGGA,210213.000,4910.2991,N,12304.1564,W,1,08,0.7,3.6,M,-16.8,M,,0000*68
$GNGNS,210213.000,4910.2991,N,12304.1564,W,AA,16,0.7,3.6,-16.8,,0000*53
$GNGSA,A,3,12,29,05,31,02,25,06,10,,,,,1.4,0.7,1.2*20
$GNGSA,A,3,83,67,74,82,68,84,73,66,,,,,1.4,0.7,1.2*28
$GNRMC,210213.000,A,4910.2991,N,12304.1564,W,0.79,116.92,050914,,,A*66
$GPGGA,210214.000,4910.2991,N,12304.1564,W,1,08,0.7,3.5,M,-16.8,M,,0000*6C
$GNGNS,210214.000,4910.2991,N,12304.1564,W,AA,17,0.7,3.5,-16.8,,0000*56
$GNGSA,A,3,12,31,05,29,02,25,06,10,,,,,1.4,0.7,1.2*20
$GNGSA,A,3,83,67,74,68,82,84,73,66,75,,,,1.4,0.7,1.2*2A
$GNRMC,210214.000,A,4910.2991,N,12304.1564,W,0.01,116.92,050914,,,A*6E
$GPGGA,210215.000,4910.2991,N,12304.1564,W,1,08,0.7,3.5,M,-16.8,M,,0000*6D
$GNGNS,210215.000,4910.2991,N,12304.1564,W,AA,17,0.7,3.5,-16.8,,0000*57
$GNGSA,A,3,31,12,05,29,02,25,06,10,,,,,1.4,0.7,1.2*20
$GNGSA,A,3,83,67,74,68,82,84,73,66,75,,,,1.4,0.7,1.2*2A
$GNRMC,210215.000,A,4910.2991,N,12304.1564,W,0.00,116.92,050914,,,A*6E
$GPGGA,210216.000,4910.2991,N,12304.1564,W,1,08,0.7,3.5,M,-16.8,M,,0000*6E
$GNGNS,210216.000,4910.2991,N,12304.1564,W,AA,17,0.7,3.5,-16.8,,0000*54
$GNGSA,A,3,31,05,12,29,02,06,25,10,,,,,1.4,0.7,1.2*20
$GNGSA,A,3,83,67,74,68,82,84,73,66,75,,,,1.4,0.7,1.2*2A
$GNRMC,210216.000,A,4910.2991,N,12304.1564,W,0.00,116.92,050914,,,A*6D
$GPGGA,210217.000,4910.2991,N,12304.1564,W,1,07,0.7,3.5,M,-16.8,M,,0000*60
$GNGNS,210217.000,4910.2991,N,12304.1564,W,AA,16,0.7,3.5,-16.8,,0000*54
$GNGSA,A,3,05,12,31,29,02,06,25,,,,,,1.4,0.7,1.2*21
$GNGSA,A,3,83,67,74,68,82,84,73,75,66,,,,1.4,0.7,1.2*2A
$GPGSV,3,1,11,05,31,137,48,12,58,163,48,31,20,313,48,29,37,280,47*78
$GPGSV,3,2,11,02,62,068,46,06,23,053,46,25,70,267,45,10,33,074,35*77
$GPGSV,3,3,11,24,01,197,15,09,01,024,,23,00,018,*43
$GLGSV,3,1,10,83,69,003,51,67,30,056,49,74,47,294,49,68,23,116,48*6E
$GLGSV,3,2,10,82,21,068,46,84,35,275,45,73,38,219,43,75,11,340,37*68
$GLGSV,3,3,10,66,06,008,34,80,01,185,*68
$GNRMC,210217.000,A,4910.2991,N,12304.1564,W,0.22,116.92,050914,,,A*6C
$GPGGA,210218.000,4910.2985,N,12304.1557,W,1,07,0.7,3.8,M,-16.8,M,,0000*67
$GNGNS,210218.000,4910.2985,N,12304.1557,W,AA,16,0.7,3.8,-16.8,,0000*53
$GNGSA,A,3,12,05,31,06,02,29,25,,,,,,1.4,0.7,1.2*21
$GNGSA,A,3,83,74,67,68,82,73,75,66,84,,,,1.4,0.7,1.2*2A
$GNRMC,210218.000,A,4910.2985,N,12304.1557,W,2.51,131.05,050914,,,A*6B
$GPGGA,210219.000,4910.2971,N,12304.1547,W,1,08,0.7,4.0,M,-16.8,M,,0000*6C
$GNGNS,210219.000,4910.2971,N,12304.1547,W,AA,17,0.7,4.0,-16.8,,0000*56
$GNGSA,A,3,12,10,02,06,25,05,29,31,,,,,1.4,0.7,1.2*20
$GNGSA,A,3,83,74,67,68,82,75,84,66,73,,,,1.4,0.7,1.2*2A
$GNRMC,210219.000,A,4910.2971,N,12304.1547,W,5.89,152.53,050914,,,A*64
$GPGGA,210220.000,4910.2942,N,12304.1539,W,1,08,0.7,4.1,M,-16.8,M,,0000*6E
$GNGNS,210220.000,4910.2942,N,12304.1539,W,AA,17,0.7,4.1,-16.8,,0000*54
$GNGSA,A,3,12,02,10,06,25,29,05,31,,,,,1.4,0.7,1.2*20
$GNGSA,A,3,83,74,67,68,82,75,84,66,73,,,,1.4,0.7,1.2*2A
$GNRMC,210220.000,A,4910.2942,N,12304.1539,W,10.14,173.47,050914,,,A*51
$GPGGA,210221.000,4910.2901,N,12304.1539,W,1,07,0.7,4.2,M,-16.8,M,,0000*64
$GNGNS,210221.000,4910.2901,N,12304.1539,W,AA,16,0.7,4.2,-16.8,,0000*50
$GNGSA,A,3,12,02,06,10,25,29,05,,,,,,1.4,0.7,1.2*22
$GNGSA,A,3,83,74,67,68,82,75,84,66,73,,,,1.4,0.7,1.2*2A
$GNRMC,210221.000,A,4910.2901,N,12304.1539,W,14.46,182.69,050914,,,A*56
$GPGGA,210222.000,4910.2851,N,12304.1541,W,1,08,0.7,4.3,M,-16.8,M,,0000*62
$GNGNS,210222.000,4910.2851,N,12304.1541,W,AA,17,0.7,4.3,-16.8,,0000*58
$GNGSA,A,3,12,02,06,10,25,29,05,31,,,,,1.4,0.7,1.2*20
$GNGSA,A,3,83,67,68,82,75,74,84,73,66,,,,1.4,0.7,1.2*2A
$GPGSV,3,1,11,12,58,163,49,02,62,068,48,06,23,053,46,10,33,074,46*7B
$GPGSV,3,2,11,25,70,267,45,29,37,280,44,05,31,137,41,31,20,313,39*73
$GPGSV,3,3,11,24,01,197,16,09,01,024,,23,00,018,*40
$GLGSV,3,1,10,83,69,004,50,67,30,055,49,68,23,116,48,82,21,068,45*6F
$GLGSV,3,2,10,75,11,340,42,74,47,294,42,84,35,275,35,73,38,219,39*6C
$GLGSV,3,3,10,66,06,008,40,80,00,185,*6A
$GNRMC,210222.000,A,4910.2851,N,12304.1541,W,17.73,185.17,050914,,,A*55
$GPGGA,210223.000,4910.2794,N,12304.1543,W,1,07,0.7,4.1,M,-16.8,M,,0000*6A
$GNGNS,210223.000,4910.2794,N,12304.1543,W,AA,16,0.7,4.1,-16.8,,0000*5E
$GNGSA,A,3,12,02,06,10,29,25,05,,,,,,1.4,0.7,1.2*22
$GNGSA,A,3,83,67,68,82,74,84,73,66,75,,,,1.4,0.7,1.2*2A
$GNRMC,210223.000,A,4910.2794,N,12304.1543,W,19.94,183.22,050914,,,A*57
$GPGGA,210224.000,4910.2733,N,12304.1542,W,1,08,0.7,4.2,M,-16.8,M,,0000*6D
$GNGNS,210224.000,4910.2733,N,12304.1542,W,AA,17,0.7,4.2,-16.8,,0000*57
$GNGSA,A,3,12,02,06,10,29,25,05,31,,,,,1.4,0.7,1.2*20
$GNGSA,A,3,83,67,68,74,82,84,73,66,75,,,,1.4,0.7,1.2*2A
$GNRMC,210224.000,A,4910.2733,N,12304.1542,W,21.54,179.73,050914,,,A*5A
$GPGGA,210225.000,4910.2667,N,12304.1539,W,1,08,0.7,4.4,M,-16.8,M,,0000*66
$GNGNS,210225.000,4910.2667,N,12304.1539,W,AA,17,0.7,4.4,-16.8,,0000*5C
$GNGSA,A,3,12,02,06,29,10,25,05,31,,,,,1.4,0.7,1.2*20
$GNGSA,A,3,83,67,68,74,82,84,75,73,66,,,,1.4,0.7,1.2*2A
$GNRMC,210225.000,A,4910.2667,N,12304.1539,W,23.24,178.67,050914,,,A*56
$GPGGA,210226.000,4910.2598,N,12304.1535,W,1,08,0.7,4.4,M,-16.8,M,,0000*6A
$GNGNS,210226.000,4910.2598,N,12304.1535,W,AA,17,0.7,4.4,-16.8,,0000*50
$GNGSA,A,3,02,12,06,29,10,25,05,31,,,,,1.4,0.7,1.2*20
$GNGSA,A,3,83,68,67,74,82,75,84,73,66,,,,1.4,0.7,1.2*2A
$GNRMC,210226.000,A,4910.2598,N,12304.1535,W,24.95,177.17,050914,,,A*5F
$GPGGA,210227.000,4910.2524,N,12304.1529,W,1,08,0.7,4.4,M,-16.8,M,,0000*61
$GNGNS,210227.000,4910.2524,N,12304.1529,W,AA,17,0.7,4.4,-16.8,,0000*5B
$GNGSA,A,3,12,02,06,29,10,25,05,31,,,,,1.4,0.7,1.2*20
$GNGSA,A,3,83,68,67,74,82,75,84,73,66,,,,1.4,0.7,1.2*2A
$GPGSV,3,1,11,12,58,163,49,02,62,068,49,06,23,053,46,29,37,280,46*7D
$GPGSV,3,2,11,10,33,074,45,25,70,267,43,05,31,137,41,31,20,313,40*7D
$GPGSV,3,3,11,09,01,024,,24,01,197,,23,00,018,*47
$GLGSV,3,1,10,83,69,004,50,68,23,116,49,67,30,055,48,74,47,294,46*64
$GLGSV,3,2,10,82,21,068,45,75,11,340,43,84,35,275,42,73,38,219,41*6D
$GLGSV,3,3,10,66,06,008,39,80,00,185,*64
$GNRMC,210227.000,A,4910.2524,N,12304.1529,W,26.27,176.29,050914,,,A*53
$GPGGA,210228.000,4910.2450,N,12304.1523,W,1,08,0.7,4.4,M,-16.8,M,,0000*66
$GNGNS,210228.000,4910.2450,N,12304.1523,W,AA,17,0.7,4.4,-16.8,,0000*5C
$GNGSA,A,3,02,12,06,10,25,05,31,29,,,,,1.4,0.7,1.2*20
$GNGSA,A,3,83,68,67,82,75,74,66,73,84,,,,1.4,0.7,1.2*2A
$GNRMC,210228.000,A,4910.2450,N,12304.1523,W,26.35,176.72,050914,,,A*59
$GPGGA,210229.000,4910.2376,N,12304.1518,W,1,08,0.7,4.5,M,-16.8,M,,0000*6D
$GNGNS,210229.000,4910.2376,N,12304.1518,W,AA,17,0.7,4.5,-16.8,,0000*57
$GNGSA,A,3,02,12,06,10,25,05,29,31,,,,,1.4,0.7,1.2*20
$GNGSA,A,3,68,83,67,82,74,66,73,84,75,,,,1.4,0.7,1.2*2A
$GNRMC,210229.000,A,4910.2376,N,12304.1518,W,26.42,177.73,050914,,,A*53
$GPGGA,210230.000,4910.2301,N,12304.1515,W,1,08,0.7,4.6,M,-16.8,M,,0000*6B
$GNGNS,210230.000,4910.2301,N,12304.1515,W,AA,17,0.7,4.6,-16.8,,0000*51
$GNGSA,A,3,02,12,06,10,25,29,05,31,,,,,1.4,0.7,1.2*20
$GNGSA,A,3,68,83,67,82,73,74,66,84,75,,,,1.4,0.7,1.2*2A
$GNRMC,210230.000,A,4910.2301,N,12304.1515,W,26.83,178.93,050914,,,A*5A
$GPGGA,210231.000,4910.2224,N,12304.1514,W,1,08,0.7,4.6,M,-16.8,M,,0000*6D
$GNGNS,210231.000,4910.2224,N,12304.1514,W,AA,16,0.7,4.6,-16.8,,0000*56
$GNGSA,A,3,02,12,06,10,29,25,05,31,,,,,1.4,0.7,1.2*20
$GNGSA,A,3,68,83,67,82,74,73,66,84,,,,,1.4,0.7,1.2*28
$GNRMC,210231.000,A,4910.2224,N,12304.1514,W,27.54,179.52,050914,,,A*5B
$GPGGA,210232.000,4910.2144,N,12304.1514,W,1,07,0.8,4.7,M,-16.8,M,,0000*6A
$GNGNS,210232.000,4910.2144,N,12304.1514,W,AA,15,0.8,4.7,-16.8,,0000*5D
$GNGSA,A,3,02,12,06,10,29,25,05,,,,,,1.5,0.8,1.3*2D
$GNGSA,A,3,68,83,74,67,82,73,84,75,,,,,1.5,0.8,1.3*25
$GPGSV,3,1,11,02,62,068,50,12,58,163,49,06,23,053,45,10,33,074,45*72
$GPGSV,3,2,11,29,37,280,44,25,70,267,43,05,31,137,40,31,20,313,37*7A
$GPGSV,3,3,11,09,01,024,,24,01,197,,23,00,018,*47
$GLGSV,3,1,10,68,23,116,49,83,69,004,49,74,47,294,49,67,30,055,48*63
$GLGSV,3,2,10,82,21,068,45,73,38,219,44,84,35,275,38,75,11,340,34*65
$GLGSV,3,3,10,66,06,008,39,80,00,185,*64
$GNRMC,210232.000,A,4910.2144,N,12304.1514,W,28.44,179.77,050914,,,A*54
$GPGGA,210233.000,4910.2062,N,12304.1514,W,1,07,0.8,4.8,M,-16.8,M,,0000*61
$GNGNS,210233.000,4910.2062,N,12304.1514,W,AA,15,0.8,4.8,-16.8,,0000*56
$GNGSA,A,3,02,12,06,29,10,25,05,,,,,,1.5,0.8,1.3*2D
$GNGSA,A,3,68,83,74,67,82,75,73,84,,,,,1.5,0.8,1.3*25
$GNRMC,210233.000,A,4910.2062,N,12304.1514,W,29.35,180.21,050914,,,A*52
$GPGGA,210234.000,4910.1977,N,12304.1515,W,1,08,0.7,4.8,M,-16.8,M,,0000*69
$GNGNS,210234.000,4910.1977,N,12304.1515,W,AA,17,0.7,4.8,-16.8,,0000*53
$GNGSA,A,3,02,12,29,06,10,25,31,05,,,,,1.4,0.7,1.2*20
$GNGSA,A,3,68,83,74,67,82,75,73,66,84,,,,1.4,0.7,1.2*2A
$GNRMC,210234.000,A,4910.1977,N,12304.1515,W,30.66,180.07,050914,,,A*50
$GPGGA,210235.000,4910.1887,N,12304.1516,W,1,08,0.7,4.7,M,-16.8,M,,0000*6A
$GNGNS,210235.000,4910.1887,N,12304.1516,W,AA,17,0.7,4.7,-16.8,,0000*50
$GNGSA,A,3,02,12,29,06,10,25,31,05,,,,,1.4,0.7,1.2*20
$GNGSA,A,3,68,83,67,74,82,73,75,66,84,,,,1.4,0.7,1.2*2A
$GNRMC,210235.000,A,4910.1887,N,12304.1516,W,31.93,180.43,050914,,,A*57
$GPGGA,210236.000,4910.1794,N,12304.1517,W,1,08,0.7,4.7,M,-16.8,M,,0000*65
$GNGNS,210236.000,4910.1794,N,12304.1517,W,AA,17,0.7,4.7,-16.8,,0000*5F
$GNGSA,A,3,02,12,29,06,10,25,31,05,,,,,1.4,0.7,1.2*20
$GNGSA,A,3,68,83,67,74,82,73,66,84,75,,,,1.4,0.7,1.2*2A
$GNRMC,210236.000,A,4910.1794,N,12304.1517,W,33.21,180.03,050914,,,A*57
$GPGGA,210237.000,4910.1698,N,12304.1518,W,1,07,0.8,4.7,M,-16.8,M,,0000*66
$GNGNS,210237.000,4910.1698,N,12304.1518,W,AA,16,0.8,4.7,-16.8,,0000*52
$GNGSA,A,3,02,12,29,06,10,25,31,,,,,,1.5,0.8,1.2*2B
$GNGSA,A,3,68,83,67,74,82,73,66,84,75,,,,1.5,0.8,1.2*24
$GPGSV,3,1,11,02,62,068,50,12,58,163,49,29,37,280,46,06,23,053,45*76
$GPGSV,3,2,11,10,33,074,44,25,70,267,43,31,20,313,38,05,31,137,37*72
$GPGSV,3,3,11,24,01,197,17,09,01,024,,23,00,018,*41
$GLGSV,3,1,10,68,23,116,50,83,69,004,49,67,30,055,48,74,47,294,48*6A
$GLGSV,3,2,10,82,21,068,45,73,38,219,44,66,06,008,40,84,35,275,39*6C
$GLGSV,3,3,10,75,11,340,34,80,00,185,*62
$GNRMC,210237.000,A,4910.1698,N,12304.1518,W,34.40,179.73,050914,,,A*55
$GPGGA,210238.000,4910.1599,N,12304.1517,W,1,06,0.8,4.9,M,-16.8,M,,0000*6B
$GNGNS,210238.000,4910.1599,N,12304.1517,W,AA,15,0.8,4.9,-16.8,,0000*5D
$GNGSA,A,3,02,12,29,06,10,25,,,,,,,1.5,0.8,1.3*28
$GNGSA,A,3,68,83,74,67,82,75,73,66,84,,,,1.5,0.8,1.3*25
$GNRMC,210238.000,A,4910.1599,N,12304.1517,W,35.50,179.80,050914,,,A*5B
$GPGGA,210239.000,4910.1498,N,12304.1517,W,1,07,0.8,4.9,M,-16.8,M,,0000*6B
$GNGNS,210239.000,4910.1498,N,12304.1517,W,AA,16,0.8,4.9,-16.8,,0000*5F
$GNGSA,A,3,02,12,29,06,10,25,31,,,,,,1.5,0.8,1.2*2B
$GNGSA,A,3,68,83,67,74,82,73,75,66,84,,,,1.5,0.8,1.2*24
$GNRMC,210239.000,A,4910.1498,N,12304.1517,W,36.11,179.94,050914,,,A*59
$GPGGA,210240.000,4910.1397,N,12304.1518,W,1,07,0.8,5.0,M,-16.8,M,,0000*6A
$GNGNS,210240.000,4910.1397,N,12304.1518,W,AA,16,0.8,5.0,-16.8,,0000*5E
$GNGSA,A,3,02,12,29,06,10,25,31,,,,,,1.5,0.8,1.2*2B
$GNGSA,A,3,68,83,67,74,82,73,66,84,75,,,,1.5,0.8,1.2*24
$GNRMC,210240.000,A,4910.1397,N,12304.1518,W,36.20,179.71,050914,,,A*59
$GPGGA,210241.000,4910.1298,N,12304.1518,W,1,06,0.8,5.1,M,-16.8,M,,0000*65
$GNGNS,210241.000,4910.1298,N,12304.1518,W,AA,15,0.8,5.1,-16.8,,0000*53
$GNGSA,A,3,02,12,29,06,10,25,,,,,,,1.5,0.8,1.3*28
$GNGSA,A,3,68,83,74,67,82,73,75,66,84,,,,1.5,0.8,1.3*25
$GNRMC,210241.000,A,4910.1298,N,12304.1518,W,35.67,180.09,050914,,,A*5F
$GPGGA,210242.000,4910.1200,N,12304.1519,W,1,06,0.8,5.2,M,-16.8,M,,0000*65
$GNGNS,210242.000,4910.1200,N,12304.1519,W,AA,15,0.8,5.2,-16.8,,0000*53
$GNGSA,A,3,02,12,29,06,10,25,,,,,,,1.5,0.8,1.3*28
$GNGSA,A,3,68,83,74,67,82,73,75,66,84,,,,1.5,0.8,1.3*25
$GPGSV,3,1,11,02,62,067,50,12,58,163,50,29,38,280,46,06,23,053,45*7E
$GPGSV,3,2,11,10,33,073,45,25,70,267,44,05,31,137,37,24,00,197,14*75
$GPGSV,3,3,11,31,21,313,39,09,01,023,,23,00,018,*42
$GLGSV,3,1,10,68,23,115,50,83,69,004,49,74,47,294,48,67,30,055,48*69
$GLGSV,3,2,10,82,21,068,46,73,38,218,43,75,11,340,42,66,06,008,40*6A
$GLGSV,3,3,10,84,35,275,40,80,00,185,*6E
$GNRMC,210242.000,A,4910.1200,N,12304.1519,W,34.86,180.70,050914,,,A*5C
$GPGGA,210243.000,4910.1106,N,12304.1522,W,1,07,0.8,5.1,M,-16.8,M,,0000*6B
$GNGNS,210243.000,4910.1106,N,12304.1522,W,AA,16,0.8,5.1,-16.8,,0000*5F
$GNGSA,A,3,02,12,29,06,10,25,31,,,,,,1.5,0.8,1.2*2B
$GNGSA,A,3,68,83,74,67,82,73,75,66,84,,,,1.5,0.8,1.2*24
$GNRMC,210243.000,A,4910.1106,N,12304.1522,W,34.11,180.82,050914,,,A*53
$GPGGA,210244.000,4910.1012,N,12304.1524,W,1,07,0.8,5.0,M,-16.8,M,,0000*6F
$GNGNS,210244.000,4910.1012,N,12304.1524,W,AA,16,0.8,5.0,-16.8,,0000*5B
$GNGSA,A,3,02,12,29,06,10,25,31,,,,,,1.5,0.8,1.2*2B
$GNGSA,A,3,68,83,74,67,82,73,75,66,84,,,,1.5,0.8,1.2*24
$GNRMC,210244.000,A,4910.1012,N,12304.1524,W,33.65,179.97,050914,,,A*50
$GPGGA,210245.000,4910.0919,N,12304.1524,W,1,07,0.8,4.9,M,-16.8,M,,0000*65
$GNGNS,210245.000,4910.0919,N,12304.1524,W,AA,16,0.8,4.9,-16.8,,0000*51
$GNGSA,A,3,02,12,29,06,10,25,31,,,,,,1.5,0.8,1.2*2B
$GNGSA,A,3,68,83,74,67,82,73,75,66,84,,,,1.5,0.8,1.2*24
$GNRMC,210245.000,A,4910.0919,N,12304.1524,W,33.32,179.32,050914,,,A*5F
$GPGGA,210246.000,4910.0828,N,12304.1523,W,1,07,0.8,4.9,M,-16.8,M,,0000*62
$GNGNS,210246.000,4910.0828,N,12304.1523,W,AA,16,0.8,4.9,-16.8,,0000*56
$GNGSA,A,3,02,12,29,06,10,25,31,,,,,,1.5,0.8,1.2*2B
$GNGSA,A,3,68,83,67,74,82,75,73,66,84,,,,1.5,0.8,1.2*24
$GNRMC,210246.000,A,4910.0828,N,12304.1523,W,33.01,179.39,050914,,,A*53
$GPGGA,210247.000,4910.0736,N,12304.1522,W,1,08,0.7,4.8,M,-16.8,M,,0000*63
$GNGNS,210247.000,4910.0736,N,12304.1522,W,AA,17,0.7,4.8,-16.8,,0000*59
$GNGSA,A,3,02,12,29,06,10,25,31,05,,,,,1.4,0.7,1.2*20
$GNGSA,A,3,68,83,67,74,82,75,66,84,73,,,,1.4,0.7,1.2*2A
$GPGSV,3,1,11,02,62,067,50,12,58,163,50,29,38,280,46,06,23,053,46*7D
$GPGSV,3,2,11,10,33,073,45,25,70,266,43,31,21,313,40,05,31,137,37*7B
$GPGSV,3,3,11,24,00,197,14,09,01,023,,23,00,017,*4B
$GLGSV,3,1,10,68,23,115,50,83,69,004,49,67,30,055,48,74,47,294,48*69
$GLGSV,3,2,10,82,20,068,46,75,11,340,43,66,06,008,40,84,35,275,40*67
$GLGSV,3,3,10,73,37,218,40,80,00,185,*6F
$GNRMC,210247.000,A,4910.0736,N,12304.1522,W,32.86,179.75,050914,,,A*55
$GPGGA,210248.000,4910.0645,N,12304.1523,W,1,08,0.7,4.6,M,-16.8,M,,0000*66
$GNGNS,210248.000,4910.0645,N,12304.1523,W,AA,17,0.7,4.6,-16.8,,0000*5C
$GNGSA,A,3,02,12,29,06,10,25,05,31,,,,,1.4,0.7,1.2*20
$GNGSA,A,3,68,83,67,74,82,73,66,84,75,,,,1.4,0.7,1.2*2A
$GNRMC,210248.000,A,4910.0645,N,12304.1523,W,32.73,180.62,050914,,,A*54
$GPGGA,210249.000,4910.0553,N,12304.1524,W,1,08,0.7,4.5,M,-16.8,M,,0000*67
$GNGNS,210249.000,4910.0553,N,12304.1524,W,AA,17,0.7,4.5,-16.8,,0000*5D
$GNGSA,A,3,02,12,29,06,10,25,31,05,,,,,1.4,0.7,1.2*20
$GNGSA,A,3,68,83,67,74,82,73,66,84,75,,,,1.4,0.7,1.2*2A
$GNRMC,210249.000,A,4910.0553,N,12304.1524,W,32.87,180.17,050914,,,A*5F
$GPGGA,210250.000,4910.0461,N,12304.1525,W,1,07,0.8,4.5,M,-16.8,M,,0000*6E
$GNGNS,210250.000,4910.0461,N,12304.1525,W,AA,16,0.8,4.5,-16.8,,0000*5A
$GNGSA,A,3,02,12,29,06,10,25,31,,,,,,1.5,0.8,1.2*2B
$GNGSA,A,3,68,83,67,74,82,73,66,84,75,,,,1.5,0.8,1.2*24
$GNRMC,210250.000,A,4910.0461,N,12304.1525,W,32.94,180.14,050914,,,A*57
$GPGGA,210251.000,4910.0369,N,12304.1526,W,1,07,0.8,4.5,M,-16.8,M,,0000*63
$GNGNS,210251.000,4910.0369,N,12304.1526,W,AA,16,0.8,4.5,-16.8,,0000*57
$GNGSA,A,3,02,12,29,06,10,25,31,,,,,,1.5,0.8,1.2*2B
$GNGSA,A,3,68,83,67,74,82,73,75,66,84,,,,1.5,0.8,1.2*24
$GNRMC,210251.000,A,4910.0369,N,12304.1526,W,33.29,179.85,050914,,,A*53
$GPGGA,210252.000,4910.0275,N,12304.1527,W,1,07,0.8,4.6,M,-16.8,M,,0000*6E
$GNGNS,210252.000,4910.0275,N,12304.1527,W,AA,16,0.8,4.6,-16.8,,0000*5A
$GNGSA,A,3,02,12,29,06,10,25,31,,,,,,1.5,0.8,1.2*2B
$GNGSA,A,3,68,83,67,74,82,73,75,84,66,,,,1.5,0.8,1.2*24
$GPGSV,3,1,11,02,62,067,50,12,58,163,50,29,38,280,47,06,23,053,46*7C
$GPGSV,3,2,11,10,33,073,45,25,70,266,42,31,21,313,40,05,31,137,38*75
$GPGSV,3,3,11,09,01,023,,24,00,197,,23,00,017,*4E
$GLGSV,3,1,10,68,23,115,50,83,69,004,49,67,30,055,48,74,47,294,48*69
$GLGSV,3,2,10,82,20,068,46,73,37,218,43,75,11,340,42,84,35,275,40*60
$GLGSV,3,3,10,66,06,008,40,80,00,185,*6A
$GNRMC,210252.000,A,4910.0275,N,12304.1527,W,33.76,179.76,050914,,,A*5B
$GPGGA,210253.000,4910.0180,N,12304.1526,W,1,07,0.8,4.6,M,-16.8,M,,0000*67
$GNGNS,210253.000,4910.0180,N,12304.1526,W,AA,16,0.8,4.6,-16.8,,0000*53
$GNGSA,A,3,02,12,29,06,10,25,31,,,,,,1.5,0.8,1.2*2B
$GNGSA,A,3,68,83,67,74,73,75,84,66,82,,,,1.5,0.8,1.2*24
$GNRMC,210253.000,A,4910.0180,N,12304.1526,W,34.25,179.57,050914,,,A*50
$GPGGA,210254.000,4910.0083,N,12304.1526,W,1,07,0.8,4.6,M,-16.8,M,,0000*62
$GNGNS,210254.000,4910.0083,N,12304.1526,W,AA,16,0.8,4.6,-16.8,,0000*56
$GNGSA,A,3,02,12,06,10,29,25,31,,,,,,1.5,0.8,1.2*2B
$GNGSA,A,3,68,83,67,74,82,73,75,66,84,,,,1.5,0.8,1.2*24
$GNRMC,210254.000,A,4910.0083,N,12304.1526,W,34.79,179.94,050914,,,A*53
$GPGGA,210255.000,4909.9984,N,12304.1526,W,1,07,0.8,4.6,M,-16.8,M,,0000*6C
$GNGNS,210255.000,4909.9984,N,12304.1526,W,AA,16,0.8,4.6,-16.8,,0000*58
$GNGSA,A,3,02,12,06,10,29,25,31,,,,,,1.5,0.8,1.2*2B
$GNGSA,A,3,68,83,67,74,82,66,73,84,75,,,,1.5,0.8,1.2*24
$GNRMC,210255.000,A,4909.9984,N,12304.1526,W,35.47,179.38,050914,,,A*57
$GPGGA,210256.000,4909.9884,N,12304.1525,W,1,08,0.7,4.5,M,-16.8,M,,0000*6E
$GNGNS,210256.000,4909.9884,N,12304.1525,W,AA,17,0.7,4.5,-16.8,,0000*54
$GNGSA,A,3,02,12,06,10,25,29,05,31,,,,,1.4,0.7,1.2*20
$GNGSA,A,3,68,83,67,82,74,66,73,75,84,,,,1.4,0.7,1.2*2A
$GNRMC,210256.000,A,4909.9884,N,12304.1525,W,36.01,179.59,050914,,,A*50
$GPGGA,210257.000,4909.9782,N,12304.1524,W,1,07,0.7,4.5,M,-16.8,M,,0000*68
$GNGNS,210257.000,4909.9782,N,12304.1524,W,AA,16,0.7,4.5,-16.8,,0000*5C
$GNGSA,A,3,02,12,06,10,25,29,05,,,,,,1.4,0.7,1.2*22
$GNGSA,A,3,68,83,67,82,74,66,73,84,75,,,,1.4,0.7,1.2*2A
$GPGSV,3,1,11,02,62,067,50,12,58,163,50,06,23,053,45,10,33,073,45*72
$GPGSV,3,2,11,25,70,266,43,29,38,280,42,05,31,137,38,31,21,313,*78
$GPGSV,3,3,11,09,01,023,,24,00,197,,23,00,017,*4E
$GLGSV,3,1,10,68,23,115,49,83,69,004,49,67,30,055,48,82,20,068,44*64
$GLGSV,3,2,10,74,47,294,44,66,06,008,40,73,37,218,39,84,35,275,34*6C
$GLGSV,3,3,10,75,11,340,32,80,00,185,17*62
$GNRMC,210257.000,A,4909.9782,N,12304.1524,W,36.34,179.59,050914,,,A*5F
$GPGGA,210258.000,4909.9680,N,12304.1522,W,1,08,0.7,4.3,M,-16.8,M,,0000*6B
$GNGNS,210258.000,4909.9680,N,12304.1522,W,AA,17,0.7,4.3,-16.8,,0000*51
$GNGSA,A,3,02,12,06,10,25,29,05,31,,,,,1.4,0.7,1.2*20
$GNGSA,A,3,68,83,67,82,74,66,73,84,75,,,,1.4,0.7,1.2*2A
$GNRMC,210258.000,A,4909.9680,N,12304.1522,W,36.53,179.27,050914,,,A*5D
$GPGGA,210259.000,4909.9579,N,12304.1520,W,1,07,0.8,4.2,M,-16.8,M,,0000*6C
$GNGNS,210259.000,4909.9579,N,12304.1520,W,AA,16,0.8,4.2,-16.8,,0000*58
$GNGSA,A,3,02,12,06,10,25,29,31,,,,,,1.5,0.8,1.2*2B
$GNGSA,A,3,68,83,67,74,82,84,73,66,75,,,,1.5,0.8,1.2*24
$GNRMC,210259.000,A,4909.9579,N,12304.1520,W,36.53,179.08,050914,,,A*56
$GPGGA,210300.000,4909.9477,N,12304.1518,W,1,07,0.8,4.2,M,-16.8,M,,0000*65
$GNGNS,210300.000,4909.9477,N,12304.1518,W,AA,16,0.8,4.2,-16.8,,0000*51
$GNGSA,A,3,02,12,29,06,10,25,31,,,,,,1.5,0.8,1.2*2B
$GNGSA,A,3,68,83,67,74,82,84,73,66,75,,,,1.5,0.8,1.2*24
$GNRMC,210300.000,A,4909.9477,N,12304.1518,W,36.51,179.65,050914,,,A*56
$GPGGA,210301.000,4909.9376,N,12304.1519,W,1,07,0.8,4.1,M,-16.8,M,,0000*60
$GNGNS,210301.000,4909.9376,N,12304.1519,W,AA,15,0.8,4.1,-16.8,,0000*57
$GNGSA,A,3,02,12,29,06,10,25,31,,,,,,1.5,0.8,1.3*2A
$GNGSA,A,3,68,83,67,74,82,84,73,66,,,,,1.5,0.8,1.3*27
$GNRMC,210301.000,A,4909.9376,N,12304.1519,W,36.73,179.94,050914,,,A*5E
$GPGGA,210302.000,4909.9272,N,12304.1520,W,1,07,0.8,4.0,M,-16.8,M,,0000*6D
$GNGNS,210302.000,4909.9272,N,12304.1520,W,AA,15,0.8,4.0,-16.8,,0000*5A
$GNGSA,A,3,02,12,29,06,10,25,31,,,,,,1.5,0.8,1.3*2A
$GNGSA,A,3,68,83,67,74,82,73,84,66,,,,,1.5,0.8,1.3*27
$GPGSV,3,1,11,02,62,067,50,12,58,163,50,29,38,280,47,06,23,053,46*7C
$GPGSV,3,2,11,10,33,073,45,25,70,266,44,31,21,313,42,05,31,137,38*71
$GPGSV,3,3,11,09,01,023,,24,00,197,,23,00,017,*4E
$GLGSV,3,1,10,68,23,115,50,83,69,004,49,67,30,055,48,74,47,294,46*67
$GLGSV,3,2,10,82,20,068,45,73,37,218,41,84,35,275,41,66,06,008,40*69
$GLGSV,3,3,10,75,11,340,39,80,00,185,*6F
$GNRMC,210302.000,A,4909.9272,N,12304.1520,W,37.24,180.03,050914,,,A*59
$GPGGA,210303.000,4909.9167,N,12304.1521,W,1,07,0.8,4.0,M,-16.8,M,,0000*6A
$GNGNS,210303.000,4909.9167,N,12304.1521,W,AA,16,0.8,4.0,-16.8,,0000*5E
$GNGSA,A,3,02,12,29,06,10,25,31,,,,,,1.5,0.8,1.2*2B
$GNGSA,A,3,68,83,67,74,82,84,73,75,66,,,,1.5,0.8,1.2*24
$GNRMC,210303.000,A,4909.9167,N,12304.1521,W,37.83,180.00,050914,,,A*50
$GPGGA,210304.000,4909.9060,N,12304.1520,W,1,07,0.8,4.0,M,-16.8,M,,0000*6A
$GNGNS,210304.000,4909.9060,N,12304.1520,W,AA,16,0.8,4.0,-16.8,,0000*5E
$GNGSA,A,3,02,12,06,10,25,29,31,,,,,,1.5,0.8,1.2*2B
$GNGSA,A,3,68,83,67,82,74,75,84,66,73,,,,1.5,0.8,1.2*24
$GNRMC,210304.000,A,4909.9060,N,12304.1520,W,38.43,179.62,050914,,,A*51
$GPGGA,210305.000,4909.8952,N,12304.1520,W,1,07,0.8,3.9,M,-16.8,M,,0000*6C
$GNGNS,210305.000,4909.8952,N,12304.1520,W,AA,16,0.8,3.9,-16.8,,0000*58
$GNGSA,A,3,02,12,06,10,25,29,31,,,,,,1.5,0.8,1.2*2B
$GNGSA,A,3,68,83,67,82,74,66,73,84,75,,,,1.5,0.8,1.2*24
$GNRMC,210305.000,A,4909.8952,N,12304.1520,W,38.99,180.11,050914,,,A*5C
$GPGGA,210306.000,4909.8841,N,12304.1520,W,1,07,0.8,3.8,M,-16.8,M,,0000*6D
$GNGNS,210306.000,4909.8841,N,12304.1520,W,AA,16,0.8,3.8,-16.8,,0000*59
$GNGSA,A,3,02,12,06,10,25,29,31,,,,,,1.5,0.8,1.2*2B
$GNGSA,A,3,68,83,67,82,73,74,84,66,75,,,,1.5,0.8,1.2*24
$GNRMC,210306.000,A,4909.8841,N,12304.1520,W,39.56,180.02,050914,,,A*5C
$GPGGA,210307.000,4909.8730,N,12304.1520,W,1,07,0.8,3.8,M,-16.8,M,,0000*65
$GNGNS,210307.000,4909.8730,N,12304.1520,W,AA,16,0.8,3.8,-16.8,,0000*51
$GNGSA,A,3,02,12,06,10,29,25,31,,,,,,1.5,0.8,1.2*2B
$GNGSA,A,3,68,83,67,82,74,73,84,66,75,,,,1.5,0.8,1.2*24
$GPGSV,3,1,11,02,62,067,50,12,58,163,50,06,23,053,46,10,33,073,45*71
$GPGSV,3,2,11,29,38,280,43,25,70,266,43,31,21,313,38,05,31,137,38*72
$GPGSV,3,3,11,09,01,023,,24,00,197,,23,00,017,*4E
$GLGSV,3,1,10,68,23,115,50,83,69,004,48,67,30,055,48,82,20,068,45*6C
$GLGSV,3,2,10,74,47,294,44,73,37,218,43,84,35,275,42,66,06,008,40*60
$GLGSV,3,3,10,75,11,340,30,80,00,185,*66
$GNRMC,210307.000,A,4909.8730,N,12304.1520,W,39.87,179.77,050914,,,A*5C
$GPGGA,210308.000,4909.8619,N,12304.1519,W,1,07,0.8,3.8,M,-16.8,M,,0000*6A
$GNGNS,210308.000,4909.8619,N,12304.1519,W,AA,16,0.8,3.8,-16.8,,0000*5E
$GNGSA,A,3,02,12,06,10,29,25,31,,,,,,1.5,0.8,1.2*2B
$GNGSA,A,3,68,83,67,82,74,75,73,84,66,,,,1.5,0.8,1.2*24
$GNRMC,210308.000,A,4909.8619,N,12304.1519,W,40.07,179.61,050914,,,A*52
$GPGGA,210309.000,4909.8507,N,12304.1518,W,1,07,0.8,3.8,M,-16.8,M,,0000*66
$GNGNS,210309.000,4909.8507,N,12304.1518,W,AA,16,0.8,3.8,-16.8,,0000*52
$GNGSA,A,3,02,12,06,10,29,25,31,,,,,,1.5,0.8,1.2*2B
$GNGSA,A,3,68,83,67,74,82,75,73,84,66,,,,1.5,0.8,1.2*24
$GNRMC,210309.000,A,4909.8507,N,12304.1518,W,40.18,179.76,050914,,,A*56
$GPGGA,210310.000,4909.8395,N,12304.1518,W,1,07,0.8,3.8,M,-16.8,M,,0000*63
$GNGNS,210310.000,4909.8395,N,12304.1518,W,AA,16,0.8,3.8,-16.8,,0000*57
$GNGSA,A,3,02,12,06,29,10,25,31,,,,,,1.5,0.8,1.2*2B
$GNGSA,A,3,68,83,67,74,82,75,73,84,66,,,,1.5,0.8,1.2*24
$GNRMC,210310.000,A,4909.8395,N,12304.1518,W,40.11,179.90,050914,,,A*52
$GPGGA,210311.000,4909.8285,N,12304.1518,W,1,07,0.8,3.7,M,-16.8,M,,0000*6D
$GNGNS,210311.000,4909.8285,N,12304.1518,W,AA,16,0.8,3.7,-16.8,,0000*59
$GNGSA,A,3,02,12,06,29,10,25,31,,,,,,1.5,0.8,1.2*2B
$GNGSA,A,3,68,83,67,74,82,75,73,84,66,,,,1.5,0.8,1.2*24
$GNRMC,210311.000,A,4909.8285,N,12304.1518,W,39.80,179.66,050914,,,A*5C
$GPGGA,210312.000,4909.8175,N,12304.1517,W,1,07,0.8,3.7,M,-16.8,M,,0000*6D
$GNGNS,210312.000,4909.8175,N,12304.1517,W,AA,16,0.8,3.7,-16.8,,0000*59
$GNGSA,A,3,02,12,29,06,10,25,31,,,,,,1.5,0.8,1.2*2B
$GNGSA,A,3,68,83,67,74,82,75,73,84,66,,,,1.5,0.8,1.2*24
$GPGSV,3,1,11,02,61,067,50,12,57,163,50,29,38,280,45,06,23,053,46*72
$GPGSV,3,2,11,10,33,073,45,25,70,266,43,31,21,312,40,05,31,136,38*74
$GPGSV,3,3,11,24,00,197,10,09,01,023,,23,00,017,*4F
$GLGSV,3,1,10,68,24,115,50,83,69,005,49,67,30,055,47,74,47,293,46*69
$GLGSV,3,2,10,82,20,068,45,75,11,340,44,73,37,218,43,84,35,275,41*64
$GLGSV,3,3,10,66,06,008,40,80,00,185,*6A
$GNRMC,210312.000,A,4909.8175,N,12304.1517,W,39.38,179.77,050914,,,A*5F
$GPGGA,210313.000,4909.8066,N,12304.1517,W,1,08,0.7,3.6,M,-16.8,M,,0000*6E
$GNGNS,210313.000,4909.8066,N,12304.1517,W,AA,17,0.7,3.6,-16.8,,0000*54
$GNGSA,A,3,02,12,06,29,10,25,31,05,,,,,1.4,0.7,1.2*20
$GNGSA,A,3,68,83,67,74,82,75,73,84,66,,,,1.4,0.7,1.2*2A
$GNRMC,210313.000,A,4909.8066,N,12304.1517,W,39.14,179.86,050914,,,A*5D
$GPGGA,210314.000,4909.7958,N,12304.1517,W,1,07,0.8,3.6,M,-16.8,M,,0000*62
$GNGNS,210314.000,4909.7958,N,12304.1517,W,AA,16,0.8,3.6,-16.8,,0000*56
$GNGSA,A,3,02,12,29,06,10,25,31,,,,,,1.5,0.8,1.2*2B
$GNGSA,A,3,68,83,67,74,82,73,75,84,66,,,,1.5,0.8,1.2*24
$GNRMC,210314.000,A,4909.7958,N,12304.1517,W,39.05,179.99,050914,,,A*5F
$GPGGA,210315.000,4909.7849,N,12304.1517,W,1,07,0.8,3.5,M,-16.8,M,,0000*61
$GNGNS,210315.000,4909.7849,N,12304.1517,W,AA,16,0.8,3.5,-16.8,,0000*55
$GNGSA,A,3,02,12,29,06,10,25,31,,,,,,1.5,0.8,1.2*2B
$GNGSA,A,3,68,83,67,74,82,73,84,66,75,,,,1.5,0.8,1.2*24
$GNRMC,210315.000,A,4909.7849,N,12304.1517,W,39.02,179.75,050914,,,A*5A
$GPGGA,210316.000,4909.7742,N,12304.1515,W,1,06,0.8,3.6,M,-16.8,M,,0000*66
$GNGNS,210316.000,4909.7742,N,12304.1515,W,AA,15,0.8,3.6,-16.8,,0000*50
$GNGSA,A,3,02,12,29,06,10,25,,,,,,,1.5,0.8,1.3*28
$GNGSA,A,3,68,83,67,74,82,73,84,66,75,,,,1.5,0.8,1.3*25
$GNRMC,210316.000,A,4909.7742,N,12304.1515,W,38.72,178.90,050914,,,A*53
$GPGGA,210317.000,4909.7636,N,12304.1507,W,1,07,0.8,3.5,M,-16.8,M,,0000*64
$GNGNS,210317.000,4909.7636,N,12304.1507,W,AA,15,0.8,3.5,-16.8,,0000*53
$GNGSA,A,3,02,12,29,06,10,25,31,,,,,,1.5,0.8,1.3*2A
$GNGSA,A,3,68,83,67,74,82,73,84,66,,,,,1.5,0.8,1.3*27
$GPGSV,3,1,11,02,61,067,50,12,57,163,49,29,38,280,46,06,23,053,46*79
$GPGSV,3,2,11,10,33,073,45,25,70,266,44,31,21,312,40,05,31,136,37*7C
$GPGSV,3,3,11,09,01,023,,24,00,197,,23,00,017,*4E
$GLGSV,3,1,10,68,24,115,49,83,69,005,48,67,30,055,47,74,47,293,47*61
$GLGSV,3,2,10,82,20,068,45,73,37,218,43,84,35,275,41,66,06,008,40*6B
$GLGSV,3,3,10,75,11,340,40,80,00,185,*61
$GNRMC,210317.000,A,4909.7636,N,12304.1507,W,38.05,175.33,050914,,,A*57
$GPGGA,210318.000,4909.7533,N,12304.1486,W,1,07,0.8,3.5,M,-16.8,M,,0000*65
$GNGNS,210318.000,4909.7533,N,12304.1486,W,AA,16,0.8,3.5,-16.8,,0000*51
$GNGSA,A,3,02,12,29,06,10,25,31,,,,,,1.5,0.8,1.2*2B
$GNGSA,A,3,68,83,67,74,75,82,73,84,66,,,,1.5,0.8,1.2*24
$GNRMC,210318.000,A,4909.7533,N,12304.1486,W,37.20,169.77,050914,,,A*53
$GPGGA,210319.000,4909.7435,N,12304.1450,W,1,07,0.8,3.4,M,-16.8,M,,0000*69
$GNGNS,210319.000,4909.7435,N,12304.1450,W,AA,16,0.8,3.4,-16.8,,0000*5D
$GNGSA,A,3,02,12,06,10,29,25,31,,,,,,1.5,0.8,1.2*2B
$GNGSA,A,3,68,83,67,74,82,75,73,84,66,,,,1.5,0.8,1.2*24
$GNRMC,210319.000,A,4909.7435,N,12304.1450,W,36.32,164.35,050914,,,A*57
$GPGGA,210320.000,4909.7340,N,12304.1405,W,1,07,0.8,3.4,M,-16.8,M,,0000*66
$GNGNS,210320.000,4909.7340,N,12304.1405,W,AA,16,0.8,3.4,-16.8,,0000*52
$GNGSA,A,3,02,12,10,06,29,25,31,,,,,,1.5,0.8,1.2*2B
$GNGSA,A,3,68,83,67,74,82,75,84,73,66,,,,1.5,0.8,1.2*24
$GNRMC,210320.000,A,4909.7340,N,12304.1405,W,35.90,161.94,050914,,,A*5D
$GPGGA,210321.000,4909.7245,N,12304.1356,W,1,07,0.8,3.4,M,-16.8,M,,0000*62
$GNGNS,210321.000,4909.7245,N,12304.1356,W,AA,16,0.8,3.4,-16.8,,0000*56
$GNGSA,A,3,02,12,10,06,29,25,31,,,,,,1.5,0.8,1.2*2B
$GNGSA,A,3,83,68,67,74,82,75,84,73,66,,,,1.5,0.8,1.2*24
$GNRMC,210321.000,A,4909.7245,N,12304.1356,W,35.94,161.24,050914,,,A*56
$GPGGA,210322.000,4909.7150,N,12304.1308,W,1,07,0.8,3.3,M,-16.8,M,,0000*6A
$GNGNS,210322.000,4909.7150,N,12304.1308,W,AA,16,0.8,3.3,-16.8,,0000*5E
$GNGSA,A,3,02,12,10,06,25,29,31,,,,,,1.5,0.8,1.2*2B
$GNGSA,A,3,83,68,67,74,82,75,84,73,66,,,,1.5,0.8,1.2*24
$GPGSV,3,1,11,02,61,067,50,12,57,163,50,10,33,073,46,06,23,053,45*7D
$GPGSV,3,2,11,25,70,266,45,29,38,280,45,31,21,312,28,05,31,136,39*72
$GPGSV,3,3,11,09,01,023,,24,00,197,,23,00,017,*4E
$GLGSV,3,1,10,83,69,005,50,68,24,115,49,67,30,055,47,74,47,293,47*68
$GLGSV,3,2,10,82,20,068,45,75,11,340,45,84,35,275,41,73,37,218,39*68
$GLGSV,3,3,10,66,06,008,32,80,00,185,*6F
$GNRMC,210322.000,A,4909.7150,N,12304.1308,W,36.16,162.78,050914,,,A*5A
$GPGGA,210323.000,4909.7053,N,12304.1269,W,1,07,0.8,3.3,M,-16.8,M,,0000*6F
$GNGNS,210323.000,4909.7053,N,12304.1269,W,AA,16,0.8,3.3,-16.8,,0000*5B
$GNGSA,A,3,12,02,10,06,25,29,31,,,,,,1.5,0.8,1.2*2B
$GNGSA,A,3,83,68,74,67,82,75,84,73,66,,,,1.5,0.8,1.2*24
$GNRMC,210323.000,A,4909.7053,N,12304.1269,W,36.04,167.91,050914,,,A*5E
$GPGGA,210324.000,4909.6955,N,12304.1247,W,1,07,0.8,3.4,M,-16.8,M,,0000*6D
$GNGNS,210324.000,4909.6955,N,12304.1247,W,AA,16,0.8,3.4,-16.8,,0000*59
$GNGSA,A,3,02,12,10,06,29,25,31,,,,,,1.5,0.8,1.2*2B
$GNGSA,A,3,68,83,67,74,82,75,84,73,66,,,,1.5,0.8,1.2*24
$GNRMC,210324.000,A,4909.6955,N,12304.1247,W,35.59,174.99,050914,,,A*5A
$GPGGA,210325.000,4909.6856,N,12304.1241,W,1,08,0.7,3.2,M,-16.8,M,,0000*6E
$GNGNS,210325.000,4909.6856,N,12304.1241,W,AA,17,0.7,3.2,-16.8,,0000*54
$GNGSA,A,3,02,12,10,06,29,25,31,05,,,,,1.4,0.7,1.2*20
$GNGSA,A,3,68,83,67,74,82,75,84,73,66,,,,1.4,0.7,1.2*2A
$GNRMC,210325.000,A,4909.6856,N,12304.1241,W,35.34,180.38,050914,,,A*54
$GPGGA,210326.000,4909.6759,N,12304.1244,W,1,08,0.7,3.1,M,-16.8,M,,0000*6B
$GNGNS,210326.000,4909.6759,N,12304.1244,W,AA,17,0.7,3.1,-16.8,,0000*51
$GNGSA,A,3,02,12,06,10,29,25,05,31,,,,,1.4,0.7,1.2*20
$GNGSA,A,3,68,83,67,74,82,73,84,75,66,,,,1.4,0.7,1.2*2A
$GNRMC,210326.000,A,4909.6759,N,12304.1244,W,34.80,181.65,050914,,,A*55
$GPGGA,210327.000,4909.6664,N,12304.1249,W,1,07,0.7,3.1,M,-16.8,M,,0000*67
$GNGNS,210327.000,4909.6664,N,12304.1249,W,AA,16,0.7,3.1,-16.8,,0000*53
$GNGSA,A,3,02,12,06,10,29,25,05,,,,,,1.4,0.7,1.2*22
$GNGSA,A,3,68,83,67,74,82,73,84,75,66,,,,1.4,0.7,1.2*2A
$GPGSV,3,1,11,02,61,067,50,12,57,163,50,06,23,053,46,10,33,073,45*7D
$GPGSV,3,2,11,29,38,280,45,25,70,266,44,05,31,136,39,24,00,197,16*76
$GPGSV,3,3,11,31,21,312,39,09,01,023,,23,00,017,*4C
$GLGSV,3,1,10,68,24,115,50,83,69,005,49,67,30,055,48,74,47,293,48*68
$GLGSV,3,2,10,82,20,068,46,73,37,218,42,84,35,275,41,75,11,340,36*63
$GLGSV,3,3,10,66,06,008,37,80,00,185,*6A
$GNRMC,210327.000,A,4909.6664,N,12304.1249,W,34.05,181.79,050914,,,A*56
$GPGGA,210328.000,4909.6571,N,12304.1253,W,1,08,0.7,2.9,M,-16.8,M,,0000*62
$GNGNS,210328.000,4909.6571,N,12304.1253,W,AA,17,0.7,2.9,-16.8,,0000*58
$GNGSA,A,3,02,12,06,10,29,25,31,05,,,,,1.4,0.7,1.2*20
$GNGSA,A,3,68,83,67,74,82,73,84,66,75,,,,1.4,0.7,1.2*2A
$GNRMC,210328.000,A,4909.6571,N,12304.1253,W,33.52,181.27,050914,,,A*5B
$GPGGA,210329.000,4909.6479,N,12304.1256,W,1,07,0.7,2.8,M,-16.8,M,,0000*61
$GNGNS,210329.000,4909.6479,N,12304.1256,W,AA,16,0.7,2.8,-16.8,,0000*55
$GNGSA,A,3,02,12,06,10,29,25,05,,,,,,1.4,0.7,1.2*22
$GNGSA,A,3,68,83,67,74,82,66,73,84,75,,,,1.4,0.7,1.2*2A
$GNRMC,210329.000,A,4909.6479,N,12304.1256,W,33.05,180.95,050914,,,A*5C
$GPGGA,210330.000,4909.6389,N,12304.1259,W,1,08,0.7,2.7,M,-16.8,M,,0000*6E
$GNGNS,210330.000,4909.6389,N,12304.1259,W,AA,17,0.7,2.7,-16.8,,0000*54
$GNGSA,A,3,02,12,06,10,29,25,05,31,,,,,1.4,0.7,1.2*20
$GNGSA,A,3,68,83,67,74,82,66,73,84,75,,,,1.4,0.7,1.2*2A
$GNRMC,210330.000,A,4909.6389,N,12304.1259,W,32.50,181.04,050914,,,A*5B
$GPGGA,210331.000,4909.6300,N,12304.1262,W,1,08,0.7,2.6,M,-16.8,M,,0000*67
$GNGNS,210331.000,4909.6300,N,12304.1262,W,AA,17,0.7,2.6,-16.8,,0000*5D
$GNGSA,A,3,02,12,06,29,10,25,05,31,,,,,1.4,0.7,1.2*20
$GNGSA,A,3,68,83,67,74,82,66,73,84,75,,,,1.4,0.7,1.2*2A
$GNRMC,210331.000,A,4909.6300,N,12304.1262,W,32.17,181.47,050914,,,A*57
$GPGGA,210332.000,4909.6210,N,12304.1266,W,1,07,0.7,2.5,M,-16.8,M,,0000*6C
$GNGNS,210332.000,4909.6210,N,12304.1266,W,AA,16,0.7,2.5,-16.8,,0000*58
$GNGSA,A,3,02,12,06,10,29,25,05,,,,,,1.4,0.7,1.2*22
$GNGSA,A,3,68,83,67,74,82,66,73,84,75,,,,1.4,0.7,1.2*2A
$GPGSV,3,1,11,02,61,067,50,12,57,163,50,06,23,053,46,10,33,073,45*7D
$GPGSV,3,2,11,29,38,280,45,25,70,266,44,05,31,136,38,31,21,312,39*72
$GPGSV,3,3,11,09,01,023,,24,00,197,,23,00,017,*4E
$GLGSV,3,1,10,68,24,115,50,83,69,005,49,67,30,055,48,74,47,293,48*68
$GLGSV,3,2,10,82,20,068,47,66,06,008,43,73,37,218,42,84,35,275,41*6B
$GLGSV,3,3,10,75,11,340,38,80,00,185,*6E
$GNRMC,210332.000,A,4909.6210,N,12304.1266,W,32.19,181.72,050914,,,A*58
$GPGGA,210333.000,4909.6120,N,12304.1272,W,1,08,0.7,2.4,M,-16.8,M,,0000*66
$GNGNS,210333.000,4909.6120,N,12304.1272,W,AA,17,0.7,2.4,-16.8,,0000*5C
$GNGSA,A,3,02,12,06,10,25,29,05,31,,,,,1.4,0.7,1.2*20
$GNGSA,A,3,68,83,67,74,82,75,66,73,84,,,,1.4,0.7,1.2*2A
$GNRMC,210333.000,A,4909.6120,N,12304.1272,W,32.51,182.40,050914,,,A*52
$GPGGA,210334.000,4909.6029,N,12304.1277,W,1,07,0.7,2.4,M,-16.8,M,,0000*63
$GNGNS,210334.000,4909.6029,N,12304.1277,W,AA,16,0.7,2.4,-16.8,,0000*57
$GNGSA,A,3,02,12,06,10,29,25,05,,,,,,1.4,0.7,1.2*22
$GNGSA,A,3,68,83,74,67,82,66,73,84,75,,,,1.4,0.7,1.2*2A
$GNRMC,210334.000,A,4909.6029,N,12304.1277,W,32.69,181.89,050914,,,A*55
$GPGGA,210335.000,4909.5938,N,12304.1281,W,1,08,0.7,2.3,M,-16.8,M,,0000*69
$GNGNS,210335.000,4909.5938,N,12304.1281,W,AA,17,0.7,2.3,-16.8,,0000*53
$GNGSA,A,3,02,12,06,10,29,25,05,31,,,,,1.4,0.7,1.2*20
$GNGSA,A,3,68,83,74,67,82,66,73,84,75,,,,1.4,0.7,1.2*2A
$GNRMC,210335.000,A,4909.5938,N,12304.1281,W,32.93,181.38,050914,,,A*58
$GPGGA,210336.000,4909.5845,N,12304.1285,W,1,08,0.7,2.2,M,-16.8,M,,0000*64
$GNGNS,210336.000,4909.5845,N,12304.1285,W,AA,17,0.7,2.2,-16.8,,0000*5E
$GNGSA,A,3,02,12,06,10,29,25,05,31,,,,,1.4,0.7,1.2*20
$GNGSA,A,3,68,83,74,67,82,66,73,84,75,,,,1.4,0.7,1.2*2A
$GNRMC,210336.000,A,4909.5845,N,12304.1285,W,33.35,181.08,050914,,,A*5A
$GPGGA,210337.000,4909.5751,N,12304.1288,W,1,08,0.7,2.2,M,-16.8,M,,0000*62
$GNGNS,210337.000,4909.5751,N,12304.1288,W,AA,17,0.7,2.2,-16.8,,0000*58
$GNGSA,A,3,02,12,06,10,29,25,05,31,,,,,1.4,0.7,1.2*20
$GNGSA,A,3,68,83,74,67,82,66,73,84,75,,,,1.4,0.7,1.2*2A
$GPGSV,3,1,11,02,61,067,50,12,57,163,50,06,23,053,46,10,33,073,45*7D
$GPGSV,3,2,11,29,38,280,44,25,70,266,43,05,31,136,39,31,21,312,33*7F
$GPGSV,3,3,11,24,00,197,14,09,01,023,,23,00,017,*4B
$GLGSV,3,1,10,68,24,115,50,83,69,005,49,74,47,293,48,67,30,055,48*68
$GLGSV,3,2,10,82,20,068,47,66,06,008,43,73,37,218,42,84,35,275,39*64
$GLGSV,3,3,10,75,11,340,32,80,00,185,*64
$GNRMC,210337.000,A,4909.5751,N,12304.1288,W,33.57,181.16,050914,,,A*57
$GPGGA,210338.000,4909.5658,N,12304.1291,W,1,07,0.7,2.2,M,-16.8,M,,0000*62
$GNGNS,210338.000,4909.5658,N,12304.1291,W,AA,16,0.7,2.2,-16.8,,0000*56
$GNGSA,A,3,12,02,06,10,29,25,05,,,,,,1.4,0.7,1.2*22
$GNGSA,A,3,68,83,74,67,82,66,73,84,75,,,,1.4,0.7,1.2*2A
$GNRMC,210338.000,A,4909.5658,N,12304.1291,W,33.77,181.28,050914,,,A*57
$GPGGA,210339.000,4909.5564,N,12304.1295,W,1,08,0.7,1.9,M,-16.8,M,,0000*6C
$GNGNS,210339.000,4909.5564,N,12304.1295,W,AA,17,0.7,1.9,-16.8,,0000*56
$GNGSA,A,3,02,12,06,10,29,25,31,05,,,,,1.4,0.7,1.2*20
$GNGSA,A,3,68,83,74,67,82,66,73,84,75,,,,1.4,0.7,1.2*2A
$GNRMC,210339.000,A,4909.5564,N,12304.1295,W,33.84,181.42,050914,,,A*5E
$GPGGA,210340.000,4909.5469,N,12304.1299,W,1,08,0.7,1.8,M,-16.8,M,,0000*63
$GNGNS,210340.000,4909.5469,N,12304.1299,W,AA,17,0.7,1.8,-16.8,,0000*59
$GNGSA,A,3,02,12,06,10,29,25,31,05,,,,,1.4,0.7,1.2*20
$GNGSA,A,3,68,83,74,67,82,66,75,73,84,,,,1.4,0.7,1.2*2A
$GNRMC,210340.000,A,4909.5469,N,12304.1299,W,34.11,180.78,050914,,,A*53
$GPGGA,210341.000,4909.5373,N,12304.1301,W,1,08,0.7,1.7,M,-16.8,M,,0000*61
$GNGNS,210341.000,4909.5373,N,12304.1301,W,AA,17,0.7,1.7,-16.8,,0000*5B
$GNGSA,A,3,02,12,06,10,29,25,31,05,,,,,1.4,0.7,1.2*20
$GNGSA,A,3,68,83,74,67,82,66,73,75,84,,,,1.4,0.7,1.2*2A
$GNRMC,210341.000,A,4909.5373,N,12304.1301,W,34.57,180.74,050914,,,A*50
$GPGGA,210342.000,4909.5275,N,12304.1305,W,1,08,0.7,1.6,M,-16.8,M,,0000*60
$GNGNS,210342.000,4909.5275,N,12304.1305,W,AA,17,0.7,1.6,-16.8,,0000*5A
$GNGSA,A,3,02,12,06,10,29,25,31,05,,,,,1.4,0.7,1.2*20
$GNGSA,A,3,68,83,74,67,82,66,73,75,84,,,,1.4,0.7,1.2*2A
$GPGSV,3,1,11,02,61,067,50,12,57,163,50,06,23,053,46,10,33,073,45*7D
$GPGSV,3,2,11,29,38,280,45,25,70,266,44,31,21,312,41,05,31,136,39*7C
$GPGSV,3,3,11,09,01,023,,24,00,197,,23,00,017,*4E
$GLGSV,3,1,10,68,24,115,50,83,69,005,49,74,47,293,48,67,30,055,48*68
$GLGSV,3,2,10,82,20,068,46,66,06,008,43,73,37,218,42,75,11,340,41*65
$GLGSV,3,3,10,84,35,275,40,80,00,185,*6E
$GNRMC,210342.000,A,4909.5275,N,12304.1305,W,35.17,181.29,050914,,,A*5C
$GPGGA,210343.000,4909.5176,N,12304.1308,W,1,08,0.7,1.6,M,-16.8,M,,0000*6C
$GNGNS,210343.000,4909.5176,N,12304.1308,W,AA,17,0.7,1.6,-16.8,,0000*56
$GNGSA,A,3,02,12,06,10,29,25,05,31,,,,,1.4,0.7,1.2*20
$GNGSA,A,3,68,83,74,67,82,66,75,84,73,,,,1.4,0.7,1.2*2A
$GNRMC,210343.000,A,4909.5176,N,12304.1308,W,35.91,181.40,050914,,,A*51
$GPGGA,210344.000,4909.5073,N,12304.1312,W,1,08,0.7,1.7,M,-16.8,M,,0000*65
$GNGNS,210344.000,4909.5073,N,12304.1312,W,AA,17,0.7,1.7,-16.8,,0000*5F
$GNGSA,A,3,02,12,06,10,25,29,05,31,,,,,1.4,0.7,1.2*20
$GNGSA,A,3,68,83,67,82,74,66,73,84,75,,,,1.4,0.7,1.2*2A
$GNRMC,210344.000,A,4909.5073,N,12304.1312,W,36.72,181.31,050914,,,A*51
$GPGGA,210345.000,4909.4969,N,12304.1316,W,1,08,0.7,1.6,M,-16.8,M,,0000*62
$GNGNS,210345.000,4909.4969,N,12304.1316,W,AA,17,0.7,1.6,-16.8,,0000*58
$GNGSA,A,3,02,12,06,10,29,25,31,05,,,,,1.4,0.7,1.2*20
$GNGSA,A,3,68,83,67,74,82,66,73,84,75,,,,1.4,0.7,1.2*2A
$GNRMC,210345.000,A,4909.4969,N,12304.1316,W,37.53,181.31,050914,,,A*55
$GPGGA,210346.000,4909.4862,N,12304.1321,W,1,08,0.7,1.6,M,-16.8,M,,0000*6F
$GNGNS,210346.000,4909.4862,N,12304.1321,W,AA,17,0.7,1.6,-16.8,,0000*55
$GNGSA,A,3,12,02,06,10,29,25,31,05,,,,,1.4,0.7,1.2*20
$GNGSA,A,3,68,83,67,74,75,66,73,82,84,,,,1.4,0.7,1.2*2A
$GNRMC,210346.000,A,4909.4862,N,12304.1321,W,38.42,181.67,050914,,,A*54
$GPGGA,210347.000,4909.4753,N,12304.1327,W,1,08,0.7,1.4,M,-16.8,M,,0000*67
$GNGNS,210347.000,4909.4753,N,12304.1327,W,AA,17,0.7,1.4,-16.8,,0000*5D
$GNGSA,A,3,12,02,06,10,29,25,31,05,,,,,1.4,0.7,1.2*20
$GNGSA,A,3,68,83,67,74,75,66,82,73,84,,,,1.4,0.7,1.2*2A
$GPGSV,3,1,11,12,57,163,50,02,61,067,50,06,23,053,45,10,33,073,45*7E
$GPGSV,3,2,11,29,38,280,45,25,70,266,43,31,21,312,43,05,31,136,39*79
$GPGSV,3,3,11,09,01,023,,24,00,197,,23,00,017,*4E
$GLGSV,3,1,10,68,24,115,49,83,69,005,48,67,30,055,48,74,47,293,48*61
$GLGSV,3,2,10,75,11,340,45,66,06,008,43,82,20,068,42,73,37,218,42*65
$GLGSV,3,3,10,84,35,275,40,80,00,185,*6E
$GNRMC,210347.000,A,4909.4753,N,12304.1327,W,39.28,181.78,050914,,,A*5D
$GPGGA,210348.000,4909.4641,N,12304.1333,W,1,08,0.7,1.3,M,-16.8,M,,0000*68
$GNGNS,210348.000,4909.4641,N,12304.1333,W,AA,17,0.7,1.3,-16.8,,0000*52
$GNGSA,A,3,12,02,06,29,10,25,31,05,,,,,1.4,0.7,1.2*20
$GNGSA,A,3,68,83,67,74,75,82,66,73,84,,,,1.4,0.7,1.2*2A
$GNRMC,210348.000,A,4909.4641,N,12304.1333,W,40.38,181.74,050914,,,A*56
$GPGGA,210349.000,4909.4526,N,12304.1338,W,1,08,0.7,1.2,M,-16.8,M,,0000*61
$GNGNS,210349.000,4909.4526,N,12304.1338,W,AA,16,0.7,1.2,-16.8,,0000*5A
$GNGSA,A,3,12,02,06,10,29,25,05,31,,,,,1.4,0.7,1.2*20
$GNGSA,A,3,68,83,74,67,82,66,73,84,,,,,1.4,0.7,1.2*28
$GNRMC,210349.000,A,4909.4526,N,12304.1338,W,41.18,181.66,050914,,,A*5E
$GPGGA,210350.000,4909.4409,N,12304.1344,W,1,08,0.7,1.2,M,-16.8,M,,0000*6E
$GNGNS,210350.000,4909.4409,N,12304.1344,W,AA,16,0.7,1.2,-16.8,,0000*55
$GNGSA,A,3,12,02,06,29,10,25,05,31,,,,,1.4,0.7,1.2*20
$GNGSA,A,3,68,83,74,67,82,66,73,84,,,,,1.4,0.7,1.2*28
$GNRMC,210350.000,A,4909.4409,N,12304.1344,W,41.91,181.60,050914,,,A*56
$GPGGA,210351.000,4909.4292,N,12304.1349,W,1,08,0.7,1.0,M,-16.8,M,,0000*64
$GNGNS,210351.000,4909.4292,N,12304.1349,W,AA,16,0.7,1.0,-16.8,,0000*5F
$GNGSA,A,3,12,02,06,29,10,25,05,31,,,,,1.4,0.7,1.2*20
$GNGSA,A,3,68,83,74,67,82,66,73,84,,,,,1.4,0.7,1.2*28
$GNRMC,210351.000,A,4909.4292,N,12304.1349,W,42.28,181.49,050914,,,A*54
$GPGGA,210352.000,4909.4174,N,12304.1354,W,1,08,0.7,0.9,M,-16.8,M,,0000*68
$GNGNS,210352.000,4909.4174,N,12304.1354,W,AA,16,0.7,0.9,-16.8,,0000*53
$GNGSA,A,3,12,02,29,06,10,25,05,31,,,,,1.4,0.7,1.2*20
$GNGSA,A,3,68,83,74,67,82,66,73,84,,,,,1.4,0.7,1.2*28
$GPGSV,3,1,11,12,57,163,50,02,61,067,50,29,38,280,46,06,23,053,46*71
$GPGSV,3,2,11,10,33,073,45,25,70,266,43,05,31,136,39,31,21,312,38*7A
$GPGSV,3,3,11,09,01,023,,24,00,197,,23,00,017,*4E
$GLGSV,3,1,10,68,24,115,49,83,69,005,48,74,47,293,48,67,30,055,48*61
$GLGSV,3,2,10,82,20,068,43,66,06,008,43,73,37,218,43,84,35,275,40*6F
$GLGSV,3,3,10,75,11,340,40,80,00,185,*61
$GNRMC,210352.000,A,4909.4174,N,12304.1354,W,42.22,181.52,050914,,,A*50
$GPGGA,210353.000,4909.4059,N,12304.1359,W,1,08,0.7,0.9,M,-16.8,M,,0000*6A
$GNGNS,210353.000,4909.4059,N,12304.1359,W,AA,17,0.7,0.9,-16.8,,0000*50
$GNGSA,A,3,12,02,29,06,10,25,05,31,,,,,1.4,0.7,1.2*20
$GNGSA,A,3,68,83,74,67,82,66,73,84,75,,,,1.4,0.7,1.2*2A
$GNRMC,210353.000,A,4909.4059,N,12304.1359,W,41.53,181.61,050914,,,A*57
$GPGGA,210354.000,4909.3946,N,12304.1365,W,1,08,0.7,0.9,M,-16.8,M,,0000*62
$GNGNS,210354.000,4909.3946,N,12304.1365,W,AA,16,0.7,0.9,-16.8,,0000*59
$GNGSA,A,3,12,02,29,06,10,25,05,31,,,,,1.4,0.7,1.2*20
$GNGSA,A,3,83,74,67,66,73,68,84,82,,,,,1.4,0.7,1.2*28
$GNRMC,210354.000,A,4909.3946,N,12304.1365,W,40.68,181.74,050914,,,A*52
$GPGGA,210355.000,4909.3835,N,12304.1370,W,1,08,0.7,0.9,M,-16.8,M,,0000*62
$GNGNS,210355.000,4909.3835,N,12304.1370,W,AA,17,0.7,0.9,-16.8,,0000*58
$GNGSA,A,3,12,02,29,25,10,05,31,06,,,,,1.4,0.7,1.2*20
$GNGSA,A,3,83,74,68,66,73,84,67,75,82,,,,1.4,0.7,1.2*2A
$GNRMC,210355.000,A,4909.3835,N,12304.1370,W,39.77,181.34,050914,,,A*56
$GPGGA,210356.000,4909.3729,N,12304.1374,W,1,08,0.7,1.0,M,-16.8,M,,0000*6F
$GNGNS,210356.000,4909.3729,N,12304.1374,W,AA,17,0.7,1.0,-16.8,,0000*55
$GNGSA,A,3,12,02,29,10,25,06,05,31,,,,,1.4,0.7,1.2*20
$GNGSA,A,3,83,74,68,67,66,73,84,75,82,,,,1.4,0.7,1.2*2A
$GNRMC,210356.000,A,4909.3729,N,12304.1374,W,38.39,181.15,050914,,,A*5B
$GPGGA,210357.000,4909.3630,N,12304.1377,W,1,08,0.7,1.1,M,-16.8,M,,0000*65
$GNGNS,210357.000,4909.3630,N,12304.1377,W,AA,17,0.7,1.1,-16.8,,0000*5F
$GNGSA,A,3,12,02,29,10,25,06,05,31,,,,,1.4,0.7,1.2*20
$GNGSA,A,3,83,74,67,82,68,66,73,84,75,,,,1.4,0.7,1.2*2A
$GPGSV,3,1,11,12,57,163,50,02,61,067,50,29,38,280,46,10,33,073,43*70
$GPGSV,3,2,11,25,70,266,43,06,23,053,41,05,31,136,38,31,21,312,38*7B
$GPGSV,3,3,11,09,01,023,,24,00,197,,23,00,017,*4E
$GLGSV,3,1,10,83,69,005,48,74,47,293,48,67,30,055,46,82,20,068,42*6F
$GLGSV,3,2,10,68,24,115,46,66,06,008,43,73,37,218,43,84,35,275,40*61
$GLGSV,3,3,10,75,11,340,39,80,00,185,*6F
$GNRMC,210357.000,A,4909.3630,N,12304.1377,W,35.50,181.50,050914,,,A*53
$GPGGA,210358.000,4909.3543,N,12304.1381,W,1,08,0.7,1.1,M,-16.8,M,,0000*64
$GNGNS,210358.000,4909.3543,N,12304.1381,W,AA,17,0.7,1.1,-16.8,,0000*5E
$GNGSA,A,3,12,02,29,10,25,06,05,31,,,,,1.4,0.7,1.2*20
$GNGSA,A,3,83,74,67,68,82,66,84,73,75,,,,1.4,0.7,1.2*2A
$GNRMC,210358.000,A,4909.3543,N,12304.1381,W,31.03,181.83,050914,,,A*5E
$GPGGA,210359.000,4909.3470,N,12304.1385,W,1,08,0.7,1.1,M,-16.8,M,,0000*60
$GNGNS,210359.000,4909.3470,N,12304.1385,W,AA,17,0.7,1.1,-16.8,,0000*5A
$GNGSA,A,3,12,02,10,06,25,29,05,31,,,,,1.4,0.7,1.2*20
$GNGSA,A,3,83,67,68,82,66,73,74,84,75,,,,1.4,0.7,1.2*2A
$GNRMC,210359.000,A,4909.3470,N,12304.1385,W,26.65,181.95,050914,,,A*5B
$GPGGA,210400.000,4909.3404,N,12304.1388,W,1,08,0.7,1.1,M,-16.8,M,,0000*65
$GNGNS,210400.000,4909.3404,N,12304.1388,W,AA,17,0.7,1.1,-16.8,,0000*5F
$GNGSA,A,3,12,02,10,29,06,25,05,31,,,,,1.4,0.7,1.2*20
$GNGSA,A,3,83,74,68,67,82,66,73,84,75,,,,1.4,0.7,1.2*2A
$GNRMC,210400.000,A,4909.3404,N,12304.1388,W,24.26,181.83,050914,,,A*5C
$GPGGA,210401.000,4909.3340,N,12304.1392,W,1,08,0.7,1.2,M,-16.8,M,,0000*6B
$GNGNS,210401.000,4909.3340,N,12304.1392,W,AA,17,0.7,1.2,-16.8,,0000*51
$GNGSA,A,3,12,02,29,10,31,06,25,05,,,,,1.4,0.7,1.2*20
$GNGSA,A,3,83,74,68,67,82,66,73,84,75,,,,1.4,0.7,1.2*2A
$GNRMC,210401.000,A,4909.3340,N,12304.1392,W,23.19,182.08,050914,,,A*5A
$GPGGA,210402.000,4909.3277,N,12304.1397,W,1,08,0.7,1.2,M,-16.8,M,,0000*68
$GNGNS,210402.000,4909.3277,N,12304.1397,W,AA,17,0.7,1.2,-16.8,,0000*52
$GNGSA,A,3,12,02,29,10,06,31,25,05,,,,,1.4,0.7,1.2*20
$GNGSA,A,3,83,74,68,67,82,66,73,84,75,,,,1.4,0.7,1.2*2A
$GPGSV,3,1,11,12,57,163,50,02,61,067,49,29,38,280,45,10,33,073,44*7C
$GPGSV,3,2,11,06,23,053,43,31,21,312,43,25,70,266,43,05,31,136,39*74
$GPGSV,3,3,11,09,01,023,,24,00,197,,23,00,017,*4E
$GLGSV,3,1,10,83,69,005,48,74,47,293,48,68,24,115,48,67,30,055,46*6E
$GLGSV,3,2,10,82,20,068,44,66,06,008,42,73,37,218,41,84,35,275,38*64
$GLGSV,3,3,10,75,11,340,29,80,00,185,*6E
$GNRMC,210402.000,A,4909.3277,N,12304.1397,W,23.16,181.91,050914,,,A*55
$GPGGA,210403.000,4909.3210,N,12304.1400,W,1,08,0.7,1.2,M,-16.8,M,,0000*61
$GNGNS,210403.000,4909.3210,N,12304.1400,W,AA,17,0.7,1.2,-16.8,,0000*5B
$GNGSA,A,3,12,02,29,10,06,31,25,05,,,,,1.4,0.7,1.2*20
$GNGSA,A,3,83,74,68,67,82,75,73,84,66,,,,1.4,0.7,1.2*2A
$GNRMC,210403.000,A,4909.3210,N,12304.1400,W,24.23,181.39,050914,,,A*5F
$GPGGA,210404.000,4909.3139,N,12304.1403,W,1,08,0.7,1.1,M,-16.8,M,,0000*6E
$GNGNS,210404.000,4909.3139,N,12304.1403,W,AA,17,0.7,1.1,-16.8,,0000*54
$GNGSA,A,3,12,02,29,10,06,25,31,05,,,,,1.4,0.7,1.2*20
$GNGSA,A,3,83,74,68,67,82,75,73,84,66,,,,1.4,0.7,1.2*2A
$GNRMC,210404.000,A,4909.3139,N,12304.1403,W,25.72,180.98,050914,,,A*5C
$GPGGA,210405.000,4909.3063,N,12304.1406,W,1,08,0.7,1.2,M,-16.8,M,,0000*67
$GNGNS,210405.000,4909.3063,N,12304.1406,W,AA,17,0.7,1.2,-16.8,,0000*5D
$GNGSA,A,3,12,02,29,10,06,25,31,05,,,,,1.4,0.7,1.2*20
$GNGSA,A,3,83,74,68,67,82,75,73,84,66,,,,1.4,0.7,1.2*2A
$GNRMC,210405.000,A,4909.3063,N,12304.1406,W,27.51,180.76,050914,,,A*55
$GPGGA,210406.000,4909.2983,N,12304.1408,W,1,08,0.7,1.2,M,-16.8,M,,0000*6C
$GNGNS,210406.000,4909.2983,N,12304.1408,W,AA,17,0.7,1.2,-16.8,,0000*56
$GNGSA,A,3,12,02,29,10,06,25,31,05,,,,,1.4,0.7,1.2*20
$GNGSA,A,3,83,74,68,67,82,75,73,84,66,,,,1.4,0.7,1.2*2A
$GNRMC,210406.000,A,4909.2983,N,12304.1408,W,28.88,180.85,050914,,,A*59
$GPGGA,210407.000,4909.2899,N,12304.1411,W,1,08,0.7,1.2,M,-16.8,M,,0000*6F
$GNGNS,210407.000,4909.2899,N,12304.1411,W,AA,17,0.7,1.2,-16.8,,0000*55
$GNGSA,A,3,12,02,29,10,06,25,31,05,,,,,1.4,0.7,1.2*20
$GNGSA,A,3,83,74,67,82,75,73,84,66,68,,,,1.4,0.7,1.2*2A
$GPGSV,3,1,11,12,57,163,50,02,61,067,50,29,38,280,46,10,33,073,45*76
$GPGSV,3,2,11,06,23,053,44,25,70,266,43,31,21,312,42,05,31,136,38*73
$GPGSV,3,3,11,09,01,023,,24,00,197,,23,00,017,*4E
$GLGSV,3,1,10,83,69,005,49,74,47,293,48,67,30,055,47,82,20,068,45*68
$GLGSV,3,2,10,75,11,340,43,73,37,218,41,84,35,275,40,66,06,008,36*6C
$GLGSV,3,3,10,68,24,115,41,80,00,185,*68
$GNRMC,210407.000,A,4909.2899,N,12304.1411,W,30.22,181.50,050914,,,A*5A
$GPGGA,210408.000,4909.2812,N,12304.1415,W,1,08,0.7,1.1,M,-16.8,M,,0000*64
$GNGNS,210408.000,4909.2812,N,12304.1415,W,AA,17,0.7,1.1,-16.8,,0000*5E
$GNGSA,A,3,12,02,29,10,25,31,06,05,,,,,1.4,0.7,1.2*20
$GNGSA,A,3,83,74,67,68,75,73,84,66,82,,,,1.4,0.7,1.2*2A
$GNRMC,210408.000,A,4909.2812,N,12304.1415,W,31.32,181.23,050914,,,A*56
$GPGGA,210409.000,4909.2722,N,12304.1419,W,1,08,0.7,1.1,M,-16.8,M,,0000*65
$GNGNS,210409.000,4909.2722,N,12304.1419,W,AA,17,0.7,1.1,-16.8,,0000*5F
$GNGSA,A,3,12,02,29,10,25,31,06,05,,,,,1.4,0.7,1.2*20
$GNGSA,A,3,83,74,68,67,75,73,84,82,66,,,,1.4,0.7,1.2*2A
$GNRMC,210409.000,A,4909.2722,N,12304.1419,W,32.37,181.56,050914,,,A*53
$GPGGA,210410.000,4909.2629,N,12304.1423,W,1,08,0.7,1.0,M,-16.8,M,,0000*6F
$GNGNS,210410.000,4909.2629,N,12304.1423,W,AA,17,0.7,1.0,-16.8,,0000*55
$GNGSA,A,3,12,02,29,10,25,31,06,05,,,,,1.4,0.7,1.2*20
$GNGSA,A,3,83,74,68,67,82,75,73,84,66,,,,1.4,0.7,1.2*2A
$GNRMC,210410.000,A,4909.2629,N,12304.1423,W,33.45,181.53,050914,,,A*59
$GPGGA,210411.000,4909.2533,N,12304.1427,W,1,08,0.7,0.9,M,-16.8,M,,0000*6A
$GNGNS,210411.000,4909.2533,N,12304.1427,W,AA,16,0.7,0.9,-16.8,,0000*51
$GNGSA,A,3,12,02,29,10,25,06,31,05,,,,,1.4,0.7,1.2*20
$GNGSA,A,3,83,68,74,67,82,73,84,66,,,,,1.4,0.7,1.2*28
$GNRMC,210411.000,A,4909.2533,N,12304.1427,W,34.61,181.49,050914,,,A*5E
$GPGGA,210412.000,4909.2433,N,12304.1432,W,1,08,0.7,0.7,M,-16.8,M,,0000*62
$GNGNS,210412.000,4909.2433,N,12304.1432,W,AA,17,0.7,0.7,-16.8,,0000*58
$GNGSA,A,3,12,02,29,10,25,06,31,05,,,,,1.4,0.7,1.2*20
$GNGSA,A,3,83,74,68,67,82,73,75,84,66,,,,1.4,0.7,1.2*2A
$GPGSV,3,1,11,12,57,163,50,02,61,067,50,29,38,280,47,10,33,073,45*77
$GPGSV,3,2,11,25,70,265,43,06,22,053,43,31,21,312,42,05,32,136,38*75
$GPGSV,3,3,11,09,01,023,,23,00,017,,24,00,197,*4E
$GLGSV,3,1,09,83,68,006,49,74,47,293,48,68,24,115,48,67,30,054,47*65
$GLGSV,3,2,09,82,20,068,45,73,37,218,42,75,12,339,40,84,36,276,40*65
$GLGSV,3,3,09,66,05,008,37*55
$GNRMC,210412.000,A,4909.2433,N,12304.1432,W,35.98,181.40,050914,,,A*56
$GPGGA,210413.000,4909.2329,N,12304.1436,W,1,08,0.7,0.7,M,-16.8,M,,0000*6B
$GNGNS,210413.000,4909.2329,N,12304.1436,W,AA,17,0.7,0.7,-16.8,,0000*51
$GNGSA,A,3,12,02,10,06,25,05,29,31,,,,,1.4,0.7,1.2*20
$GNGSA,A,3,83,68,67,82,75,74,66,73,84,,,,1.4,0.7,1.2*2A
$GNRMC,210413.000,A,4909.2329,N,12304.1436,W,37.29,181.73,050914,,,A*57
$GPGGA,210414.000,4909.2223,N,12304.1441,W,1,07,0.7,0.8,M,-16.8,M,,0000*67
$GNGNS,210414.000,4909.2223,N,12304.1441,W,AA,16,0.7,0.8,-16.8,,0000*53
$GNGSA,A,3,12,02,10,25,06,05,29,,,,,,1.4,0.7,1.2*22
$GNGSA,A,3,83,67,68,74,66,73,82,84,75,,,,1.4,0.7,1.2*2A
$GNRMC,210414.000,A,4909.2223,N,12304.1441,W,38.26,181.92,050914,,,A*54
$GPGGA,210415.000,4909.2115,N,12304.1446,W,1,08,0.7,0.7,M,-16.8,M,,0000*67
$GNGNS,210415.000,4909.2115,N,12304.1446,W,AA,17,0.7,0.7,-16.8,,0000*5D
$GNGSA,A,3,12,02,10,25,06,29,31,05,,,,,1.4,0.7,1.2*20
$GNGSA,A,3,83,67,74,68,73,66,82,84,75,,,,1.4,0.7,1.2*2A
$GNRMC,210415.000,A,4909.2115,N,12304.1446,W,38.78,181.58,050914,,,A*59
$GPGGA,210416.000,4909.2005,N,12304.1451,W,1,08,0.7,0.6,M,-16.8,M,,0000*63
$GNGNS,210416.000,4909.2005,N,12304.1451,W,AA,17,0.7,0.6,-16.8,,0000*59
$GNGSA,A,3,12,02,29,10,25,31,06,05,,,,,1.4,0.7,1.2*20
$GNGSA,A,3,83,74,67,73,84,66,68,82,75,,,,1.4,0.7,1.2*2A
$GNRMC,210416.000,A,4909.2005,N,12304.1451,W,39.48,181.65,050914,,,A*50
$GPGGA,210417.000,4909.1894,N,12304.1456,W,1,08,0.7,0.5,M,-16.8,M,,0000*65
$GNGNS,210417.000,4909.1894,N,12304.1456,W,AA,17,0.7,0.5,-16.8,,0000*5F
$GNGSA,A,3,12,02,29,25,31,10,06,05,,,,,1.4,0.7,1.2*20
$GNGSA,A,3,68,83,74,75,73,84,67,66,82,,,,1.4,0.7,1.2*2A
$GPGSV,3,1,11,12,57,163,50,02,61,067,50,29,38,280,47,25,70,265,43*75
$GPGSV,3,2,11,31,21,312,42,10,33,073,37,06,22,053,37,05,32,136,34*7D
$GPGSV,3,3,11,24,00,197,08,09,01,023,,23,00,017,*46
$GLGSV,3,1,09,68,24,115,39,83,68,006,48,74,47,293,48,75,12,339,37*6E
$GLGSV,3,2,09,73,37,218,42,84,36,276,41,67,30,054,41,66,05,008,38*6F
$GLGSV,3,3,09,82,20,068,29*51
$GNRMC,210417.000,A,4909.1894,N,12304.1456,W,40.14,181.39,050914,,,A*5B
$GPGGA,210418.000,4909.1781,N,12304.1460,W,1,08,0.7,0.5,M,-16.8,M,,0000*64
$GNGNS,210418.000,4909.1781,N,12304.1460,W,AA,16,0.7,0.5,-16.8,,0000*5F
$GNGSA,A,3,12,02,25,10,05,29,31,06,,,,,1.4,0.7,1.2*20
$GNGSA,A,3,68,83,67,74,73,66,82,84,,,,,1.4,0.7,1.2*28
$GNRMC,210418.000,A,4909.1781,N,12304.1460,W,40.61,181.45,050914,,,A*53
$GPGGA,210419.000,4909.1667,N,12304.1465,W,1,08,0.7,0.5,M,-16.8,M,,0000*69
$GNGNS,210419.000,4909.1667,N,12304.1465,W,AA,17,0.7,0.5,-16.8,,0000*53
$GNGSA,A,3,12,02,06,25,29,10,05,31,,,,,1.4,0.7,1.2*20
$GNGSA,A,3,68,83,67,82,74,73,66,84,75,,,,1.4,0.7,1.2*2A
$GNRMC,210419.000,A,4909.1667,N,12304.1465,W,40.83,181.53,050914,,,A*55
$GPGGA,210420.000,4909.1553,N,12304.1469,W,1,08,0.7,0.6,M,-16.8,M,,0000*68
$GNGNS,210420.000,4909.1553,N,12304.1469,W,AA,17,0.7,0.6,-16.8,,0000*52
$GNGSA,A,3,12,02,06,29,10,25,31,05,,,,,1.4,0.7,1.2*20
$GNGSA,A,3,68,83,67,74,82,73,84,66,75,,,,1.4,0.7,1.2*2A
$GNRMC,210420.000,A,4909.1553,N,12304.1469,W,40.94,181.07,050914,,,A*50
$GPGGA,210421.000,4909.1440,N,12304.1472,W,1,07,0.8,0.8,M,-16.8,M,,0000*6E
$GNGNS,210421.000,4909.1440,N,12304.1472,W,AA,16,0.8,0.8,-16.8,,0000*5A
$GNGSA,A,3,02,12,06,29,10,25,31,,,,,,1.5,0.8,1.2*2B
$GNGSA,A,3,68,83,74,67,82,73,84,66,75,,,,1.5,0.8,1.2*24
$GNRMC,210421.000,A,4909.1440,N,12304.1472,W,40.73,180.84,050914,,,A*5B
$GPGGA,210422.000,4909.1327,N,12304.1476,W,1,08,0.7,0.7,M,-16.8,M,,0000*60
$GNGNS,210422.000,4909.1327,N,12304.1476,W,AA,17,0.7,0.7,-16.8,,0000*5A
$GNGSA,A,3,12,02,29,06,10,25,31,05,,,,,1.4,0.7,1.2*20
$GNGSA,A,3,68,83,74,67,82,75,73,84,66,,,,1.4,0.7,1.2*2A
$GPGSV,3,1,11,12,57,163,50,02,61,067,50,29,38,280,45,06,22,053,46*73
$GPGSV,3,2,11,10,33,073,44,25,70,265,43,31,21,312,42,05,32,136,36*79
$GPGSV,3,3,11,24,00,197,13,09,01,023,,23,00,017,*4C
$GLGSV,3,1,09,68,24,115,49,83,68,006,48,74,47,293,46,67,30,054,46*6A
$GLGSV,3,2,09,82,20,068,45,75,12,339,43,73,37,218,42,84,36,276,39*68
$GLGSV,3,3,09,66,05,008,37*55
$GNRMC,210422.000,A,4909.1327,N,12304.1476,W,40.50,181.13,050914,,,A*54
$GPGGA,210423.000,4909.1215,N,12304.1480,W,1,07,0.8,0.8,M,-16.8,M,,0000*67
$GNGNS,210423.000,4909.1215,N,12304.1480,W,AA,16,0.8,0.8,-16.8,,0000*53
$GNGSA,A,3,12,02,29,06,10,25,31,,,,,,1.5,0.8,1.2*2B
$GNGSA,A,3,68,83,74,67,82,75,73,84,66,,,,1.5,0.8,1.2*24
$GNRMC,210423.000,A,4909.1215,N,12304.1480,W,40.43,181.49,050914,,,A*51
$GPGGA,210424.000,4909.1102,N,12304.1485,W,1,08,0.7,0.7,M,-16.8,M,,0000*6F
$GNGNS,210424.000,4909.1102,N,12304.1485,W,AA,17,0.7,0.7,-16.8,,0000*55
$GNGSA,A,3,12,02,29,06,10,25,31,05,,,,,1.4,0.7,1.2*20
$GNGSA,A,3,68,83,74,67,82,75,73,84,66,,,,1.4,0.7,1.2*2A
$GNRMC,210424.000,A,4909.1102,N,12304.1485,W,40.69,181.23,050914,,,A*52
$GPGGA,210425.000,4909.0989,N,12304.1488,W,1,08,0.7,0.8,M,-16.8,M,,0000*66
$GNGNS,210425.000,4909.0989,N,12304.1488,W,AA,17,0.7,0.8,-16.8,,0000*5C
$GNGSA,A,3,12,02,29,06,10,25,31,05,,,,,1.4,0.7,1.2*20
$GNGSA,A,3,68,83,74,67,75,84,82,66,73,,,,1.4,0.7,1.2*2A
$GNRMC,210425.000,A,4909.0989,N,12304.1488,W,40.92,181.09,050914,,,A*58
$GPGGA,210426.000,4909.0875,N,12304.1492,W,1,08,0.7,0.9,M,-16.8,M,,0000*6D
$GNGNS,210426.000,4909.0875,N,12304.1492,W,AA,17,0.7,0.9,-16.8,,0000*57
$GNGSA,A,3,12,02,10,06,25,29,05,31,,,,,1.4,0.7,1.2*20
$GNGSA,A,3,83,68,67,82,74,66,73,84,75,,,,1.4,0.7,1.2*2A
$GNRMC,210426.000,A,4909.0875,N,12304.1492,W,40.90,181.35,050914,,,A*5F
$GPGGA,210427.000,4909.0762,N,12304.1498,W,1,08,0.7,0.7,M,-16.8,M,,0000*61
$GNGNS,210427.000,4909.0762,N,12304.1498,W,AA,17,0.7,0.7,-16.8,,0000*5B
$GNGSA,A,3,12,02,10,06,25,29,05,31,,,,,1.4,0.7,1.2*20
$GNGSA,A,3,68,83,67,82,74,73,66,84,75,,,,1.4,0.7,1.2*2A
$GPGSV,3,1,11,12,57,163,50,02,61,067,50,10,33,073,44,06,22,053,43*78
$GPGSV,3,2,11,25,70,265,40,29,38,280,40,05,32,136,36,31,21,312,33*77
$GPGSV,3,3,11,09,01,023,,23,00,017,,24,00,197,*4E
$GLGSV,3,1,09,68,24,115,48,83,68,006,48,67,30,054,46,82,20,068,43*60
$GLGSV,3,2,09,74,47,293,41,73,37,218,40,66,05,008,37,84,36,276,34*6B
$GLGSV,3,3,09,75,12,339,28*5E
$GNRMC,210427.000,A,4909.0762,N,12304.1498,W,40.62,182.55,050914,,,A*55
$GPGGA,210428.000,4909.0649,N,12304.1504,W,1,08,0.7,0.6,M,-16.8,M,,0000*63
$GNGNS,210428.000,4909.0649,N,12304.1504,W,AA,17,0.7,0.6,-16.8,,0000*59
$GNGSA,A,3,12,02,10,06,25,29,05,31,,,,,1.4,0.7,1.2*20
$GNGSA,A,3,68,83,67,82,74,66,84,73,75,,,,1.4,0.7,1.2*2A
$GNRMC,210428.000,A,4909.0649,N,12304.1504,W,40.45,182.03,050914,,,A*50
$GPGGA,210429.000,4909.0538,N,12304.1510,W,1,08,0.7,0.4,M,-16.8,M,,0000*60
$GNGNS,210429.000,4909.0538,N,12304.1510,W,AA,17,0.7,0.4,-16.8,,0000*5A
