$GPGGA,200203.000,4910.32301,N,12304.21355,W,1,17,0.6,020.05,M,-16.8,M,,*53
$GPRMC,200203.000,A,4910.32301,N,12304.21355,W,0.0,0.0,250119,,,A*7A
$GPGGA,200204.000,4910.32292,N,12304.21325,W,1,17,0.6,020.37,M,-16.8,M,,*59
$GPRMC,200204.000,A,4910.32292,N,12304.21325,W,0.0,0.0,250119,,,A*71
$GPGGA,200205.000,4910.32292,N,12304.21325,W,1,18,0.6,020.37,M,-16.8,M,,*57
$GPRMC,200205.000,A,4910.32292,N,12304.21325,W,0.0,0.0,250119,,,A*70
$GPGGA,200206.000,4910.32292,N,12304.21325,W,1,18,0.6,020.37,M,-16.8,M,,*54
$GPRMC,200206.000,A,4910.32292,N,12304.21325,W,0.0,0.0,250119,,,A*73
$GPGGA,200207.000,4910.32292,N,12304.21325,W,1,18,0.6,020.37,M,-16.8,M,,*55
$GPRMC,200207.000,A,4910.32292,N,12304.21325,W,0.0,0.0,250119,,,A*72
$GPGGA,200208.000,4910.32292,N,12304.21325,W,1,18,0.6,020.37,M,-16.8,M,,*5A
$GPRMC,200208.000,A,4910.32292,N,12304.21325,W,0.0,0.0,250119,,,A*7D
$GPGGA,200209.000,4910.32292,N,12304.21325,W,1,18,0.6,020.37,M,-16.8,M,,*5B
$GPRMC,200209.000,A,4910.32292,N,12304.21325,W,0.0,0.0,250119,,,A*7C
$GPGGA,200210.000,4910.32292,N,12304.21325,W,1,18,0.6,020.37,M,-16.8,M,,*53
$GPRMC,200210.000,A,4910.32292,N,12304.21325,W,0.0,0.0,250119,,,A*74
$GPGGA,200211.000,4910.32292,N,12304.21325,W,1,18,0.6,020.37,M,-16.8,M,,*52
$GPRMC,200211.000,A,4910.32292,N,12304.21325,W,0.0,0.0,250119,,,A*75
$GPGGA,200212.000,4910.32292,N,12304.21325,W,1,18,0.6,020.37,M,-16.8,M,,*51
$GPRMC,200212.000,A,4910.32292,N,12304.21325,W,0.0,0.0,250119,,,A*76
$GPGGA,200213.000,4910.32292,N,12304.21325,W,1,18,0.6,020.37,M,-16.8,M,,*50
$GPRMC,200213.000,A,4910.32292,N,12304.21325,W,0.0,0.0,250119,,,A*77
$GPGGA,200214.000,4910.32292,N,12304.21325,W,1,18,0.6,020.37,M,-16.8,M,,*57
$GPRMC,200214.000,A,4910.32292,N,12304.21325,W,0.0,0.0,250119,,,A*70
$GPGGA,200215.000,4910.32292,N,12304.21325,W,1,17,0.6,020.37,M,-16.8,M,,*59
$GPRMC,200215.000,A,4910.32292,N,12304.21325,W,0.0,0.0,250119,,,A*71
$GPGGA,200216.000,4910.32292,N,12304.21325,W,1,17,0.6,020.37,M,-16.8,M,,*5A
$GPRMC,200216.000,A,4910.32292,N,12304.21325,W,0.0,0.0,250119,,,A*72
$GPGGA,200217.000,4910.32292,N,12304.21325,W,1,16,0.6,020.37,M,-16.8,M,,*5A
$GPRMC,200217.000,A,4910.32292,N,12304.21325,W,0.0,0.0,250119,,,A*73
$GPGGA,200218.000,4910.32292,N,12304.21325,W,1,16,0.6,020.37,M,-16.8,M,,*55
$GPRMC,200218.000,A,4910.32292,N,12304.21325,W,0.0,0.0,250119,,,A*7C
$GPGGA,200219.000,4910.32292,N,12304.21325,W,1,16,0.6,020.37,M,-16.8,M,,*54
$GPRMC,200219.000,A,4910.32292,N,12304.21325,W,0.0,0.0,250119,,,A*7D
$GPGGA,200220.000,4910.32292,N,12304.21325,W,1,17,0.6,020.37,M,-16.8,M,,*5F
$GPRMC,200220.000,A,4910.32292,N,12304.21325,W,0.0,0.0,250119,,,A*77
$GPGGA,200221.000,4910.32292,N,12304.21325,W,1,16,0.6,020.37,M,-16.8,M,,*5F
$GPRMC,200221.000,A,4910.32292,N,12304.21325,W,0.0,0.0,250119,,,A*76
$GPGGA,200222.000,4910.32292,N,12304.21325,W,1,15,0.6,020.37,M,-16.8,M,,*5F
$GPRMC,200222.000,A,4910.32292,N,12304.21325,W,0.0,0.0,250119,,,A*75
$GPGGA,200223.000,4910.32292,N,12304.21325,W,1,15,0.6,020.37,M,-16.8,M,,*5E
$GPRMC,200223.000,A,4910.32292,N,12304.21325,W,0.0,0.0,250119,,,A*74
$GPGGA,200224.000,4910.32292,N,12304.21325,W,1,15,0.6,020.37,M,-16.8,M,,*59
$GPRMC,200224.000,A,4910.32292,N,12304.21325,W,0.0,0.0,250119,,,A*73
$GPGGA,200225.000,4910.32292,N,12304.21325,W,1,15,0.6,020.37,M,-16.8,M,,*58
$GPRMC,200225.000,A,4910.32292,N,12304.21325,W,0.0,0.0,250119,,,A*72
$GPGGA,200226.000,4910.32292,N,12304.21325,W,1,15,0.6,020.37,M,-16.8,M,,*5B
$GPRMC,200226.000,A,4910.32292,N,12304.21325,W,0.0,0.0,250119,,,A*71
$GPGGA,200227.000,4910.32292,N,12304.21325,W,1,15,0.6,020.37,M,-16.8,M,,*5A
$GPRMC,200227.000,A,4910.32292,N,12304.21325,W,0.0,0.0,250119,,,A*70
$GPGGA,200228.000,4910.32292,N,12304.21325,W,1,15,0.6,020.37,M,-16.8,M,,*55
$GPRMC,200228.000,A,4910.32292,N,12304.21325,W,0.1,0.0,250119,,,A*7E
$GPGGA,200229.000,4910.32292,N,12304.21325,W,1,15,0.6,020.37,M,-16.8,M,,*54
$GPRMC,200229.000,A,4910.32292,N,12304.21325,W,0.0,0.0,250119,,,A*7E
$GPGGA,200230.000,4910.32292,N,12304.21325,W,1,15,0.6,020.37,M,-16.8,M,,*5C
$GPRMC,200230.000,A,4910.32292,N,12304.21325,W,0.0,0.0,250119,,,A*76
$GPGGA,200231.000,4910.32292,N,12304.21325,W,1,15,0.6,020.37,M,-16.8,M,,*5D
$GPRMC,200231.000,A,4910.32292,N,12304.21325,W,0.0,0.0,250119,,,A*77
$GPGGA,200232.000,4910.32292,N,12304.21325,W,1,15,0.6,020.37,M,-16.8,M,,*5E
$GPRMC,200232.000,A,4910.32292,N,12304.21325,W,0.0,0.0,250119,,,A*74
$GPGGA,200233.000,4910.32292,N,12304.21325,W,1,15,0.6,020.37,M,-16.8,M,,*5F
$GPRMC,200233.000,A,4910.32292,N,12304.21325,W,0.0,0.0,250119,,,A*75
$GPGGA,200234.000,4910.32292,N,12304.21325,W,1,15,0.6,020.37,M,-16.8,M,,*58
$GPRMC,200234.000,A,4910.32292,N,12304.21325,W,0.0,0.0,250119,,,A*72
$GPGGA,200235.000,4910.32292,N,12304.21325,W,1,15,0.6,020.37,M,-16.8,M,,*59
$GPRMC,200235.000,A,4910.32292,N,12304.21325,W,0.0,0.0,250119,,,A*73
$GPGGA,200236.000,4910.32292,N,12304.21325,W,1,15,0.6,020.37,M,-16.8,M,,*5A
$GPRMC,200236.000,A,4910.32292,N,12304.21325,W,0.1,0.0,250119,,,A*71
$GPGGA,200237.000,4910.32292,N,12304.21325,W,1,15,0.6,020.37,M,-16.8,M,,*5B
$GPRMC,200237.000,A,4910.32292,N,12304.21325,W,0.1,0.0,250119,,,A*70
$GPGGA,200238.000,4910.32292,N,12304.21325,W,1,15,0.6,020.37,M,-16.8,M,,*54
$GPRMC,200238.000,A,4910.32292,N,12304.21325,W,0.0,0.0,250119,,,A*7E
$GPGGA,200239.000,4910.32292,N,12304.21325,W,1,15,0.6,020.37,M,-16.8,M,,*55
$GPRMC,200239.000,A,4910.32292,N,12304.21325,W,0.0,0.0,250119,,,A*7F
$GPGGA,200240.000,4910.32292,N,12304.21325,W,1,15,0.6,020.37,M,-16.8,M,,*5B
$GPRMC,200240.000,A,4910.32292,N,12304.21325,W,0.0,0.0,250119,,,A*71
$GPGGA,200241.000,4910.32292,N,12304.21325,W,1,12,0.7,020.37,M,-16.8,M,,*5C
$GPRMC,200241.000,A,4910.32292,N,12304.21325,W,0.0,0.0,250119,,,A*70
$GPGGA,200242.000,4910.32292,N,12304.21325,W,1,10,0.8,020.37,M,-16.8,M,,*52
$GPRMC,200242.000,A,4910.32292,N,12304.21325,W,0.0,0.0,250119,,,A*73
$GPGGA,200243.000,4910.32292,N,12304.21325,W,1,15,0.6,020.37,M,-16.8,M,,*58
$GPRMC,200243.000,A,4910.32292,N,12304.21325,W,0.0,0.0,250119,,,A*72
$GPGGA,200244.000,4910.32295,N,12304.21321,W,1,15,0.6,020.10,M,-16.8,M,,*59
$GPRMC,200244.000,A,4910.32295,N,12304.21321,W,0.0,0.0,250119,,,A*76
$GPGGA,200245.000,4910.32295,N,12304.21321,W,1,15,0.6,020.10,M,-16.8,M,,*58
$GPRMC,200245.000,A,4910.32295,N,12304.21321,W,0.0,0.0,250119,,,A*77
$GPGGA,200246.000,4910.32295,N,12304.21321,W,1,15,0.6,020.10,M,-16.8,M,,*5B
$GPRMC,200246.000,A,4910.32295,N,12304.21321,W,0.0,0.0,250119,,,A*74
$GPGGA,200247.000,4910.32295,N,12304.21321,W,1,17,0.6,020.10,M,-16.8,M,,*58
$GPRMC,200247.000,A,4910.32295,N,12304.21321,W,0.0,0.0,250119,,,A*75
$GPGGA,200248.000,4910.32295,N,12304.21321,W,1,15,0.6,020.10,M,-16.8,M,,*55
$GPRMC,200248.000,A,4910.32295,N,12304.21321,W,0.0,0.0,250119,,,A*7A
$GPGGA,200249.000,4910.32295,N,12304.21321,W,1,15,0.6,020.10,M,-16.8,M,,*54
$GPRMC,200249.000,A,4910.32295,N,12304.21321,W,0.0,0.0,250119,,,A*7B
$GPGGA,200250.000,4910.32295,N,12304.21321,W,1,15,0.6,020.10,M,-16.8,M,,*5C
$GPRMC,200250.000,A,4910.32295,N,12304.21321,W,0.0,0.0,250119,,,A*73
$GPGGA,200251.000,4910.32295,N,12304.21321,W,1,15,0.6,020.10,M,-16.8,M,,*5D
$GPRMC,200251.000,A,4910.32295,N,12304.21321,W,0.0,0.0,250119,,,A*72
$GPGGA,200252.000,4910.32295,N,12304.21321,W,1,15,0.6,020.10,M,-16.8,M,,*5E
$GPRMC,200252.000,A,4910.32295,N,12304.21321,W,0.0,0.0,250119,,,A*71
$GPGGA,200253.000,4910.32295,N,12304.21321,W,1,15,0.6,020.10,M,-16.8,M,,*5F
$GPRMC,200253.000,A,4910.32295,N,12304.21321,W,0.0,0.0,250119,,,A*70
$GPGGA,200254.000,4910.32295,N,12304.21321,W,1,15,0.6,020.10,M,-16.8,M,,*58
$GPRMC,200254.000,A,4910.32295,N,12304.21321,W,0.0,0.0,250119,,,A*77
$GPGGA,200255.000,4910.32295,N,12304.21321,W,1,15,0.6,020.10,M,-16.8,M,,*59
$GPRMC,200255.000,A,4910.32295,N,12304.21321,W,0.0,0.0,250119,,,A*76
$GPGGA,200256.000,4910.32295,N,12304.21321,W,1,15,0.6,020.10,M,-16.8,M,,*5A
$GPRMC,200256.000,A,4910.32295,N,12304.21321,W,0.0,0.0,250119,,,A*75
$GPGGA,200257.000,4910.32295,N,12304.21321,W,1,15,0.6,020.10,M,-16.8,M,,*5B
$GPRMC,200257.000,A,4910.32295,N,12304.21321,W,0.0,0.0,250119,,,A*74
$GPGGA,200258.000,4910.32295,N,12304.21321,W,1,15,0.6,020.10,M,-16.8,M,,*54
$GPRMC,200258.000,A,4910.32295,N,12304.21321,W,0.0,0.0,250119,,,A*7B
$GPGGA,200259.000,4910.32295,N,12304.21321,W,1,15,0.6,020.10,M,-16.8,M,,*55
$GPRMC,200259.000,A,4910.32295,N,12304.21321,W,0.0,0.0,250119,,,A*7A
$GPGGA,200300.000,4910.32295,N,12304.21321,W,1,15,0.6,020.10,M,-16.8,M,,*58
$GPRMC,200300.000,A,4910.32295,N,12304.21321,W,0.1,0.0,250119,,,A*76
$GPGGA,200301.000,4910.32295,N,12304.21321,W,1,15,0.6,020.10,M,-16.8,M,,*59
$GPRMC,200301.000,A,4910.32295,N,12304.21321,W,0.0,0.0,250119,,,A*76
$GPGGA,200302.000,4910.32295,N,12304.21321,W,1,15,0.6,020.10,M,-16.8,M,,*5A
$GPRMC,200302.000,A,4910.32295,N,12304.21321,W,0.0,0.0,250119,,,A*75
$GPGGA,200303.000,4910.32295,N,12304.21321,W,1,15,0.6,020.10,M,-16.8,M,,*5B
$GPRMC,200303.000,A,4910.32295,N,12304.21321,W,0.0,0.0,250119,,,A*74
$GPGGA,200304.000,4910.32295,N,12304.21321,W,1,15,0.6,020.10,M,-16.8,M,,*5C
$GPRMC,200304.000,A,4910.32295,N,12304.21321,W,0.1,0.0,250119,,,A*72
$GPGGA,200305.000,4910.32295,N,12304.21321,W,1,15,0.6,020.10,M,-16.8,M,,*5D
$GPRMC,200305.000,A,4910.32295,N,12304.21321,W,0.0,0.0,250119,,,A*72
$GPGGA,200306.000,4910.32295,N,12304.21321,W,1,15,0.6,020.10,M,-16.8,M,,*5E
$GPRMC,200306.000,A,4910.32295,N,12304.21321,W,0.1,0.0,250119,,,A*70
$GPGGA,200307.000,4910.32295,N,12304.21321,W,1,15,0.6,020.10,M,-16.8,M,,*5F
$GPRMC,200307.000,A,4910.32295,N,12304.21321,W,0.0,0.0,250119,,,A*70
$GPGGA,200308.000,4910.32295,N,12304.21321,W,1,18,0.6,020.10,M,-16.8,M,,*5D
$GPRMC,200308.000,A,4910.32295,N,12304.21321,W,0.0,0.0,250119,,,A*7F
$GPGGA,200309.000,4910.32295,N,12304.21321,W,1,18,0.6,020.10,M,-16.8,M,,*5C
$GPRMC,200309.000,A,4910.32295,N,12304.21321,W,0.0,0.0,250119,,,A*7E
$GPGGA,200310.000,4910.32295,N,12304.21321,W,1,18,0.6,020.10,M,-16.8,M,,*54
$GPRMC,200310.000,A,4910.32295,N,12304.21321,W,0.0,0.0,250119,,,A*76
$GPGGA,200311.000,4910.32295,N,12304.21321,W,1,18,0.6,020.10,M,-16.8,M,,*55
$GPRMC,200311.000,A,4910.32295,N,12304.21321,W,0.0,0.0,250119,,,A*77
$GPGGA,200312.000,4910.32295,N,12304.21321,W,1,17,0.6,020.10,M,-16.8,M,,*59
$GPRMC,200312.000,A,4910.32295,N,12304.21321,W,0.0,0.0,250119,,,A*74
$GPGGA,200313.000,4910.32295,N,12304.21321,W,1,17,0.6,020.10,M,-16.8,M,,*58
$GPRMC,200313.000,A,4910.32295,N,12304.21321,W,0.0,0.0,250119,,,A*75
$GPGGA,200314.000,4910.32295,N,12304.21321,W,1,17,0.6,020.10,M,-16.8,M,,*5F
$GPRMC,200314.000,A,4910.32295,N,12304.21321,W,0.0,0.0,250119,,,A*72
$GPGGA,200315.000,4910.32295,N,12304.21321,W,1,17,0.6,020.10,M,-16.8,M,,*5E
$GPRMC,200315.000,A,4910.32295,N,12304.21321,W,0.0,0.0,250119,,,A*73
$GPGGA,200316.000,4910.32295,N,12304.21321,W,1,18,0.6,020.10,M,-16.8,M,,*52
$GPRMC,200316.000,A,4910.32295,N,12304.21321,W,0.0,0.0,250119,,,A*70
$GPGGA,200317.000,4910.32295,N,12304.21321,W,1,17,0.6,020.10,M,-16.8,M,,*5C
$GPRMC,200317.000,A,4910.32295,N,12304.21321,W,0.0,0.0,250119,,,A*71
$GPGGA,200318.000,4910.32295,N,12304.21321,W,1,17,0.6,020.10,M,-16.8,M,,*53
$GPRMC,200318.000,A,4910.32295,N,12304.21321,W,0.1,0.0,250119,,,A*7F
$GPGGA,200319.000,4910.32295,N,12304.21321,W,1,18,0.6,020.10,M,-16.8,M,,*5D
$GPRMC,200319.000,A,4910.32295,N,12304.21321,W,0.0,0.0,250119,,,A*7F
$GPGGA,200320.000,4910.32295,N,12304.21321,W,1,18,0.6,020.10,M,-16.8,M,,*57
$GPRMC,200320.000,A,4910.32295,N,12304.21321,W,0.0,0.0,250119,,,A*75
$GPGGA,200321.000,4910.32295,N,12304.21321,W,1,18,0.6,020.10,M,-16.8,M,,*56
$GPRMC,200321.000,A,4910.32295,N,12304.21321,W,0.0,0.0,250119,,,A*74
$GPGGA,200322.000,4910.32295,N,12304.21321,W,1,17,0.6,020.10,M,-16.8,M,,*5A
$GPRMC,200322.000,A,4910.32295,N,12304.21321,W,0.1,0.0,250119,,,A*76
$GPGGA,200323.000,4910.32295,N,12304.21321,W,1,17,0.6,020.10,M,-16.8,M,,*5B
$GPRMC,200323.000,A,4910.32295,N,12304.21321,W,0.1,0.0,250119,,,A*77
$GPGGA,200324.000,4910.32289,N,12304.21291,W,1,18,0.6,019.91,M,-16.8,M,,*57
$GPRMC,200324.000,A,4910.32289,N,12304.21291,W,0.1,0.0,250119,,,A*77
$GPGGA,200325.000,4910.32289,N,12304.21291,W,1,15,0.6,019.91,M,-16.8,M,,*5B
$GPRMC,200325.000,A,4910.32289,N,12304.21291,W,0.0,0.0,250119,,,A*77
$GPGGA,200326.000,4910.32289,N,12304.21291,W,1,17,0.6,019.91,M,-16.8,M,,*5A
$GPRMC,200326.000,A,4910.32289,N,12304.21291,W,0.0,0.0,250119,,,A*74
$GPGGA,200327.000,4910.32289,N,12304.21291,W,1,17,0.6,019.91,M,-16.8,M,,*5B
$GPRMC,200327.000,A,4910.32289,N,12304.21291,W,0.0,0.0,250119,,,A*75
$GPGGA,200328.000,4910.32289,N,12304.21291,W,1,17,0.6,019.91,M,-16.8,M,,*54
$GPRMC,200328.000,A,4910.32289,N,12304.21291,W,0.0,0.0,250119,,,A*7A
$GPGGA,200329.000,4910.32289,N,12304.21291,W,1,18,0.6,019.91,M,-16.8,M,,*5A
$GPRMC,200329.000,A,4910.32289,N,12304.21291,W,0.0,0.0,250119,,,A*7B
$GPGGA,200330.000,4910.32289,N,12304.21291,W,1,15,0.6,019.91,M,-16.8,M,,*5F
$GPRMC,200330.000,A,4910.32289,N,12304.21291,W,0.0,0.0,250119,,,A*73
$GPGGA,200331.000,4910.32289,N,12304.21291,W,1,16,0.6,019.91,M,-16.8,M,,*5D
$GPRMC,200331.000,A,4910.32289,N,12304.21291,W,0.0,0.0,250119,,,A*72
$GPGGA,200332.000,4910.32289,N,12304.21291,W,1,17,0.6,019.91,M,-16.8,M,,*5F
$GPRMC,200332.000,A,4910.32289,N,12304.21291,W,0.0,0.0,250119,,,A*71
$GPGGA,200333.000,4910.32289,N,12304.21291,W,1,15,0.6,019.91,M,-16.8,M,,*5C
$GPRMC,200333.000,A,4910.32289,N,12304.21291,W,0.0,0.0,250119,,,A*70
$GPGGA,200334.000,4910.32289,N,12304.21291,W,1,15,0.6,019.91,M,-16.8,M,,*5B
$GPRMC,200334.000,A,4910.32289,N,12304.21291,W,0.0,0.0,250119,,,A*77
$GPGGA,200335.000,4910.32289,N,12304.21291,W,1,15,0.6,019.91,M,-16.8,M,,*5A
$GPRMC,200335.000,A,4910.32289,N,12304.21291,W,0.1,0.0,250119,,,A*77
$GPGGA,200336.000,4910.32289,N,12304.21291,W,1,15,0.6,019.91,M,-16.8,M,,*59
$GPRMC,200336.000,A,4910.32289,N,12304.21291,W,0.1,0.0,250119,,,A*74
$GPGGA,200337.000,4910.32289,N,12304.21291,W,1,15,0.6,019.91,M,-16.8,M,,*58
$GPRMC,200337.000,A,4910.32289,N,12304.21291,W,0.1,0.0,250119,,,A*75
$GPGGA,200338.000,4910.32289,N,12304.21291,W,1,16,0.6,019.91,M,-16.8,M,,*54
$GPRMC,200338.000,A,4910.32289,N,12304.21291,W,0.0,0.0,250119,,,A*7B
$GPGGA,200339.000,4910.32289,N,12304.21291,W,1,18,0.6,019.91,M,-16.8,M,,*5B
$GPRMC,200339.000,A,4910.32289,N,12304.21291,W,0.0,0.0,250119,,,A*7A
$GPGGA,200340.000,4910.32289,N,12304.21291,W,1,17,0.6,019.91,M,-16.8,M,,*5A
$GPRMC,200340.000,A,4910.32289,N,12304.21291,W,0.1,0.0,250119,,,A*75
$GPGGA,200341.000,4910.32289,N,12304.21291,W,1,18,0.6,019.91,M,-16.8,M,,*54
$GPRMC,200341.000,A,4910.32289,N,12304.21291,W,0.0,0.0,250119,,,A*75
$GPGGA,200342.000,4910.32289,N,12304.21291,W,1,17,0.6,019.91,M,-16.8,M,,*58
$GPRMC,200342.000,A,4910.32289,N,12304.21291,W,0.1,0.0,250119,,,A*77
$GPGGA,200343.000,4910.32289,N,12304.21291,W,1,18,0.6,019.91,M,-16.8,M,,*56
$GPRMC,200343.000,A,4910.32289,N,12304.21291,W,0.4,294.0,250119,,,A*7C
$GPGGA,200344.000,4910.32289,N,12304.21291,W,1,16,0.6,019.91,M,-16.8,M,,*5F
$GPRMC,200344.000,A,4910.32289,N,12304.21291,W,0.1,0.0,250119,,,A*71
$GPGGA,200345.000,4910.32289,N,12304.21291,W,1,16,0.6,019.91,M,-16.8,M,,*5E
$GPRMC,200345.000,A,4910.32289,N,12304.21291,W,0.0,0.0,250119,,,A*71
$GPGGA,200346.000,4910.32289,N,12304.21291,W,1,17,0.6,019.91,M,-16.8,M,,*5C
$GPRMC,200346.000,A,4910.32289,N,12304.21291,W,0.0,0.0,250119,,,A*72
$GPGGA,200347.000,4910.32289,N,12304.21291,W,1,16,0.6,019.91,M,-16.8,M,,*5C
$GPRMC,200347.000,A,4910.32289,N,12304.21291,W,0.0,0.0,250119,,,A*73
$GPGGA,200348.000,4910.32289,N,12304.21291,W,1,17,0.6,019.91,M,-16.8,M,,*52
$GPRMC,200348.000,A,4910.32289,N,12304.21291,W,0.3,175.5,250119,,,A*79
$GPGGA,200349.000,4910.32289,N,12304.21291,W,1,16,0.6,019.91,M,-16.8,M,,*52
$GPRMC,200349.000,A,4910.32289,N,12304.21291,W,0.1,0.0,250119,,,A*7C
$GPGGA,200350.000,4910.32289,N,12304.21291,W,1,16,0.6,019.91,M,-16.8,M,,*5A
$GPRMC,200350.000,A,4910.32289,N,12304.21291,W,0.0,0.0,250119,,,A*75
$GPGGA,200351.000,4910.32289,N,12304.21291,W,1,16,0.6,019.91,M,-16.8,M,,*5B
$GPRMC,200351.000,A,4910.32289,N,12304.21291,W,0.0,0.0,250119,,,A*74
$GPGGA,200352.000,4910.32289,N,12304.21291,W,1,16,0.6,019.91,M,-16.8,M,,*58
$GPRMC,200352.000,A,4910.32289,N,12304.21291,W,0.1,0.0,250119,,,A*76
$GPGGA,200353.000,4910.32289,N,12304.21291,W,1,15,0.6,019.91,M,-16.8,M,,*5A
$GPRMC,200353.000,A,4910.32289,N,12304.21291,W,0.0,0.0,250119,,,A*76
$GPGGA,200354.000,4910.32289,N,12304.21291,W,1,15,0.6,019.91,M,-16.8,M,,*5D
$GPRMC,200354.000,A,4910.32289,N,12304.21291,W,0.1,0.0,250119,,,A*70
$GPGGA,200355.000,4910.32289,N,12304.21291,W,1,16,0.6,019.91,M,-16.8,M,,*5F
$GPRMC,200355.000,A,4910.32289,N,12304.21291,W,0.1,0.0,250119,,,A*71
$GPGGA,200356.000,4910.32289,N,12304.21291,W,1,17,0.6,019.91,M,-16.8,M,,*5D
$GPRMC,200356.000,A,4910.32289,N,12304.21291,W,0.0,0.0,250119,,,A*73
$GPGGA,200357.000,4910.32289,N,12304.21291,W,1,17,0.6,019.91,M,-16.8,M,,*5C
$GPRMC,200357.000,A,4910.32289,N,12304.21291,W,0.0,0.0,250119,,,A*72
$GPGGA,200358.000,4910.32289,N,12304.21291,W,1,18,0.6,019.91,M,-16.8,M,,*5C
$GPRMC,200358.000,A,4910.32289,N,12304.21291,W,0.0,0.0,250119,,,A*7D
$GPGGA,200359.000,4910.32289,N,12304.21291,W,1,18,0.6,019.91,M,-16.8,M,,*5D
$GPRMC,200359.000,A,4910.32289,N,12304.21291,W,0.0,0.0,250119,,,A*7C
$GPGGA,200400.000,4910.32289,N,12304.21291,W,1,17,0.6,019.91,M,-16.8,M,,*59
$GPRMC,200400.000,A,4910.32289,N,12304.21291,W,0.0,0.0,250119,,,A*77
$GPGGA,200401.000,4910.32289,N,12304.21291,W,1,17,0.6,019.91,M,-16.8,M,,*58
$GPRMC,200401.000,A,4910.32289,N,12304.21291,W,0.0,0.0,250119,,,A*76
$GPGGA,200402.000,4910.32289,N,12304.21291,W,1,16,0.6,019.91,M,-16.8,M,,*5A
$GPRMC,200402.000,A,4910.32289,N,12304.21291,W,0.1,0.0,250119,,,A*74
$GPGGA,200403.000,4910.32289,N,12304.21291,W,1,15,0.6,019.91,M,-16.8,M,,*58
$GPRMC,200403.000,A,4910.32289,N,12304.21291,W,0.0,0.0,250119,,,A*74
$GPGGA,200404.000,4910.32279,N,12304.21313,W,1,17,0.6,020.24,M,-16.8,M,,*5D
$GPRMC,200404.000,A,4910.32279,N,12304.21313,W,0.0,0.0,250119,,,A*77
$GPGGA,200405.000,4910.32279,N,12304.21313,W,1,17,0.6,020.24,M,-16.8,M,,*5C
$GPRMC,200405.000,A,4910.32279,N,12304.21313,W,0.0,0.0,250119,,,A*76
$GPGGA,200406.000,4910.32279,N,12304.21313,W,1,16,0.6,020.24,M,-16.8,M,,*5E
$GPRMC,200406.000,A,4910.32279,N,12304.21313,W,0.0,0.0,250119,,,A*75
$GPGGA,200407.000,4910.32279,N,12304.21313,W,1,16,0.6,020.24,M,-16.8,M,,*5F
$GPRMC,200407.000,A,4910.32279,N,12304.21313,W,0.1,0.0,250119,,,A*75
$GPGGA,200408.000,4910.32279,N,12304.21313,W,1,16,0.6,020.24,M,-16.8,M,,*50
$GPRMC,200408.000,A,4910.32279,N,12304.21313,W,0.1,0.0,250119,,,A*7A
$GPGGA,200409.000,4910.32279,N,12304.21313,W,1,16,0.6,020.24,M,-16.8,M,,*51
$GPRMC,200409.000,A,4910.32279,N,12304.21313,W,0.0,0.0,250119,,,A*7A
$GPGGA,200410.000,4910.32279,N,12304.21313,W,1,17,0.6,020.24,M,-16.8,M,,*58
$GPRMC,200410.000,A,4910.32279,N,12304.21313,W,0.1,0.0,250119,,,A*73
$GPGGA,200411.000,4910.32279,N,12304.21313,W,1,17,0.6,020.24,M,-16.8,M,,*59
$GPRMC,200411.000,A,4910.32279,N,12304.21313,W,0.1,0.0,250119,,,A*72
$GPGGA,200412.000,4910.32279,N,12304.21313,W,1,16,0.6,020.24,M,-16.8,M,,*5B
$GPRMC,200412.000,A,4910.32279,N,12304.21313,W,0.0,0.0,250119,,,A*70
$GPGGA,200413.000,4910.32279,N,12304.21313,W,1,16,0.6,020.24,M,-16.8,M,,*5A
$GPRMC,200413.000,A,4910.32279,N,12304.21313,W,0.0,0.0,250119,,,A*71
$GPGGA,200414.000,4910.32279,N,12304.21313,W,1,16,0.6,020.24,M,-16.8,M,,*5D
$GPRMC,200414.000,A,4910.32279,N,12304.21313,W,0.0,0.0,250119,,,A*76
$GPGGA,200415.000,4910.32279,N,12304.21313,W,1,17,0.6,020.24,M,-16.8,M,,*5D
$GPRMC,200415.000,A,4910.32279,N,12304.21313,W,0.0,0.0,250119,,,A*77
$GPGGA,200416.000,4910.32279,N,12304.21313,W,1,17,0.6,020.24,M,-16.8,M,,*5E
$GPRMC,200416.000,A,4910.32279,N,12304.21313,W,0.0,0.0,250119,,,A*74
$GPGGA,200417.000,4910.32279,N,12304.21313,W,1,17,0.6,020.24,M,-16.8,M,,*5F
$GPRMC,200417.000,A,4910.32279,N,12304.21313,W,0.1,0.0,250119,,,A*74
$GPGGA,200418.000,4910.32279,N,12304.21313,W,1,17,0.6,020.24,M,-16.8,M,,*50
$GPRMC,200418.000,A,4910.32279,N,12304.21313,W,0.1,0.0,250119,,,A*7B
$GPGGA,200419.000,4910.32279,N,12304.21313,W,1,17,0.6,020.24,M,-16.8,M,,*51
$GPRMC,200419.000,A,4910.32279,N,12304.21313,W,0.0,0.0,250119,,,A*7B
$GPGGA,200420.000,4910.32279,N,12304.21313,W,1,18,0.6,020.24,M,-16.8,M,,*54
$GPRMC,200420.000,A,4910.32279,N,12304.21313,W,0.0,0.0,250119,,,A*71
$GPGGA,200421.000,4910.32279,N,12304.21313,W,1,18,0.6,020.24,M,-16.8,M,,*55
$GPRMC,200421.000,A,4910.32279,N,12304.21313,W,0.0,0.0,250119,,,A*70
$GPGGA,200422.000,4910.32279,N,12304.21313,W,1,15,0.6,020.24,M,-16.8,M,,*5B
$GPRMC,200422.000,A,4910.32279,N,12304.21313,W,0.1,0.0,250119,,,A*72
$GPGGA,200423.000,4910.32279,N,12304.21313,W,1,17,0.6,020.24,M,-16.8,M,,*58
$GPRMC,200423.000,A,4910.32279,N,12304.21313,W,0.1,0.0,250119,,,A*73
$GPGGA,200424.000,4910.32279,N,12304.21313,W,1,17,0.6,020.24,M,-16.8,M,,*5F
$GPRMC,200424.000,A,4910.32279,N,12304.21313,W,0.0,0.0,250119,,,A*75
$GPGGA,200425.000,4910.32279,N,12304.21313,W,1,17,0.6,020.24,M,-16.8,M,,*5E
$GPRMC,200425.000,A,4910.32279,N,12304.21313,W,0.0,0.0,250119,,,A*74
$GPGGA,200426.000,4910.32279,N,12304.21313,W,1,17,0.6,020.24,M,-16.8,M,,*5D
$GPRMC,200426.000,A,4910.32279,N,12304.21313,W,0.0,0.0,250119,,,A*77
$GPGGA,200427.000,4910.32279,N,12304.21313,W,1,17,0.6,020.24,M,-16.8,M,,*5C
$GPRMC,200427.000,A,4910.32279,N,12304.21313,W,0.0,0.0,250119,,,A*76
$GPGGA,200428.000,4910.32279,N,12304.21313,W,1,17,0.6,020.24,M,-16.8,M,,*53
$GPRMC,200428.000,A,4910.32279,N,12304.21313,W,0.0,0.0,250119,,,A*79
$GPGGA,200429.000,4910.32279,N,12304.21313,W,1,17,0.6,020.24,M,-16.8,M,,*52
$GPRMC,200429.000,A,4910.32279,N,12304.21313,W,0.0,0.0,250119,,,A*78
$GPGGA,200430.000,4910.32279,N,12304.21313,W,1,17,0.6,020.24,M,-16.8,M,,*5A
$GPRMC,200430.000,A,4910.32279,N,12304.21313,W,0.0,0.0,250119,,,A*70
$GPGGA,200431.000,4910.32279,N,12304.21313,W,1,17,0.6,020.24,M,-16.8,M,,*5B
$GPRMC,200431.000,A,4910.32279,N,12304.21313,W,0.0,0.0,250119,,,A*71
$GPGGA,200432.000,4910.32279,N,12304.21313,W,1,17,0.6,020.24,M,-16.8,M,,*58
$GPRMC,200432.000,A,4910.32279,N,12304.21313,W,0.0,0.0,250119,,,A*72
$GPGGA,200433.000,4910.32279,N,12304.21313,W,1,17,0.6,020.24,M,-16.8,M,,*59
$GPRMC,200433.000,A,4910.32279,N,12304.21313,W,0.0,0.0,250119,,,A*73
$GPGGA,200434.000,4910.32279,N,12304.21313,W,1,17,0.6,020.24,M,-16.8,M,,*5E
$GPRMC,200434.000,A,4910.32279,N,12304.21313,W,0.1,0.0,250119,,,A*75
$GPGGA,200435.000,4910.32279,N,12304.21313,W,1,17,0.6,020.24,M,-16.8,M,,*5F
$GPRMC,200435.000,A,4910.32279,N,12304.21313,W,0.0,0.0,250119,,,A*75
$GPGGA,200436.000,4910.32279,N,12304.21313,W,1,17,0.6,020.24,M,-16.8,M,,*5C
$GPRMC,200436.000,A,4910.32279,N,12304.21313,W,0.0,0.0,250119,,,A*76
$GPGGA,200437.000,4910.32279,N,12304.21313,W,1,17,0.6,020.24,M,-16.8,M,,*5D
$GPRMC,200437.000,A,4910.32279,N,12304.21313,W,0.0,0.0,250119,,,A*77
$GPGGA,200438.000,4910.32279,N,12304.21313,W,1,17,0.6,020.24,M,-16.8,M,,*52
$GPRMC,200438.000,A,4910.32279,N,12304.21313,W,0.0,0.0,250119,,,A*78
$GPGGA,200439.000,4910.32279,N,12304.21313,W,1,17,0.6,020.24,M,-16.8,M,,*53
$GPRMC,200439.000,A,4910.32279,N,12304.21313,W,0.0,0.0,250119,,,A*79
$GPGGA,200440.000,4910.32279,N,12304.21313,W,1,17,0.6,020.24,M,-16.8,M,,*5D
$GPRMC,200440.000,A,4910.32279,N,12304.21313,W,0.0,0.0,250119,,,A*77
$GPGGA,200441.000,4910.32279,N,12304.21313,W,1,17,0.6,020.24,M,-16.8,M,,*5C
$GPRMC,200441.000,A,4910.32279,N,12304.21313,W,0.0,0.0,250119,,,A*76
$GPGGA,200442.000,4910.32279,N,12304.21313,W,1,17,0.6,020.24,M,-16.8,M,,*5F
$GPRMC,200442.000,A,4910.32279,N,12304.21313,W,0.0,0.0,250119,,,A*75
$GPGGA,200443.000,4910.32279,N,12304.21313,W,1,17,0.6,020.24,M,-16.8,M,,*5E
$GPRMC,200443.000,A,4910.32279,N,12304.21313,W,0.0,0.0,250119,,,A*74
$GPGGA,200444.000,4910.32276,N,12304.21309,W,1,17,0.6,020.45,M,-16.8,M,,*5A
$GPRMC,200444.000,A,4910.32276,N,12304.21309,W,0.0,0.0,250119,,,A*77
$GPGGA,200445.000,4910.32276,N,12304.21309,W,1,17,0.6,020.45,M,-16.8,M,,*5B
$GPRMC,200445.000,A,4910.32276,N,12304.21309,W,0.0,0.0,250119,,,A*76
$GPGGA,200446.000,4910.32276,N,12304.21309,W,1,17,0.6,020.45,M,-16.8,M,,*58
$GPRMC,200446.000,A,4910.32276,N,12304.21309,W,0.0,0.0,250119,,,A*75
$GPGGA,200447.000,4910.32276,N,12304.21309,W,1,16,0.6,020.45,M,-16.8,M,,*58
$GPRMC,200447.000,A,4910.32276,N,12304.21309,W,0.0,0.0,250119,,,A*74
$GPGGA,200448.000,4910.32276,N,12304.21309,W,1,17,0.6,020.45,M,-16.8,M,,*56
$GPRMC,200448.000,A,4910.32276,N,12304.21309,W,0.1,0.0,250119,,,A*7A
$GPGGA,200449.000,4910.32276,N,12304.21309,W,1,17,0.6,020.45,M,-16.8,M,,*57
$GPRMC,200449.000,A,4910.32276,N,12304.21309,W,0.0,0.0,250119,,,A*7A
$GPGGA,200450.000,4910.32276,N,12304.21309,W,1,17,0.6,020.45,M,-16.8,M,,*5F
$GPRMC,200450.000,A,4910.32276,N,12304.21309,W,0.0,0.0,250119,,,A*72
$GPGGA,200451.000,4910.32276,N,12304.21309,W,1,17,0.6,020.45,M,-16.8,M,,*5E
$GPRMC,200451.000,A,4910.32276,N,12304.21309,W,0.0,0.0,250119,,,A*73
$GPGGA,200452.000,4910.32276,N,12304.21309,W,1,17,0.6,020.45,M,-16.8,M,,*5D
$GPRMC,200452.000,A,4910.32276,N,12304.21309,W,0.0,0.0,250119,,,A*70
$GPGGA,200453.000,4910.32276,N,12304.21309,W,1,17,0.6,020.45,M,-16.8,M,,*5C
$GPRMC,200453.000,A,4910.32276,N,12304.21309,W,0.0,0.0,250119,,,A*71
$GPGGA,200454.000,4910.32276,N,12304.21309,W,1,17,0.6,020.45,M,-16.8,M,,*5B
$GPRMC,200454.000,A,4910.32276,N,12304.21309,W,0.0,0.0,250119,,,A*76
$GPGGA,200455.000,4910.32276,N,12304.21309,W,1,17,0.6,020.45,M,-16.8,M,,*5A
$GPRMC,200455.000,A,4910.32276,N,12304.21309,W,0.0,0.0,250119,,,A*77
$GPGGA,200456.000,4910.32276,N,12304.21309,W,1,17,0.6,020.45,M,-16.8,M,,*59
$GPRMC,200456.000,A,4910.32276,N,12304.21309,W,0.0,0.0,250119,,,A*74
$GPGGA,200457.000,4910.32276,N,12304.21309,W,1,17,0.6,020.45,M,-16.8,M,,*58
$GPRMC,200457.000,A,4910.32276,N,12304.21309,W,0.0,0.0,250119,,,A*75
$GPGGA,200458.000,4910.32276,N,12304.21309,W,1,17,0.6,020.45,M,-16.8,M,,*57
$GPRMC,200458.000,A,4910.32276,N,12304.21309,W,0.0,0.0,250119,,,A*7A
$GPGGA,200459.000,4910.32276,N,12304.21309,W,1,17,0.6,020.45,M,-16.8,M,,*56
$GPRMC,200459.000,A,4910.32276,N,12304.21309,W,0.0,0.0,250119,,,A*7B
$GPGGA,200500.000,4910.32276,N,12304.21309,W,1,17,0.6,020.45,M,-16.8,M,,*5B
$GPRMC,200500.000,A,4910.32276,N,12304.21309,W,0.1,0.0,250119,,,A*77
$GPGGA,200501.000,4910.32276,N,12304.21309,W,1,17,0.6,020.45,M,-16.8,M,,*5A
$GPRMC,200501.000,A,4910.32276,N,12304.21309,W,0.0,0.0,250119,,,A*77
$GPGGA,200502.000,4910.32276,N,12304.21309,W,1,17,0.6,020.45,M,-16.8,M,,*59
$GPRMC,200502.000,A,4910.32276,N,12304.21309,W,0.0,0.0,250119,,,A*74
$GPGGA,200503.000,4910.32276,N,12304.21309,W,1,17,0.6,020.45,M,-16.8,M,,*58
$GPRMC,200503.000,A,4910.32276,N,12304.21309,W,0.0,0.0,250119,,,A*75
$GPGGA,200504.000,4910.32276,N,12304.21309,W,1,17,0.6,020.45,M,-16.8,M,,*5F
$GPRMC,200504.000,A,4910.32276,N,12304.21309,W,0.1,0.0,250119,,,A*73
$GPGGA,200505.000,4910.32276,N,12304.21309,W,1,17,0.6,020.45,M,-16.8,M,,*5E
$GPRMC,200505.000,A,4910.32276,N,12304.21309,W,0.0,0.0,250119,,,A*73
$GPGGA,200506.000,4910.32276,N,12304.21309,W,1,16,0.6,020.45,M,-16.8,M,,*5C
$GPRMC,200506.000,A,4910.32276,N,12304.21309,W,0.0,0.0,250119,,,A*70
$GPGGA,200507.000,4910.32276,N,12304.21309,W,1,17,0.6,020.45,M,-16.8,M,,*5C
$GPRMC,200507.000,A,4910.32276,N,12304.21309,W,0.0,0.0,250119,,,A*71
$GPGGA,200508.000,4910.32276,N,12304.21309,W,1,17,0.6,020.45,M,-16.8,M,,*53
$GPRMC,200508.000,A,4910.32276,N,12304.21309,W,0.0,0.0,250119,,,A*7E
$GPGGA,200509.000,4910.32276,N,12304.21309,W,1,17,0.6,020.45,M,-16.8,M,,*52
$GPRMC,200509.000,A,4910.32276,N,12304.21309,W,0.0,0.0,250119,,,A*7F
$GPGGA,200510.000,4910.32276,N,12304.21309,W,1,17,0.6,020.45,M,-16.8,M,,*5A
$GPRMC,200510.000,A,4910.32276,N,12304.21309,W,0.0,0.0,250119,,,A*77
$GPGGA,200511.000,4910.32276,N,12304.21309,W,1,17,0.6,020.45,M,-16.8,M,,*5B
$GPRMC,200511.000,A,4910.32276,N,12304.21309,W,0.0,0.0,250119,,,A*76
$GPGGA,200512.000,4910.32276,N,12304.21309,W,1,17,0.6,020.45,M,-16.8,M,,*58
$GPRMC,200512.000,A,4910.32276,N,12304.21309,W,0.0,0.0,250119,,,A*75
$GPGGA,200513.000,4910.32276,N,12304.21309,W,1,17,0.6,020.45,M,-16.8,M,,*59
$GPRMC,200513.000,A,4910.32276,N,12304.21309,W,0.0,0.0,250119,,,A*74
$GPGGA,200514.000,4910.32276,N,12304.21309,W,1,17,0.6,020.45,M,-16.8,M,,*5E
$GPRMC,200514.000,A,4910.32276,N,12304.21309,W,0.1,0.0,250119,,,A*72
$GPGGA,200515.000,4910.32276,N,12304.21309,W,1,17,0.6,020.45,M,-16.8,M,,*5F
$GPRMC,200515.000,A,4910.32276,N,12304.21309,W,0.0,0.0,250119,,,A*72
$GPGGA,200516.000,4910.32276,N,12304.21309,W,1,17,0.6,020.45,M,-16.8,M,,*5C
$GPRMC,200516.000,A,4910.32276,N,12304.21309,W,0.0,0.0,250119,,,A*71
$GPGGA,200517.000,4910.32276,N,12304.21309,W,1,17,0.6,020.45,M,-16.8,M,,*5D
$GPRMC,200517.000,A,4910.32276,N,12304.21309,W,0.1,0.0,250119,,,A*71
$GPGGA,200518.000,4910.32276,N,12304.21309,W,1,16,0.6,020.45,M,-16.8,M,,*53
$GPRMC,200518.000,A,4910.32276,N,12304.21309,W,0.2,0.0,250119,,,A*7D
$GPGGA,200519.000,4910.32276,N,12304.21309,W,1,15,0.6,020.45,M,-16.8,M,,*51
$GPRMC,200519.000,A,4910.32276,N,12304.21309,W,0.1,0.0,250119,,,A*7F
$GPGGA,200520.000,4910.32276,N,12304.21309,W,1,15,0.6,020.45,M,-16.8,M,,*5B
$GPRMC,200520.000,A,4910.32276,N,12304.21309,W,0.1,0.0,250119,,,A*75
$GPGGA,200521.000,4910.32276,N,12304.21309,W,1,15,0.6,020.45,M,-16.8,M,,*5A
$GPRMC,200521.000,A,4910.32276,N,12304.21309,W,0.1,0.0,250119,,,A*74
$GPGGA,200522.000,4910.32276,N,12304.21309,W,1,15,0.6,020.45,M,-16.8,M,,*59
$GPRMC,200522.000,A,4910.32276,N,12304.21309,W,0.0,0.0,250119,,,A*76
$GPGGA,200523.000,4910.32276,N,12304.21309,W,1,15,0.6,020.45,M,-16.8,M,,*58
$GPRMC,200523.000,A,4910.32276,N,12304.21309,W,0.0,0.0,250119,,,A*77
$GPGGA,200524.000,4910.32263,N,12304.21349,W,1,15,0.6,020.70,M,-16.8,M,,*59
$GPRMC,200524.000,A,4910.32263,N,12304.21349,W,0.0,0.0,250119,,,A*70
$GPGGA,200525.000,4910.32263,N,12304.21349,W,1,15,0.6,020.70,M,-16.8,M,,*58
$GPRMC,200525.000,A,4910.32263,N,12304.21349,W,0.2,0.0,250119,,,A*73
$GPGGA,200526.000,4910.32263,N,12304.21349,W,1,15,0.6,020.70,M,-16.8,M,,*5B
$GPRMC,200526.000,A,4910.32263,N,12304.21349,W,0.1,0.0,250119,,,A*73
$GPGGA,200527.000,4910.32263,N,12304.21349,W,1,14,0.8,020.70,M,-16.8,M,,*55
$GPRMC,200527.000,A,4910.32263,N,12304.21349,W,0.1,0.0,250119,,,A*72
$GPGGA,200528.000,4910.32263,N,12304.21349,W,1,07,1.0,020.70,M,-16.8,M,,*51
$GPRMC,200528.000,A,4910.32263,N,12304.21349,W,0.1,0.0,250119,,,A*7D
$GPGGA,200529.000,4910.32263,N,12304.21349,W,1,14,0.6,020.70,M,-16.8,M,,*55
$GPRMC,200529.000,A,4910.32263,N,12304.21349,W,0.1,0.0,250119,,,A*7C
$GPGGA,200530.000,4910.32263,N,12304.21349,W,1,14,0.6,020.70,M,-16.8,M,,*5D
$GPRMC,200530.000,A,4910.32263,N,12304.21349,W,0.1,0.0,250119,,,A*74
$GPGGA,200531.000,4910.32263,N,12304.21349,W,1,15,0.6,020.70,M,-16.8,M,,*5D
$GPRMC,200531.000,A,4910.32263,N,12304.21349,W,0.1,0.0,250119,,,A*75
$GPGGA,200532.000,4910.32263,N,12304.21349,W,1,15,0.6,020.70,M,-16.8,M,,*5E
$GPRMC,200532.000,A,4910.32263,N,12304.21349,W,0.0,0.0,250119,,,A*77
$GPGGA,200533.000,4910.32263,N,12304.21349,W,1,15,0.6,020.70,M,-16.8,M,,*5F
$GPRMC,200533.000,A,4910.32263,N,12304.21349,W,0.1,0.0,250119,,,A*77
$GPGGA,200534.000,4910.32263,N,12304.21349,W,1,15,0.6,020.70,M,-16.8,M,,*58
$GPRMC,200534.000,A,4910.32263,N,12304.21349,W,0.0,0.0,250119,,,A*71
$GPGGA,200535.000,4910.32263,N,12304.21349,W,1,15,0.6,020.70,M,-16.8,M,,*59
$GPRMC,200535.000,A,4910.32263,N,12304.21349,W,0.0,0.0,250119,,,A*70
$GPGGA,200536.000,4910.32263,N,12304.21349,W,1,15,0.6,020.70,M,-16.8,M,,*5A
$GPRMC,200536.000,A,4910.32263,N,12304.21349,W,0.0,0.0,250119,,,A*73
$GPGGA,200537.000,4910.32263,N,12304.21349,W,1,15,0.6,020.70,M,-16.8,M,,*5B
$GPRMC,200537.000,A,4910.32263,N,12304.21349,W,0.1,0.0,250119,,,A*73
$GPGGA,200538.000,4910.32263,N,12304.21349,W,1,15,0.6,020.70,M,-16.8,M,,*54
$GPRMC,200538.000,A,4910.32263,N,12304.21349,W,0.1,0.0,250119,,,A*7C
$GPGGA,200539.000,4910.32263,N,12304.21349,W,1,15,0.6,020.70,M,-16.8,M,,*55
$GPRMC,200539.000,A,4910.32263,N,12304.21349,W,0.0,0.0,250119,,,A*7C
$GPGGA,200540.000,4910.32263,N,12304.21349,W,1,15,0.6,020.70,M,-16.8,M,,*5B
$GPRMC,200540.000,A,4910.32263,N,12304.21349,W,0.0,0.0,250119,,,A*72
$GPGGA,200541.000,4910.32263,N,12304.21349,W,1,15,0.6,020.70,M,-16.8,M,,*5A
$GPRMC,200541.000,A,4910.32263,N,12304.21349,W,0.1,0.0,250119,,,A*72
$GPGGA,200542.000,4910.32263,N,12304.21349,W,1,18,0.6,020.70,M,-16.8,M,,*54
$GPRMC,200542.000,A,4910.32263,N,12304.21349,W,0.1,0.0,250119,,,A*71
$GPGGA,200543.000,4910.32263,N,12304.21349,W,1,18,0.6,020.70,M,-16.8,M,,*55
$GPRMC,200543.000,A,4910.32263,N,12304.21349,W,0.1,0.0,250119,,,A*70
$GPGGA,200544.000,4910.32263,N,12304.21349,W,1,16,0.6,020.70,M,-16.8,M,,*5C
$GPRMC,200544.000,A,4910.32263,N,12304.21349,W,0.1,0.0,250119,,,A*77
$GPGGA,200545.000,4910.32263,N,12304.21349,W,1,15,0.6,020.70,M,-16.8,M,,*5E
$GPRMC,200545.000,A,4910.32263,N,12304.21349,W,0.0,0.0,250119,,,A*77
$GPGGA,200546.000,4910.32263,N,12304.21349,W,1,16,0.6,020.70,M,-16.8,M,,*5E
$GPRMC,200546.000,A,4910.32263,N,12304.21349,W,0.1,0.0,250119,,,A*75
$GPGGA,200547.000,4910.32263,N,12304.21349,W,1,17,0.6,020.70,M,-16.8,M,,*5E
$GPRMC,200547.000,A,4910.32263,N,12304.21349,W,0.1,0.0,250119,,,A*74
$GPGGA,200548.000,4910.32263,N,12304.21349,W,1,17,0.6,020.70,M,-16.8,M,,*51
$GPRMC,200548.000,A,4910.32263,N,12304.21349,W,0.0,0.0,250119,,,A*7A
$GPGGA,200549.000,4910.32263,N,12304.21349,W,1,18,0.6,020.70,M,-16.8,M,,*5F
$GPRMC,200549.000,A,4910.32263,N,12304.21349,W,0.0,0.0,250119,,,A*7B
$GPGGA,200550.000,4910.32263,N,12304.21349,W,1,17,0.6,020.70,M,-16.8,M,,*58
$GPRMC,200550.000,A,4910.32263,N,12304.21349,W,0.0,0.0,250119,,,A*73
$GPGGA,200551.000,4910.32263,N,12304.21349,W,1,18,0.6,020.70,M,-16.8,M,,*56
$GPRMC,200551.000,A,4910.32263,N,12304.21349,W,0.1,0.0,250119,,,A*73
$GPGGA,200552.000,4910.32263,N,12304.21349,W,1,18,0.6,020.70,M,-16.8,M,,*55
$GPRMC,200552.000,A,4910.32263,N,12304.21349,W,0.0,0.0,250119,,,A*71
$GPGGA,200553.000,4910.32263,N,12304.21349,W,1,16,0.6,020.70,M,-16.8,M,,*5A
$GPRMC,200553.000,A,4910.32263,N,12304.21349,W,0.6,113.4,250119,,,A*71
$GPGGA,200554.000,4910.32263,N,12304.21349,W,1,18,0.6,020.70,M,-16.8,M,,*53
$GPRMC,200554.000,A,4910.32263,N,12304.21349,W,0.1,0.0,250119,,,A*76
$GPGGA,200555.000,4910.32263,N,12304.21349,W,1,18,0.6,020.70,M,-16.8,M,,*52
$GPRMC,200555.000,A,4910.32263,N,12304.21349,W,0.2,0.0,250119,,,A*74
$GPGGA,200556.000,4910.32263,N,12304.21349,W,1,17,0.6,020.70,M,-16.8,M,,*5E
$GPRMC,200556.000,A,4910.32263,N,12304.21349,W,0.1,0.0,250119,,,A*74
$GPGGA,200557.000,4910.32263,N,12304.21349,W,1,18,0.6,020.70,M,-16.8,M,,*50
$GPRMC,200557.000,A,4910.32263,N,12304.21349,W,0.0,0.0,250119,,,A*74
$GPGGA,200558.000,4910.32263,N,12304.21349,W,1,18,0.6,020.70,M,-16.8,M,,*5F
$GPRMC,200558.000,A,4910.32263,N,12304.21349,W,0.0,0.0,250119,,,A*7B
$GPGGA,200559.000,4910.32263,N,12304.21349,W,1,18,0.6,020.70,M,-16.8,M,,*5E
$GPRMC,200559.000,A,4910.32263,N,12304.21349,W,0.0,0.0,250119,,,A*7A
$GPGGA,200600.000,4910.32263,N,12304.21349,W,1,17,0.6,020.70,M,-16.8,M,,*5E
$GPRMC,200600.000,A,4910.32263,N,12304.21349,W,0.1,0.0,250119,,,A*74
$GPGGA,200601.000,4910.32263,N,12304.21349,W,1,16,0.6,020.70,M,-16.8,M,,*5E
$GPRMC,200601.000,A,4910.32263,N,12304.21349,W,0.0,0.0,250119,,,A*74
$GPGGA,200602.000,4910.32263,N,12304.21349,W,1,16,0.6,020.70,M,-16.8,M,,*5D
$GPRMC,200602.000,A,4910.32263,N,12304.21349,W,0.2,0.0,250119,,,A*75
$GPGGA,200603.000,4910.32263,N,12304.21349,W,1,16,0.6,020.70,M,-16.8,M,,*5C
$GPRMC,200603.000,A,4910.32263,N,12304.21349,W,0.1,0.0,250119,,,A*77
$GPGGA,200604.000,4910.32273,N,12304.21365,W,1,15,0.6,020.84,M,-16.8,M,,*5C
$GPRMC,200604.000,A,4910.32273,N,12304.21365,W,0.0,0.0,250119,,,A*7E
$GPGGA,200605.000,4910.32273,N,12304.21365,W,1,15,0.6,020.84,M,-16.8,M,,*5D
$GPRMC,200605.000,A,4910.32273,N,12304.21365,W,0.1,0.0,250119,,,A*7E
$GPGGA,200606.000,4910.32273,N,12304.21365,W,1,16,0.6,020.84,M,-16.8,M,,*5D
$GPRMC,200606.000,A,4910.32273,N,12304.21365,W,0.1,0.0,250119,,,A*7D
$GPGGA,200607.000,4910.32273,N,12304.21365,W,1,17,0.6,020.84,M,-16.8,M,,*5D
$GPRMC,200607.000,A,4910.32273,N,12304.21365,W,0.0,0.0,250119,,,A*7D
$GPGGA,200608.000,4910.32273,N,12304.21365,W,1,17,0.6,020.84,M,-16.8,M,,*52
$GPRMC,200608.000,A,4910.32273,N,12304.21365,W,0.0,0.0,250119,,,A*72
$GPGGA,200609.000,4910.32273,N,12304.21365,W,1,17,0.6,020.84,M,-16.8,M,,*53
$GPRMC,200609.000,A,4910.32273,N,12304.21365,W,0.0,0.0,250119,,,A*73
$GPGGA,200610.000,4910.32273,N,12304.21365,W,1,18,0.6,020.84,M,-16.8,M,,*54
$GPRMC,200610.000,A,4910.32273,N,12304.21365,W,0.0,0.0,250119,,,A*7B
$GPGGA,200611.000,4910.32273,N,12304.21365,W,1,18,0.6,020.84,M,-16.8,M,,*55
$GPRMC,200611.000,A,4910.32273,N,12304.21365,W,0.1,0.0,250119,,,A*7B
$GPGGA,200612.000,4910.32273,N,12304.21365,W,1,18,0.6,020.84,M,-16.8,M,,*56
$GPRMC,200612.000,A,4910.32273,N,12304.21365,W,0.1,0.0,250119,,,A*78
$GPGGA,200613.000,4910.32273,N,12304.21365,W,1,18,0.6,020.84,M,-16.8,M,,*57
$GPRMC,200613.000,A,4910.32273,N,12304.21365,W,0.0,0.0,250119,,,A*78
$GPGGA,200614.000,4910.32273,N,12304.21365,W,1,18,0.6,020.84,M,-16.8,M,,*50
$GPRMC,200614.000,A,4910.32273,N,12304.21365,W,0.1,0.0,250119,,,A*7E
$GPGGA,200615.000,4910.32273,N,12304.21365,W,1,18,0.6,020.84,M,-16.8,M,,*51
$GPRMC,200615.000,A,4910.32273,N,12304.21365,W,0.0,0.0,250119,,,A*7E
$GPGGA,200616.000,4910.32273,N,12304.21365,W,1,16,0.6,020.84,M,-16.8,M,,*5C
$GPRMC,200616.000,A,4910.32273,N,12304.21365,W,0.1,0.0,250119,,,A*7C
$GPGGA,200617.000,4910.32273,N,12304.21365,W,1,16,0.6,020.84,M,-16.8,M,,*5D
$GPRMC,200617.000,A,4910.32273,N,12304.21365,W,0.0,0.0,250119,,,A*7C
$GPGGA,200618.000,4910.32273,N,12304.21365,W,1,17,0.6,020.84,M,-16.8,M,,*53
$GPRMC,200618.000,A,4910.32273,N,12304.21365,W,0.1,0.0,250119,,,A*72
$GPGGA,200619.000,4910.32273,N,12304.21365,W,1,18,0.6,020.84,M,-16.8,M,,*5D
$GPRMC,200619.000,A,4910.32273,N,12304.21365,W,0.1,0.0,250119,,,A*73
$GPGGA,200620.000,4910.32273,N,12304.21365,W,1,18,0.6,020.84,M,-16.8,M,,*57
$GPRMC,200620.000,A,4910.32273,N,12304.21365,W,0.1,0.0,250119,,,A*79
$GPGGA,200621.000,4910.32273,N,12304.21365,W,1,18,0.6,020.84,M,-16.8,M,,*56
$GPRMC,200621.000,A,4910.32273,N,12304.21365,W,0.0,0.0,250119,,,A*79
$GPGGA,200622.000,4910.32273,N,12304.21365,W,1,18,0.6,020.84,M,-16.8,M,,*55
$GPRMC,200622.000,A,4910.32273,N,12304.21365,W,0.0,0.0,250119,,,A*7A
$GPGGA,200623.000,4910.32273,N,12304.21365,W,1,18,0.6,020.84,M,-16.8,M,,*54
$GPRMC,200623.000,A,4910.32273,N,12304.21365,W,0.1,0.0,250119,,,A*7A
$GPGGA,200624.000,4910.32273,N,12304.21365,W,1,18,0.6,020.84,M,-16.8,M,,*53
$GPRMC,200624.000,A,4910.32273,N,12304.21365,W,0.0,0.0,250119,,,A*7C
$GPGGA,200625.000,4910.32273,N,12304.21365,W,1,18,0.6,020.84,M,-16.8,M,,*52
$GPRMC,200625.000,A,4910.32273,N,12304.21365,W,0.1,0.0,250119,,,A*7C
$GPGGA,200626.000,4910.32273,N,12304.21365,W,1,17,0.6,020.84,M,-16.8,M,,*5E
$GPRMC,200626.000,A,4910.32273,N,12304.21365,W,0.0,0.0,250119,,,A*7E
$GPGGA,200627.000,4910.32273,N,12304.21365,W,1,17,0.6,020.84,M,-16.8,M,,*5F
$GPRMC,200627.000,A,4910.32273,N,12304.21365,W,0.0,0.0,250119,,,A*7F
$GPGGA,200628.000,4910.32273,N,12304.21365,W,1,17,0.6,020.84,M,-16.8,M,,*50
$GPRMC,200628.000,A,4910.32273,N,12304.21365,W,0.0,0.0,250119,,,A*70
$GPGGA,200629.000,4910.32273,N,12304.21365,W,1,17,0.6,020.84,M,-16.8,M,,*51
$GPRMC,200629.000,A,4910.32273,N,12304.21365,W,0.0,0.0,250119,,,A*71
$GPGGA,200630.000,4910.32273,N,12304.21365,W,1,18,0.6,020.84,M,-16.8,M,,*56
$GPRMC,200630.000,A,4910.32273,N,12304.21365,W,0.0,0.0,250119,,,A*79
$GPGGA,200631.000,4910.32273,N,12304.21365,W,1,17,0.6,020.84,M,-16.8,M,,*58
$GPRMC,200631.000,A,4910.32273,N,12304.21365,W,0.0,0.0,250119,,,A*78
$GPGGA,200632.000,4910.32273,N,12304.21365,W,1,18,0.6,020.84,M,-16.8,M,,*54
$GPRMC,200632.000,A,4910.32273,N,12304.21365,W,0.0,0.0,250119,,,A*7B
$GPGGA,200633.000,4910.32273,N,12304.21365,W,1,18,0.6,020.84,M,-16.8,M,,*55
$GPRMC,200633.000,A,4910.32273,N,12304.21365,W,0.2,0.0,250119,,,A*78
$GPGGA,200634.000,4910.32273,N,12304.21365,W,1,18,0.6,020.84,M,-16.8,M,,*52
$GPRMC,200634.000,A,4910.32273,N,12304.21365,W,0.0,0.0,250119,,,A*7D
$GPGGA,200635.000,4910.32273,N,12304.21365,W,1,18,0.6,020.84,M,-16.8,M,,*53
$GPRMC,200635.000,A,4910.32273,N,12304.21365,W,0.0,0.0,250119,,,A*7C
$GPGGA,200636.000,4910.32273,N,12304.21365,W,1,16,0.6,020.84,M,-16.8,M,,*5E
$GPRMC,200636.000,A,4910.32273,N,12304.21365,W,0.1,0.0,250119,,,A*7E
$GPGGA,200637.000,4910.32273,N,12304.21365,W,1,18,0.6,020.84,M,-16.8,M,,*51
$GPRMC,200637.000,A,4910.32273,N,12304.21365,W,0.0,0.0,250119,,,A*7E
$GPGGA,200638.000,4910.32273,N,12304.21365,W,1,17,0.6,020.84,M,-16.8,M,,*51
$GPRMC,200638.000,A,4910.32273,N,12304.21365,W,0.1,0.0,250119,,,A*70
$GPGGA,200639.000,4910.32273,N,12304.21365,W,1,17,0.6,020.84,M,-16.8,M,,*50
$GPRMC,200639.000,A,4910.32273,N,12304.21365,W,0.0,0.0,250119,,,A*70
$GPGGA,200640.000,4910.32273,N,12304.21365,W,1,18,0.6,020.84,M,-16.8,M,,*51
$GPRMC,200640.000,A,4910.32273,N,12304.21365,W,0.0,0.0,250119,,,A*7E
$GPGGA,200641.000,4910.32273,N,12304.21365,W,1,18,0.6,020.84,M,-16.8,M,,*50
$GPRMC,200641.000,A,4910.32273,N,12304.21365,W,0.1,0.0,250119,,,A*7E
$GPGGA,200642.000,4910.32273,N,12304.21365,W,1,18,0.6,020.84,M,-16.8,M,,*53
$GPRMC,200642.000,A,4910.32273,N,12304.21365,W,0.0,0.0,250119,,,A*7C
$GPGGA,200643.000,4910.32273,N,12304.21365,W,1,18,0.6,020.84,M,-16.8,M,,*52
$GPRMC,200643.000,A,4910.32273,N,12304.21365,W,0.0,0.0,250119,,,A*7D
$GPGGA,200644.000,4910.32290,N,12304.21305,W,1,18,0.6,020.76,M,-16.8,M,,*53
$GPRMC,200644.000,A,4910.32290,N,12304.21305,W,0.0,0.0,250119,,,A*71
$GPGGA,200645.000,4910.32290,N,12304.21305,W,1,17,0.6,020.76,M,-16.8,M,,*5D
$GPRMC,200645.000,A,4910.32290,N,12304.21305,W,0.1,0.0,250119,,,A*71
$GPGGA,200646.000,4910.32290,N,12304.21305,W,1,17,0.6,020.76,M,-16.8,M,,*5E
$GPRMC,200646.000,A,4910.32290,N,12304.21305,W,0.0,0.0,250119,,,A*73
$GPGGA,200647.000,4910.32290,N,12304.21305,W,1,16,0.6,020.76,M,-16.8,M,,*5E
$GPRMC,200647.000,A,4910.32290,N,12304.21305,W,0.1,0.0,250119,,,A*73
$GPGGA,200648.000,4910.32290,N,12304.21305,W,1,15,0.6,020.76,M,-16.8,M,,*52
$GPRMC,200648.000,A,4910.32290,N,12304.21305,W,0.0,0.0,250119,,,A*7D
$GPGGA,200649.000,4910.32290,N,12304.21305,W,1,15,0.6,020.76,M,-16.8,M,,*53
$GPRMC,200649.000,A,4910.32290,N,12304.21305,W,0.0,0.0,250119,,,A*7C
$GPGGA,200650.000,4910.32290,N,12304.21305,W,1,16,0.6,020.76,M,-16.8,M,,*58
$GPRMC,200650.000,A,4910.32290,N,12304.21305,W,0.1,0.0,250119,,,A*75
$GPGGA,200651.000,4910.32290,N,12304.21305,W,1,17,0.6,020.76,M,-16.8,M,,*58
$GPRMC,200651.000,A,4910.32290,N,12304.21305,W,0.1,0.0,250119,,,A*74
$GPGGA,200652.000,4910.32290,N,12304.21305,W,1,17,0.6,020.76,M,-16.8,M,,*5B
$GPRMC,200652.000,A,4910.32290,N,12304.21305,W,0.0,0.0,250119,,,A*76
$GPGGA,200653.000,4910.32290,N,12304.21305,W,1,17,0.6,020.76,M,-16.8,M,,*5A
$GPRMC,200653.000,A,4910.32290,N,12304.21305,W,0.0,0.0,250119,,,A*77
$GPGGA,200654.000,4910.32290,N,12304.21305,W,1,18,0.6,020.76,M,-16.8,M,,*52
$GPRMC,200654.000,A,4910.32290,N,12304.21305,W,0.1,0.0,250119,,,A*71
$GPGGA,200655.000,4910.32290,N,12304.21305,W,1,17,0.6,020.76,M,-16.8,M,,*5C
$GPRMC,200655.000,A,4910.32290,N,12304.21305,W,0.0,0.0,250119,,,A*71
$GPGGA,200656.000,4910.32290,N,12304.21305,W,1,17,0.6,020.76,M,-16.8,M,,*5F
$GPRMC,200656.000,A,4910.32290,N,12304.21305,W,0.0,0.0,250119,,,A*72
$GPGGA,200657.000,4910.32290,N,12304.21305,W,1,18,0.6,020.76,M,-16.8,M,,*51
$GPRMC,200657.000,A,4910.32290,N,12304.21305,W,0.0,0.0,250119,,,A*73
$GPGGA,200658.000,4910.32290,N,12304.21305,W,1,16,0.6,020.76,M,-16.8,M,,*50
$GPRMC,200658.000,A,4910.32290,N,12304.21305,W,0.1,0.0,250119,,,A*7D
$GPGGA,200659.000,4910.32290,N,12304.21305,W,1,17,0.6,020.76,M,-16.8,M,,*50
$GPRMC,200659.000,A,4910.32290,N,12304.21305,W,0.1,0.0,250119,,,A*7C
$GPGGA,200700.000,4910.32290,N,12304.21305,W,1,17,0.6,020.76,M,-16.8,M,,*5D
$GPRMC,200700.000,A,4910.32290,N,12304.21305,W,0.0,0.0,250119,,,A*70
$GPGGA,200701.000,4910.32290,N,12304.21305,W,1,17,0.6,020.76,M,-16.8,M,,*5C
$GPRMC,200701.000,A,4910.32290,N,12304.21305,W,0.0,0.0,250119,,,A*71
$GPGGA,200702.000,4910.32290,N,12304.21305,W,1,17,0.6,020.76,M,-16.8,M,,*5F
$GPRMC,200702.000,A,4910.32290,N,12304.21305,W,0.0,0.0,250119,,,A*72
$GPGGA,200703.000,4910.32290,N,12304.21305,W,1,17,0.6,020.76,M,-16.8,M,,*5E
$GPRMC,200703.000,A,4910.32290,N,12304.21305,W,0.0,0.0,250119,,,A*73
$GPGGA,200704.000,4910.32290,N,12304.21305,W,1,17,0.6,020.76,M,-16.8,M,,*59
$GPRMC,200704.000,A,4910.32290,N,12304.21305,W,0.0,0.0,250119,,,A*74
$GPGGA,200705.000,4910.32290,N,12304.21305,W,1,17,0.6,020.76,M,-16.8,M,,*58
$GPRMC,200705.000,A,4910.32290,N,12304.21305,W,0.0,0.0,250119,,,A*75
$GPGGA,200706.000,4910.32290,N,12304.21305,W,1,17,0.6,020.76,M,-16.8,M,,*5B
$GPRMC,200706.000,A,4910.32290,N,12304.21305,W,0.1,0.0,250119,,,A*77
$GPGGA,200707.000,4910.32290,N,12304.21305,W,1,18,0.6,020.76,M,-16.8,M,,*55
$GPRMC,200707.000,A,4910.32290,N,12304.21305,W,0.0,0.0,250119,,,A*77
$GPGGA,200708.000,4910.32290,N,12304.21305,W,1,17,0.6,020.76,M,-16.8,M,,*55
$GPRMC,200708.000,A,4910.32290,N,12304.21305,W,0.1,0.0,250119,,,A*79
$GPGGA,200709.000,4910.32290,N,12304.21305,W,1,17,0.6,020.76,M,-16.8,M,,*54
$GPRMC,200709.000,A,4910.32290,N,12304.21305,W,0.0,0.0,250119,,,A*79
$GPGGA,200710.000,4910.32290,N,12304.21305,W,1,17,0.6,020.76,M,-16.8,M,,*5C
$GPRMC,200710.000,A,4910.32290,N,12304.21305,W,0.0,0.0,250119,,,A*71
$GPGGA,200711.000,4910.32290,N,12304.21305,W,1,17,0.6,020.76,M,-16.8,M,,*5D
$GPRMC,200711.000,A,4910.32290,N,12304.21305,W,0.0,0.0,250119,,,A*70
$GPGGA,200712.000,4910.32290,N,12304.21305,W,1,17,0.6,020.76,M,-16.8,M,,*5E
$GPRMC,200712.000,A,4910.32290,N,12304.21305,W,0.0,0.0,250119,,,A*73
$GPGGA,200713.000,4910.32290,N,12304.21305,W,1,17,0.6,020.76,M,-16.8,M,,*5F
$GPRMC,200713.000,A,4910.32290,N,12304.21305,W,0.0,0.0,250119,,,A*72
$GPGGA,200714.000,4910.32290,N,12304.21305,W,1,17,0.6,020.76,M,-16.8,M,,*58
$GPRMC,200714.000,A,4910.32290,N,12304.21305,W,0.0,0.0,250119,,,A*75
$GPGGA,200715.000,4910.32290,N,12304.21305,W,1,17,0.6,020.76,M,-16.8,M,,*59
$GPRMC,200715.000,A,4910.32290,N,12304.21305,W,0.0,0.0,250119,,,A*74
$GPGGA,200716.000,4910.32290,N,12304.21305,W,1,17,0.6,020.76,M,-16.8,M,,*5A
$GPRMC,200716.000,A,4910.32290,N,12304.21305,W,0.0,0.0,250119,,,A*77
$GPGGA,200717.000,4910.32290,N,12304.21305,W,1,18,0.6,020.76,M,-16.8,M,,*54
$GPRMC,200717.000,A,4910.32290,N,12304.21305,W,0.0,0.0,250119,,,A*76
$GPGGA,200718.000,4910.32290,N,12304.21305,W,1,18,0.6,020.76,M,-16.8,M,,*5B
$GPRMC,200718.000,A,4910.32290,N,12304.21305,W,0.1,0.0,250119,,,A*78
$GPGGA,200719.000,4910.32290,N,12304.21305,W,1,18,0.6,020.76,M,-16.8,M,,*5A
$GPRMC,200719.000,A,4910.32290,N,12304.21305,W,0.0,0.0,250119,,,A*78
$GPGGA,200720.000,4910.32290,N,12304.21305,W,1,17,0.6,020.76,M,-16.8,M,,*5F
$GPRMC,200720.000,A,4910.32290,N,12304.21305,W,0.0,0.0,250119,,,A*72
$GPGGA,200721.000,4910.32290,N,12304.21305,W,1,18,0.6,020.76,M,-16.8,M,,*51
$GPRMC,200721.000,A,4910.32290,N,12304.21305,W,0.0,0.0,250119,,,A*73
$GPGGA,200722.000,4910.32290,N,12304.21305,W,1,18,0.6,020.76,M,-16.8,M,,*52
$GPRMC,200722.000,A,4910.32290,N,12304.21305,W,0.0,0.0,250119,,,A*70
$GPGGA,200723.000,4910.32290,N,12304.21305,W,1,18,0.6,020.76,M,-16.8,M,,*53
$GPRMC,200723.000,A,4910.32290,N,12304.21305,W,0.1,0.0,250119,,,A*70
$GPGGA,200724.000,4910.32300,N,12304.21282,W,1,18,0.6,021.04,M,-16.8,M,,*56
$GPRMC,200724.000,A,4910.32300,N,12304.21282,W,0.1,0.0,250119,,,A*71
$GPGGA,200725.000,4910.32300,N,12304.21282,W,1,18,0.6,021.04,M,-16.8,M,,*57
$GPRMC,200725.000,A,4910.32300,N,12304.21282,W,0.1,0.0,250119,,,A*70
$GPGGA,200726.000,4910.32300,N,12304.21282,W,1,18,0.6,021.04,M,-16.8,M,,*54
$GPRMC,200726.000,A,4910.32300,N,12304.21282,W,0.0,0.0,250119,,,A*72
$GPGGA,200727.000,4910.32300,N,12304.21282,W,1,18,0.6,021.04,M,-16.8,M,,*55
$GPRMC,200727.000,A,4910.32300,N,12304.21282,W,0.1,0.0,250119,,,A*72
$GPGGA,200728.000,4910.32300,N,12304.21282,W,1,18,0.6,021.04,M,-16.8,M,,*5A
$GPRMC,200728.000,A,4910.32300,N,12304.21282,W,0.0,0.0,250119,,,A*7C
$GPGGA,200729.000,4910.32300,N,12304.21282,W,1,18,0.6,021.04,M,-16.8,M,,*5B
$GPRMC,200729.000,A,4910.32300,N,12304.21282,W,0.0,0.0,250119,,,A*7D
$GPGGA,200730.000,4910.32300,N,12304.21282,W,1,18,0.6,021.04,M,-16.8,M,,*53
$GPRMC,200730.000,A,4910.32300,N,12304.21282,W,0.0,0.0,250119,,,A*75
$GPGGA,200731.000,4910.32300,N,12304.21282,W,1,18,0.6,021.04,M,-16.8,M,,*52
$GPRMC,200731.000,A,4910.32300,N,12304.21282,W,0.1,0.0,250119,,,A*75
$GPGGA,200732.000,4910.32300,N,12304.21282,W,1,18,0.6,021.04,M,-16.8,M,,*51
$GPRMC,200732.000,A,4910.32300,N,12304.21282,W,0.0,0.0,250119,,,A*77
$GPGGA,200733.000,4910.32300,N,12304.21282,W,1,18,0.6,021.04,M,-16.8,M,,*50
$GPRMC,200733.000,A,4910.32300,N,12304.21282,W,0.0,0.0,250119,,,A*76
$GPGGA,200734.000,4910.32300,N,12304.21282,W,1,18,0.6,021.04,M,-16.8,M,,*57
$GPRMC,200734.000,A,4910.32300,N,12304.21282,W,0.0,0.0,250119,,,A*71
$GPGGA,200735.000,4910.32300,N,12304.21282,W,1,18,0.6,021.04,M,-16.8,M,,*56
$GPRMC,200735.000,A,4910.32300,N,12304.21282,W,0.1,0.0,250119,,,A*71
$GPGGA,200736.000,4910.32300,N,12304.21282,W,1,18,0.6,021.04,M,-16.8,M,,*55
$GPRMC,200736.000,A,4910.32300,N,12304.21282,W,0.1,0.0,250119,,,A*72
$GPGGA,200737.000,4910.32300,N,12304.21282,W,1,18,0.6,021.04,M,-16.8,M,,*54
$GPRMC,200737.000,A,4910.32300,N,12304.21282,W,0.1,0.0,250119,,,A*73
$GPGGA,200738.000,4910.32300,N,12304.21282,W,1,17,0.6,021.04,M,-16.8,M,,*54
$GPRMC,200738.000,A,4910.32300,N,12304.21282,W,0.0,0.0,250119,,,A*7D
$GPGGA,200739.000,4910.32300,N,12304.21282,W,1,17,0.6,021.04,M,-16.8,M,,*55
$GPRMC,200739.000,A,4910.32300,N,12304.21282,W,0.0,0.0,250119,,,A*7C
$GPGGA,200740.000,4910.32300,N,12304.21282,W,1,17,0.6,021.04,M,-16.8,M,,*5B
$GPRMC,200740.000,A,4910.32300,N,12304.21282,W,0.0,0.0,250119,,,A*72
$GPGGA,200741.000,4910.32300,N,12304.21282,W,1,18,0.6,021.04,M,-16.8,M,,*55
$GPRMC,200741.000,A,4910.32300,N,12304.21282,W,0.0,0.0,250119,,,A*73
$GPGGA,200742.000,4910.32300,N,12304.21282,W,1,15,0.6,021.04,M,-16.8,M,,*5B
$GPRMC,200742.000,A,4910.32300,N,12304.21282,W,0.0,0.0,250119,,,A*70
$GPGGA,200743.000,4910.32300,N,12304.21282,W,1,18,0.6,021.04,M,-16.8,M,,*57
$GPRMC,200743.000,A,4910.32300,N,12304.21282,W,0.1,0.0,250119,,,A*70
$GPGGA,200744.000,4910.32300,N,12304.21282,W,1,18,0.6,021.04,M,-16.8,M,,*50
$GPRMC,200744.000,A,4910.32300,N,12304.21282,W,0.0,0.0,250119,,,A*76
$GPGGA,200745.000,4910.32300,N,12304.21282,W,1,18,0.6,021.04,M,-16.8,M,,*51
$GPRMC,200745.000,A,4910.32300,N,12304.21282,W,0.0,0.0,250119,,,A*77
$GPGGA,200746.000,4910.32300,N,12304.21282,W,1,18,0.6,021.04,M,-16.8,M,,*52
$GPRMC,200746.000,A,4910.32300,N,12304.21282,W,0.1,0.0,250119,,,A*75
$GPGGA,200747.000,4910.32300,N,12304.21282,W,1,18,0.6,021.04,M,-16.8,M,,*53
$GPRMC,200747.000,A,4910.32300,N,12304.21282,W,0.0,0.0,250119,,,A*75
$GPGGA,200748.000,4910.32300,N,12304.21282,W,1,18,0.6,021.04,M,-16.8,M,,*5C
$GPRMC,200748.000,A,4910.32300,N,12304.21282,W,0.0,0.0,250119,,,A*7A
$GPGGA,200749.000,4910.32300,N,12304.21282,W,1,18,0.6,021.04,M,-16.8,M,,*5D
$GPRMC,200749.000,A,4910.32300,N,12304.21282,W,0.0,0.0,250119,,,A*7B
$GPGGA,200750.000,4910.32300,N,12304.21282,W,1,18,0.6,021.04,M,-16.8,M,,*55
$GPRMC,200750.000,A,4910.32300,N,12304.21282,W,0.0,0.0,250119,,,A*73
$GPGGA,200751.000,4910.32300,N,12304.21282,W,1,18,0.6,021.04,M,-16.8,M,,*54
$GPRMC,200751.000,A,4910.32300,N,12304.21282,W,0.0,0.0,250119,,,A*72
$GPGGA,200752.000,4910.32300,N,12304.21282,W,1,18,0.6,021.04,M,-16.8,M,,*57
$GPRMC,200752.000,A,4910.32300,N,12304.21282,W,0.0,0.0,250119,,,A*71
$GPGGA,200753.000,4910.32300,N,12304.21282,W,1,18,0.6,021.04,M,-16.8,M,,*56
$GPRMC,200753.000,A,4910.32300,N,12304.21282,W,0.0,0.0,250119,,,A*70
$GPGGA,200754.000,4910.32300,N,12304.21282,W,1,18,0.6,021.04,M,-16.8,M,,*51
$GPRMC,200754.000,A,4910.32300,N,12304.21282,W,0.0,0.0,250119,,,A*77
$GPGGA,200755.000,4910.32300,N,12304.21282,W,1,18,0.6,021.04,M,-16.8,M,,*50
$GPRMC,200755.000,A,4910.32300,N,12304.21282,W,0.0,0.0,250119,,,A*76
$GPGGA,200756.000,4910.32300,N,12304.21282,W,1,18,0.6,021.04,M,-16.8,M,,*53
$GPRMC,200756.000,A,4910.32300,N,12304.21282,W,0.0,0.0,250119,,,A*75
$GPGGA,200757.000,4910.32300,N,12304.21282,W,1,18,0.6,021.04,M,-16.8,M,,*52
$GPRMC,200757.000,A,4910.32300,N,12304.21282,W,0.0,0.0,250119,,,A*74
$GPGGA,200758.000,4910.32300,N,12304.21282,W,1,18,0.6,021.04,M,-16.8,M,,*5D
$GPRMC,200758.000,A,4910.32300,N,12304.21282,W,0.1,0.0,250119,,,A*7A
$GPGGA,200759.000,4910.32300,N,12304.21282,W,1,18,0.6,021.04,M,-16.8,M,,*5C
$GPRMC,200759.000,A,4910.32300,N,12304.21282,W,0.0,0.0,250119,,,A*7A
$GPGGA,200800.000,4910.32300,N,12304.21282,W,1,18,0.6,021.04,M,-16.8,M,,*5F
$GPRMC,200800.000,A,4910.32300,N,12304.21282,W,0.0,0.0,250119,,,A*79
$GPGGA,200801.000,4910.32300,N,12304.21282,W,1,18,0.6,021.04,M,-16.8,M,,*5E
$GPRMC,200801.000,A,4910.32300,N,12304.21282,W,0.0,0.0,250119,,,A*78
$GPGGA,200802.000,4910.32300,N,12304.21282,W,1,18,0.6,021.04,M,-16.8,M,,*5D
$GPRMC,200802.000,A,4910.32300,N,12304.21282,W,0.0,0.0,250119,,,A*7B
$GPGGA,200803.000,4910.32300,N,12304.21282,W,1,18,0.6,021.04,M,-16.8,M,,*5C
$GPRMC,200803.000,A,4910.32300,N,12304.21282,W,0.0,0.0,250119,,,A*7A
$GPGGA,200804.000,4910.32301,N,12304.21236,W,1,18,0.6,020.16,M,-16.8,M,,*57
$GPRMC,200804.000,A,4910.32301,N,12304.21236,W,0.0,0.0,250119,,,A*73
$GPGGA,200805.000,4910.32301,N,12304.21236,W,1,18,0.6,020.16,M,-16.8,M,,*56
$GPRMC,200805.000,A,4910.32301,N,12304.21236,W,0.0,0.0,250119,,,A*72
$GPGGA,200806.000,4910.32301,N,12304.21236,W,1,18,0.6,020.16,M,-16.8,M,,*55
$GPRMC,200806.000,A,4910.32301,N,12304.21236,W,0.0,0.0,250119,,,A*71
$GPGGA,200807.000,4910.32301,N,12304.21236,W,1,17,0.6,020.16,M,-16.8,M,,*5B
$GPRMC,200807.000,A,4910.32301,N,12304.21236,W,0.0,0.0,250119,,,A*70
$GPGGA,200808.000,4910.32301,N,12304.21236,W,1,16,0.6,020.16,M,-16.8,M,,*55
$GPRMC,200808.000,A,4910.32301,N,12304.21236,W,0.0,0.0,250119,,,A*7F
$GPGGA,200809.000,4910.32301,N,12304.21236,W,1,15,0.6,020.16,M,-16.8,M,,*57
$GPRMC,200809.000,A,4910.32301,N,12304.21236,W,0.0,0.0,250119,,,A*7E
$GPGGA,200810.000,4910.32301,N,12304.21236,W,1,17,0.6,020.16,M,-16.8,M,,*5D
$GPRMC,200810.000,A,4910.32301,N,12304.21236,W,0.0,0.0,250119,,,A*76
$GPGGA,200811.000,4910.32301,N,12304.21236,W,1,17,0.6,020.16,M,-16.8,M,,*5C
$GPRMC,200811.000,A,4910.32301,N,12304.21236,W,0.0,0.0,250119,,,A*77
$GPGGA,200812.000,4910.32301,N,12304.21236,W,1,15,0.6,020.16,M,-16.8,M,,*5D
$GPRMC,200812.000,A,4910.32301,N,12304.21236,W,0.0,0.0,250119,,,A*74
$GPGGA,200813.000,4910.32301,N,12304.21236,W,1,15,0.6,020.16,M,-16.8,M,,*5C
$GPRMC,200813.000,A,4910.32301,N,12304.21236,W,0.0,0.0,250119,,,A*75
$GPGGA,200814.000,4910.32301,N,12304.21236,W,1,16,0.6,020.16,M,-16.8,M,,*58
$GPRMC,200814.000,A,4910.32301,N,12304.21236,W,0.0,0.0,250119,,,A*72
$GPGGA,200815.000,4910.32301,N,12304.21236,W,1,15,0.6,020.16,M,-16.8,M,,*5A
$GPRMC,200815.000,A,4910.32301,N,12304.21236,W,0.0,0.0,250119,,,A*73
$GPGGA,200816.000,4910.32301,N,12304.21236,W,1,18,0.6,020.16,M,-16.8,M,,*54
$GPRMC,200816.000,A,4910.32301,N,12304.21236,W,0.0,0.0,250119,,,A*70
$GPGGA,200817.000,4910.32301,N,12304.21236,W,1,18,0.6,020.16,M,-16.8,M,,*55
$GPRMC,200817.000,A,4910.32301,N,12304.21236,W,0.0,0.0,250119,,,A*71
$GPGGA,200818.000,4910.32301,N,12304.21236,W,1,18,0.6,020.16,M,-16.8,M,,*5A
$GPRMC,200818.000,A,4910.32301,N,12304.21236,W,0.0,0.0,250119,,,A*7E
$GPGGA,200819.000,4910.32301,N,12304.21236,W,1,17,0.6,020.16,M,-16.8,M,,*54
$GPRMC,200819.000,A,4910.32301,N,12304.21236,W,0.0,0.0,250119,,,A*7F
$GPGGA,200820.000,4910.32301,N,12304.21236,W,1,17,0.6,020.16,M,-16.8,M,,*5E
$GPRMC,200820.000,A,4910.32301,N,12304.21236,W,0.0,0.0,250119,,,A*75
$GPGGA,200821.000,4910.32301,N,12304.21236,W,1,17,0.6,020.16,M,-16.8,M,,*5F
$GPRMC,200821.000,A,4910.32301,N,12304.21236,W,0.0,0.0,250119,,,A*74
$GPGGA,200822.000,4910.32301,N,12304.21236,W,1,17,0.6,020.16,M,-16.8,M,,*5C
$GPRMC,200822.000,A,4910.32301,N,12304.21236,W,0.0,0.0,250119,,,A*77
$GPGGA,200823.000,4910.32301,N,12304.21236,W,1,18,0.6,020.16,M,-16.8,M,,*52
$GPRMC,200823.000,A,4910.32301,N,12304.21236,W,0.0,0.0,250119,,,A*76
$GPGGA,200824.000,4910.32301,N,12304.21236,W,1,18,0.6,020.16,M,-16.8,M,,*55
$GPRMC,200824.000,A,4910.32301,N,12304.21236,W,0.0,0.0,250119,,,A*71
$GPGGA,200825.000,4910.32301,N,12304.21236,W,1,18,0.6,020.16,M,-16.8,M,,*54
$GPRMC,200825.000,A,4910.32301,N,12304.21236,W,0.1,0.0,250119,,,A*71
$GPGGA,200826.000,4910.32301,N,12304.21236,W,1,17,0.6,020.16,M,-16.8,M,,*58
$GPRMC,200826.000,A,4910.32301,N,12304.21236,W,0.0,0.0,250119,,,A*73
$GPGGA,200827.000,4910.32301,N,12304.21236,W,1,16,0.6,020.16,M,-16.8,M,,*58
$GPRMC,200827.000,A,4910.32301,N,12304.21236,W,0.0,0.0,250119,,,A*72
$GPGGA,200828.000,4910.32301,N,12304.21236,W,1,16,0.6,020.16,M,-16.8,M,,*57
$GPRMC,200828.000,A,4910.32301,N,12304.21236,W,0.0,0.0,250119,,,A*7D
$GPGGA,200829.000,4910.32301,N,12304.21236,W,1,15,0.6,020.16,M,-16.8,M,,*55
$GPRMC,200829.000,A,4910.32301,N,12304.21236,W,0.0,0.0,250119,,,A*7C
$GPGGA,200830.000,4910.32301,N,12304.21236,W,1,15,0.6,020.16,M,-16.8,M,,*5D
$GPRMC,200830.000,A,4910.32301,N,12304.21236,W,0.0,0.0,250119,,,A*74
$GPGGA,200831.000,4910.32301,N,12304.21236,W,1,15,0.6,020.16,M,-16.8,M,,*5C
$GPRMC,200831.000,A,4910.32301,N,12304.21236,W,0.0,0.0,250119,,,A*75
$GPGGA,200832.000,4910.32301,N,12304.21236,W,1,16,0.6,020.16,M,-16.8,M,,*5C
$GPRMC,200832.000,A,4910.32301,N,12304.21236,W,0.0,0.0,250119,,,A*76
$GPGGA,200833.000,4910.32301,N,12304.21236,W,1,18,0.6,020.16,M,-16.8,M,,*53
$GPRMC,200833.000,A,4910.32301,N,12304.21236,W,0.0,0.0,250119,,,A*77
$GPGGA,200834.000,4910.32301,N,12304.21236,W,1,18,0.6,020.16,M,-16.8,M,,*54
$GPRMC,200834.000,A,4910.32301,N,12304.21236,W,0.1,0.0,250119,,,A*71
$GPGGA,200835.000,4910.32301,N,12304.21236,W,1,18,0.6,020.16,M,-16.8,M,,*55
$GPRMC,200835.000,A,4910.32301,N,12304.21236,W,0.0,0.0,250119,,,A*71
$GPGGA,200836.000,4910.32301,N,12304.21236,W,1,17,0.6,020.16,M,-16.8,M,,*59
$GPRMC,200836.000,A,4910.32301,N,12304.21236,W,0.0,0.0,250119,,,A*72
$GPGGA,200837.000,4910.32301,N,12304.21236,W,1,17,0.6,020.16,M,-16.8,M,,*58
$GPRMC,200837.000,A,4910.32301,N,12304.21236,W,0.0,0.0,250119,,,A*73
$GPGGA,200838.000,4910.32301,N,12304.21236,W,1,17,0.6,020.16,M,-16.8,M,,*57
$GPRMC,200838.000,A,4910.32301,N,12304.21236,W,0.0,0.0,250119,,,A*7C
$GPGGA,200839.000,4910.32301,N,12304.21236,W,1,17,0.6,020.16,M,-16.8,M,,*56
$GPRMC,200839.000,A,4910.32301,N,12304.21236,W,0.0,0.0,250119,,,A*7D
$GPGGA,200840.000,4910.32301,N,12304.21236,W,1,17,0.6,020.16,M,-16.8,M,,*58
$GPRMC,200840.000,A,4910.32301,N,12304.21236,W,0.0,0.0,250119,,,A*73
$GPGGA,200841.000,4910.32301,N,12304.21236,W,1,18,0.6,020.16,M,-16.8,M,,*56
$GPRMC,200841.000,A,4910.32301,N,12304.21236,W,0.1,0.0,250119,,,A*73
$GPGGA,200842.000,4910.32301,N,12304.21236,W,1,17,0.6,020.16,M,-16.8,M,,*5A
$GPRMC,200842.000,A,4910.32301,N,12304.21236,W,0.0,0.0,250119,,,A*71
$GPGGA,200843.000,4910.32301,N,12304.21236,W,1,18,0.6,020.16,M,-16.8,M,,*54
$GPRMC,200843.000,A,4910.32301,N,12304.21236,W,0.0,0.0,250119,,,A*70
$GPGGA,200844.000,4910.32323,N,12304.21223,W,1,17,0.6,019.60,M,-16.8,M,,*53
$GPRMC,200844.000,A,4910.32323,N,12304.21223,W,0.0,0.0,250119,,,A*73
$GPGGA,200845.000,4910.32323,N,12304.21223,W,1,17,0.6,019.60,M,-16.8,M,,*52
$GPRMC,200845.000,A,4910.32323,N,12304.21223,W,0.0,0.0,250119,,,A*72
$GPGGA,200846.000,4910.32323,N,12304.21223,W,1,15,0.6,019.60,M,-16.8,M,,*53
$GPRMC,200846.000,A,4910.32323,N,12304.21223,W,0.0,0.0,250119,,,A*71
$GPGGA,200847.000,4910.32323,N,12304.21223,W,1,16,0.6,019.60,M,-16.8,M,,*51
$GPRMC,200847.000,A,4910.32323,N,12304.21223,W,0.0,0.0,250119,,,A*70
$GPGGA,200848.000,4910.32323,N,12304.21223,W,1,18,0.6,019.60,M,-16.8,M,,*50
$GPRMC,200848.000,A,4910.32323,N,12304.21223,W,0.0,0.0,250119,,,A*7F
$GPGGA,200849.000,4910.32323,N,12304.21223,W,1,16,0.6,019.60,M,-16.8,M,,*5F
$GPRMC,200849.000,A,4910.32323,N,12304.21223,W,0.0,0.0,250119,,,A*7E
$GPGGA,200850.000,4910.32323,N,12304.21223,W,1,15,0.6,019.60,M,-16.8,M,,*54
$GPRMC,200850.000,A,4910.32323,N,12304.21223,W,0.0,0.0,250119,,,A*76
$GPGGA,200851.000,4910.32323,N,12304.21223,W,1,15,0.6,019.60,M,-16.8,M,,*55
$GPRMC,200851.000,A,4910.32323,N,12304.21223,W,0.0,0.0,250119,,,A*77
$GPGGA,200852.000,4910.32323,N,12304.21223,W,1,15,0.6,019.60,M,-16.8,M,,*56
$GPRMC,200852.000,A,4910.32323,N,12304.21223,W,0.0,0.0,250119,,,A*74
$GPGGA,200853.000,4910.32323,N,12304.21223,W,1,18,0.6,019.60,M,-16.8,M,,*5A
$GPRMC,200853.000,A,4910.32323,N,12304.21223,W,0.0,0.0,250119,,,A*75
$GPGGA,200854.000,4910.32323,N,12304.21223,W,1,18,0.6,019.60,M,-16.8,M,,*5D
$GPRMC,200854.000,A,4910.32323,N,12304.21223,W,0.0,0.0,250119,,,A*72
$GPGGA,200855.000,4910.32323,N,12304.21223,W,1,18,0.6,019.60,M,-16.8,M,,*5C
$GPRMC,200855.000,A,4910.32323,N,12304.21223,W,0.0,0.0,250119,,,A*73
$GPGGA,200856.000,4910.32323,N,12304.21223,W,1,18,0.6,019.60,M,-16.8,M,,*5F
