$PSIWMMPU,1804.650,-0.53977,0.13398,-9.90384,-0.73547,0.10376,-0.69275,*06
$GPGGA,233658.000,4910.35756,N,12304.22076,W,1,13,0.8,-02.85,M,-16.8,M,,*46
$GPRMC,233658.000,A,4910.35756,N,12304.22076,W,0.0,0.0,230419,,,A*73
$GNGSA,A,3,19,02,06,24,14,12,17,,,,,,1.3,0.8,1.1*2C
$GNGSA,A,3,80,82,79,83,73,65,,,,,,,1.3,0.8,1.1*26
$PSIWMPVT,1804.730,257836.000,3,49.1726268,-123.0703558,-2.850,0.004,-0.015,-0.004,6.364,4.183,27.914,0.500,0.000,0.354,38.312,0.047,13,*20
$PSIWMMPU,1804.850,-0.54072,0.14116,-9.88996,-0.68665,0.05188,-0.66833,*09
$PSIWMMPU,1805.050,-0.56513,0.13303,-9.88661,-0.81482,0.18005,-0.66528,*05
$PSIWMMPU,1805.250,-0.54742,0.14355,-9.90910,-0.79346,0.15259,-0.66833,*0E
$PSIWMPOS,003005.350,4910.35761,N,12304.22135,W,7.10,-2.85,M,5.02,0,8,0,2,0,*44
$PSIWMATT,003005.350,289.8,T,-2.6,0.1,180.0,*5D
$PSIWMVEL,003005.350,289.8,T,0.0,K,-0.00,M,*7B
$PSIWMMPU,1805.450,-0.56752,0.13638,-9.90240,-0.77209,0.16479,-0.66223,*04
$PSIWMMPU,1805.650,-0.56178,0.13590,-9.91149,-0.79041,0.11597,-0.65308,*0F
$GPGGA,233659.000,4910.35761,N,12304.22135,W,1,13,0.8,-02.85,M,-16.8,M,,*45
$GPRMC,233659.000,A,4910.35761,N,12304.22135,W,0.0,0.0,230419,,,A*70
$GNGSA,A,3,19,02,06,24,14,12,17,,,,,,1.3,0.8,1.1*2C
$GNGSA,A,3,80,82,79,83,73,65,,,,,,,1.3,0.8,1.1*26
$PSIWMPVT,1805.730,257837.000,3,49.1726268,-123.0703558,-2.850,-0.009,-0.005,-0.008,6.364,4.183,27.715,0.500,0.000,0.354,38.019,0.020,13,*0B
$PSIWMMPU,1805.850,-0.54742,0.13063,-9.89857,-0.74158,0.18311,-0.69275,*08
$PSIWMMPU,1806.050,-0.53881,0.12154,-9.90001,-0.75684,0.16785,-0.67749,*07
$PSIWMMPU,1806.250,-0.55269,0.13781,-9.88805,-0.75073,0.13428,-0.63782,*09
$PSIWMPOS,003006.350,4910.35761,N,12304.22135,W,7.10,-2.85,M,5.02,0,8,0,2,0,*47
$PSIWMATT,003006.350,289.8,T,-2.6,0.1,180.0,*5E
$PSIWMVEL,003006.350,289.8,T,0.0,K,-0.00,M,*78
$PSIWMMPU,1806.450,-0.56561,0.13733,-9.88805,-0.77515,0.10986,-0.65002,*0E
$PSIWMMPU,1806.650,-0.55029,0.14690,-9.87656,-0.74463,0.18005,-0.66223,*05
$GPGGA,233700.000,4910.35756,N,12304.22076,W,1,13,0.8,-02.85,M,-16.8,M,,*4A
$GPRMC,233700.000,A,4910.35756,N,12304.22076,W,0.0,0.0,230419,,,A*7F
$GNGSA,A,3,19,02,06,24,14,12,17,,,,,,1.3,0.8,1.1*2C
$GNGSA,A,3,80,82,79,83,73,65,,,,,,,1.3,0.8,1.1*26
$PSIWMPVT,1806.740,257838.000,3,49.1726268,-123.0703558,-2.850,-0.000,-0.008,-0.009,6.364,4.183,28.383,0.500,0.000,0.354,38.301,0.008,13,*01
$PSIWMMPU,1806.850,-0.53354,0.13542,-9.94068,-0.72937,0.08850,-0.65002,*07
$PSIWMMPU,1807.050,-0.54981,0.12729,-9.86221,-0.83923,0.16174,-0.71411,*01
$PSIWMMPU,1807.250,-0.55173,0.12537,-9.90910,-0.77209,0.14038,-0.63171,*07
$PSIWMPOS,003007.350,4910.35761,N,12304.22135,W,7.10,-2.85,M,5.02,0,8,0,2,0,*46
$PSIWMATT,003007.350,289.8,T,-2.6,0.1,180.0,*5F
$PSIWMVEL,003007.350,289.8,T,0.0,K,-0.00,M,*79
$PSIWMMPU,1807.450,-0.56178,0.14260,-9.90623,-0.78735,0.14343,-0.65002,*0C
$PSIWMMPU,1807.650,-0.54503,0.14068,-9.87943,-0.78430,0.15259,-0.64087,*00
$GPGGA,233701.000,4910.35756,N,12304.22076,W,1,13,0.8,-02.85,M,-16.8,M,,*4B
$GPRMC,233701.000,A,4910.35756,N,12304.22076,W,0.0,0.0,230419,,,A*7E
$GNGSA,A,3,19,02,06,24,14,12,17,,,,,,1.3,0.8,1.1*2C
$GNGSA,A,3,80,82,79,83,73,65,,,,,,,1.3,0.8,1.1*26
$PSIWMPVT,1807.730,257839.000,3,49.1726268,-123.0703558,-2.850,-0.001,0.002,-0.007,6.403,4.243,27.770,0.500,0.000,0.354,37.427,0.012,13,*27
$PSIWMMPU,1807.850,-0.54072,0.14834,-9.90623,-0.81177,0.09460,-0.65918,*0C
$PSIWMMPU,1808.050,-0.54838,0.17083,-9.87848,-0.71716,0.16174,-0.62561,*0A
$PSIWMMPU,1808.250,-0.54790,0.13255,-9.86221,-0.75073,0.19531,-0.67749,*0B
$PSIWMPOS,003008.350,4910.35761,N,12304.22135,W,7.20,-2.85,M,5.09,0,8,0,2,0,*41
$PSIWMATT,003008.350,289.8,T,-2.6,0.1,180.0,*50
$PSIWMVEL,003008.350,289.8,T,0.0,K,-0.00,M,*76
$PSIWMMPU,1808.450,-0.55986,0.14690,-9.87369,-0.72327,0.13428,-0.65308,*06
$PSIWMMPU,1808.650,-0.55029,0.13494,-9.87943,-0.78735,0.14343,-0.66528,*0C
$GPGGA,233702.000,4910.35756,N,12304.22076,W,1,13,0.8,-02.85,M,-16.8,M,,*48
$GPRMC,233702.000,A,4910.35756,N,12304.22076,W,0.0,0.0,230419,,,A*7D
$GNGSA,A,3,19,02,06,24,14,12,17,,,,,,1.3,0.8,1.1*2C
$GNGSA,A,3,80,82,79,83,73,65,,,,,,,1.3,0.8,1.1*26
$PSIWMPVT,1808.730,257840.000,3,49.1726268,-123.0703558,-2.850,-0.010,0.002,-0.009,6.403,4.243,27.688,0.500,0.000,0.354,37.278,0.008,13,*29
$PSIWMMPU,1808.850,-0.55508,0.13494,-9.88183,-0.78735,0.11597,-0.68665,*01
$PSIWMMPU,1809.050,-0.55125,0.13303,-9.90001,-0.74768,0.08850,-0.65002,*08
$PSIWMMPU,1809.250,-0.55316,0.14786,-9.88613,-0.69885,0.10986,-0.63171,*0A
$PSIWMPOS,003009.350,4910.35761,N,12304.22135,W,7.20,-2.85,M,5.09,0,8,0,2,0,*40
$PSIWMATT,003009.350,289.8,T,-2.6,0.1,180.0,*51
$PSIWMVEL,003009.350,289.8,T,0.0,K,-0.00,M,*77
$PSIWMMPU,1809.450,-0.57757,0.14260,-9.87848,-0.70496,0.08545,-0.64392,*09
$PSIWMMPU,1809.650,-0.54503,0.12968,-9.89905,-0.68359,0.13428,-0.67749,*04
$GPGGA,233703.000,4910.35756,N,12304.22076,W,1,13,0.8,-02.85,M,-16.8,M,,*49
$GPRMC,233703.000,A,4910.35756,N,12304.22076,W,0.0,0.0,230419,,,A*7C
$GNGSA,A,3,19,02,06,24,14,12,17,,,,,,1.3,0.8,1.1*2C
$GNGSA,A,3,80,82,79,83,73,65,,,,,,,1.3,0.8,1.1*26
$PSIWMPVT,1809.730,257841.000,3,49.1726268,-123.0703558,-2.850,-0.001,0.008,-0.003,6.403,4.243,28.594,0.500,0.000,0.354,38.345,0.012,13,*23
$PSIWMMPU,1809.850,-0.53833,0.13973,-9.89331,-0.73853,0.15564,-0.66223,*09
$PSIWMMPU,1810.050,-0.55843,0.15504,-9.88805,-0.72327,0.13428,-0.68054,*05
$PSIWMMPU,1810.250,-0.56178,0.13733,-9.89570,-0.77209,0.10071,-0.68054,*08
$PSIWMPOS,003010.350,4910.35761,N,12304.22135,W,7.20,-2.85,M,5.09,0,8,0,2,0,*48
$PSIWMATT,003010.350,289.8,T,-2.6,0.1,180.0,*59
$PSIWMVEL,003010.350,289.8,T,0.0,K,-0.00,M,*7F
$PSIWMMPU,1810.450,-0.55364,0.14403,-9.90193,-0.73853,0.10376,-0.64087,*03
$PSIWMMPU,1810.650,-0.53450,0.13111,-9.86269,-0.75989,0.17700,-0.67444,*0D
$GPGGA,233704.000,4910.35756,N,12304.22076,W,1,13,0.8,-02.85,M,-16.8,M,,*4E
$GPRMC,233704.000,A,4910.35756,N,12304.22076,W,0.0,0.0,230419,,,A*7B
$GNGSA,A,3,19,02,06,24,14,12,17,,,,,,1.3,0.8,1.1*2C
$GNGSA,A,3,80,82,79,83,73,65,,,,,,,1.3,0.8,1.1*26
$PSIWMPVT,1810.730,257842.000,3,49.1726268,-123.0703558,-2.850,-0.003,-0.006,0.002,6.403,4.243,28.660,0.500,0.000,0.354,38.429,0.105,13,*27
$PSIWMMPU,1810.850,-0.55460,0.13925,-9.89427,-0.79956,0.06714,-0.68970,*04
$PSIWMMPU,1811.050,-0.54072,0.16126,-9.86412,-0.74768,0.10986,-0.64697,*0A
$PSIWMMPU,1811.250,-0.55699,0.14021,-9.85503,-0.72327,0.18005,-0.66833,*0D
$PSIWMPOS,003011.350,4910.35761,N,12304.22135,W,7.20,-2.85,M,5.09,0,8,0,2,0,*49
$PSIWMATT,003011.350,289.8,T,-2.6,0.1,180.0,*58
$PSIWMVEL,003011.350,289.8,T,0.0,K,-0.00,M,*7E
$PSIWMMPU,1811.450,-0.54886,0.14643,-9.86173,-0.75378,0.13733,-0.67749,*0F
$PSIWMMPU,1811.650,-0.54886,0.14212,-9.90049,-0.75378,0.14038,-0.69580,*00
$GPGGA,233705.000,4910.35756,N,12304.22076,W,1,13,0.8,-02.85,M,-16.8,M,,*4F
$GPRMC,233705.000,A,4910.35756,N,12304.22076,W,0.1,0.0,230419,,,A*7B
$GNGSA,A,3,19,02,06,24,14,12,17,,,,,,1.3,0.8,1.1*2C
$GNGSA,A,3,80,82,79,83,73,65,,,,,,,1.3,0.8,1.1*26
$PSIWMPVT,1811.730,257843.000,3,49.1726268,-123.0703558,-2.850,0.028,0.001,0.015,6.403,4.243,27.102,0.500,0.000,0.354,36.335,0.082,13,*29
$PSIWMMPU,1811.850,-0.54886,0.15025,-9.92202,-0.74158,0.15564,-0.68054,*07
$PSIWMMPU,1812.050,-0.55843,0.13590,-9.88948,-0.74463,0.07935,-0.60425,*0B
$PSIWMMPU,1812.250,-0.54024,0.14164,-9.88374,-0.75378,0.09766,-0.63782,*0B
$PSIWMPOS,003012.350,4910.35761,N,12304.22135,W,7.20,-2.85,M,5.09,0,8,0,2,0,*4A
$PSIWMATT,003012.350,289.8,T,-2.6,0.1,180.0,*5B
$PSIWMVEL,003012.350,289.8,T,0.0,K,-0.00,M,*7D
$PSIWMMPU,1812.450,-0.54838,0.14068,-9.89714,-0.72021,0.13123,-0.65918,*09
$PSIWMMPU,1812.650,-0.54742,0.13829,-9.89427,-0.77515,0.08240,-0.65002,*09
$GPGGA,233706.000,4910.35756,N,12304.22076,W,1,13,0.8,-02.85,M,-16.8,M,,*4C
$GPRMC,233706.000,A,4910.35756,N,12304.22076,W,0.0,0.0,230419,,,A*79
$GNGSA,A,3,19,02,06,24,14,12,17,,,,,,1.3,0.8,1.1*2C
$GNGSA,A,3,80,82,79,83,73,65,,,,,,,1.3,0.8,1.1*26
$PSIWMPVT,1812.740,257844.000,3,49.1726268,-123.0703558,-2.850,0.007,0.003,0.026,6.442,4.301,26.426,0.500,0.000,0.354,35.426,0.098,13,*28
$PSIWMMPU,1812.850,-0.55125,0.12298,-9.89331,-0.73547,0.05188,-0.68970,*08
$PSIWMMPU,1813.050,-0.56034,0.13733,-9.87991,-0.69885,0.13123,-0.65918,*05
$PSIWMMPU,1813.250,-0.55173,0.13542,-9.89522,-0.75684,0.12817,-0.63171,*04
$PSIWMPOS,003013.350,4910.35761,N,12304.22135,W,7.30,-2.85,M,5.16,0,8,0,2,0,*44
$PSIWMATT,003013.350,289.8,T,-2.6,0.1,180.0,*5A
$PSIWMVEL,003013.350,289.8,T,0.0,K,-0.00,M,*7C
$PSIWMMPU,1813.450,-0.54168,0.15887,-9.91484,-0.73242,0.18311,-0.62561,*04
$PSIWMMPU,1813.650,-0.54216,0.13925,-9.91867,-0.74158,0.09766,-0.64392,*05
$GPGGA,233707.000,4910.35756,N,12304.22076,W,1,13,0.8,-02.85,M,-16.8,M,,*4D
$GPRMC,233707.000,A,4910.35756,N,12304.22076,W,0.0,0.0,230419,,,A*78
$GNGSA,A,3,19,02,06,24,25,12,17,,,,,,1.3,0.8,1.1*2E
$GNGSA,A,3,80,82,79,83,73,65,,,,,,,1.3,0.8,1.1*26
$PSIWMPVT,1813.740,257844.999,3,49.1726268,-123.0703558,-2.850,0.004,0.015,0.029,6.442,4.301,25.398,0.500,0.000,0.354,33.741,0.164,13,*2C
$PSIWMMPU,1813.850,-0.53785,0.14499,-9.88470,-0.77515,0.04883,-0.66223,*02
$PSIWMMPU,1814.050,-0.57039,0.12585,-9.88470,-0.73547,0.14954,-0.65918,*0A
$PSIWMMPU,1814.250,-0.54168,0.13016,-9.88661,-0.76294,0.11902,-0.65613,*0C
$PSIWMPOS,003014.350,4910.35761,N,12304.22135,W,7.30,-2.85,M,5.16,0,8,0,2,0,*43
$PSIWMATT,003014.350,289.8,T,-2.6,0.1,180.0,*5D
$PSIWMVEL,003014.350,289.8,T,0.0,K,-0.00,M,*7B
$PSIWMMPU,1814.450,-0.54934,0.13303,-9.89475,-0.73242,0.10376,-0.65613,*0C
$PSIWMMPU,1814.650,-0.55604,0.12729,-9.88565,-0.77515,0.12512,-0.68359,*0E
$GPGGA,233708.000,4910.35756,N,12304.22076,W,1,13,0.8,-02.85,M,-16.8,M,,*42
$GPRMC,233708.000,A,4910.35756,N,12304.22076,W,0.0,0.0,230419,,,A*77
$GNGSA,A,3,19,02,06,24,14,12,17,,,,,,1.3,0.8,1.1*2C
$GNGSA,A,3,80,82,79,83,73,65,,,,,,,1.3,0.8,1.1*26
$PSIWMPVT,1814.740,257845.999,3,49.1726268,-123.0703558,-2.850,0.011,-0.014,0.016,6.442,4.301,23.430,0.500,0.000,0.354,31.133,0.094,13,*02
$PSIWMMPU,1814.850,-0.56130,0.14786,-9.88278,-0.68054,0.13428,-0.64697,*07
$PSIWMMPU,1815.050,-0.56178,0.14116,-9.89331,-0.77515,0.14648,-0.64087,*0A
$PSIWMMPU,1815.250,-0.53881,0.14116,-9.87034,-0.73242,0.13123,-0.65002,*0A
$PSIWMPOS,003015.350,4910.35761,N,12304.22135,W,7.30,-2.85,M,5.16,0,8,0,2,0,*42
$PSIWMATT,003015.350,289.8,T,-2.6,0.1,180.0,*5C
$PSIWMVEL,003015.350,289.8,T,0.0,K,-0.00,M,*7A
$PSIWMMPU,1815.450,-0.54024,0.12537,-9.89666,-0.72937,0.15869,-0.68054,*05
$PSIWMMPU,1815.650,-0.55651,0.13446,-9.86364,-0.79041,0.11902,-0.62256,*0D
$GPGGA,233709.000,4910.35756,N,12304.22076,W,1,13,0.8,-02.85,M,-16.8,M,,*43
$GPRMC,233709.000,A,4910.35756,N,12304.22076,W,0.0,0.0,230419,,,A*76
$GNGSA,A,3,19,02,06,24,14,12,17,,,,,,1.3,0.8,1.1*2C
$GNGSA,A,3,80,82,79,83,73,65,,,,,,,1.3,0.8,1.1*26
$PSIWMPVT,1815.740,257846.999,3,49.1726268,-123.0703558,-2.850,0.009,-0.003,0.016,6.442,4.301,22.398,0.500,0.000,0.354,29.728,0.027,13,*06
$PSIWMMPU,1815.850,-0.54407,0.15552,-9.89475,-0.71716,0.03357,-0.66833,*00
$PSIWMMPU,1816.050,-0.55986,0.13925,-9.86699,-0.71411,0.16479,-0.60730,*0A
$PSIWMMPU,1816.250,-0.54886,0.12489,-9.89427,-0.73853,0.07629,-0.69275,*08
$PSIWMPOS,003016.350,4910.35761,N,12304.22135,W,7.30,-2.85,M,5.16,0,8,0,2,0,*41
$PSIWMATT,003016.350,289.8,T,-2.6,0.1,180.0,*5F
$PSIWMVEL,003016.350,289.8,T,0.0,K,-0.00,M,*79
$PSIWMMPU,1816.450,-0.55077,0.13733,-9.88135,-0.75684,0.06409,-0.64392,*0B
$PSIWMMPU,1816.650,-0.56273,0.14834,-9.89283,-0.78735,0.14038,-0.67749,*0E
$GPGGA,233710.000,4910.35756,N,12304.22076,W,1,13,0.8,-02.85,M,-16.8,M,,*4B
$GPRMC,233710.000,A,4910.35756,N,12304.22076,W,0.0,0.0,230419,,,A*7E
$GNGSA,A,3,19,02,06,24,14,12,17,,,,,,1.3,0.8,1.1*2C
$GNGSA,A,3,80,82,79,83,73,65,,,,,,,1.3,0.8,1.1*26
$PSIWMPVT,1816.740,257847.999,3,49.1726268,-123.0703558,-2.850,0.002,-0.011,0.013,6.442,4.301,22.066,0.500,0.000,0.354,29.284,0.016,13,*0A
$PSIWMMPU,1816.850,-0.54359,0.13877,-9.87178,-0.76904,0.16174,-0.65918,*03
$PSIWMMPU,1817.050,-0.58522,0.13829,-9.86221,-0.74158,0.03662,-0.67444,*08
$PSIWMMPU,1817.250,-0.57183,0.14212,-9.91389,-0.74768,0.13123,-0.65002,*08
$PSIWMPOS,003017.350,4910.35761,N,12304.22135,W,7.30,-2.85,M,5.16,0,8,0,2,0,*40
$PSIWMATT,003017.350,289.8,T,-2.6,0.1,180.0,*5E
$PSIWMVEL,003017.350,289.8,T,0.0,K,-0.00,M,*78
$PSIWMMPU,1817.450,-0.55891,0.15552,-9.90958,-0.73853,0.09766,-0.64087,*03
$PSIWMMPU,1817.650,-0.55269,0.13829,-9.88374,-0.73547,0.09155,-0.64697,*0F
$GPGGA,233711.000,4910.35756,N,12304.22076,W,1,13,0.8,-02.85,M,-16.8,M,,*4A
$GPRMC,233711.000,A,4910.35756,N,12304.22076,W,0.0,0.0,230419,,,A*7F
$GNGSA,A,3,19,02,06,24,14,12,17,,,,,,1.3,0.8,1.1*2C
$GNGSA,A,3,80,82,79,83,73,65,,,,,,,1.3,0.8,1.1*26
$PSIWMPVT,1817.740,257848.999,3,49.1726268,-123.0703558,-2.850,0.005,-0.021,0.005,6.481,4.359,22.141,0.500,0.000,0.000,29.380,0.023,13,*00
$PSIWMMPU,1817.850,-0.56513,0.15695,-9.89618,-0.79956,0.18921,-0.64697,*04
$PSIWMMPU,1818.050,-0.53163,0.12920,-9.89475,-0.75684,0.15564,-0.67139,*06
$PSIWMMPU,1818.250,-0.53833,0.13686,-9.84785,-0.74463,0.13428,-0.69275,*0B
$PSIWMPOS,003018.350,4910.35761,N,12304.22135,W,7.40,-2.85,M,5.23,0,8,0,2,0,*4E
$PSIWMATT,003018.350,289.8,T,-2.6,0.1,180.0,*51
$PSIWMVEL,003018.350,289.8,T,0.0,K,-0.00,M,*77
$PSIWMMPU,1818.450,-0.55221,0.15695,-9.88613,-0.75378,0.10071,-0.64087,*01
$PSIWMMPU,1818.650,-0.54216,0.12346,-9.92585,-0.73242,0.04272,-0.65002,*0B
$GPGGA,233712.000,4910.35756,N,12304.22076,W,1,13,0.8,-02.85,M,-16.8,M,,*49
$GPRMC,233712.000,A,4910.35756,N,12304.22076,W,0.0,0.0,230419,,,A*7C
$GNGSA,A,3,19,02,06,24,14,12,17,,,,,,1.3,0.8,1.1*2C
$GNGSA,A,3,80,82,79,83,73,65,,,,,,,1.3,0.8,1.1*26
$PSIWMPVT,1818.740,257849.999,3,49.1726268,-123.0703558,-2.850,0.005,-0.009,0.004,6.481,4.359,23.082,0.500,0.000,0.000,30.627,0.012,13,*08
$PSIWMMPU,1818.850,-0.57278,0.13398,-9.87991,-0.77515,0.12512,-0.60730,*05
$PSIWMMPU,1819.050,-0.53833,0.14164,-9.89953,-0.72021,0.14038,-0.65308,*0D
$PSIWMMPU,1819.250,-0.55316,0.12824,-9.90049,-0.76904,0.10071,-0.67749,*04
$PSIWMPOS,003019.350,4910.35761,N,12304.22135,W,7.40,-2.85,M,5.23,0,8,0,2,0,*4F
$PSIWMATT,003019.350,289.8,T,-2.6,0.1,180.0,*50
$PSIWMVEL,003019.350,289.8,T,0.0,K,-0.00,M,*76
$PSIWMMPU,1819.450,-0.53067,0.13494,-9.87273,-0.68359,0.09766,-0.66833,*0D
$PSIWMMPU,1819.650,-0.55986,0.15025,-9.88278,-0.77820,0.16479,-0.71106,*02
$GPGGA,233713.000,4910.35756,N,12304.22076,W,1,13,0.8,-02.85,M,-16.8,M,,*48
$GPRMC,233713.000,A,4910.35756,N,12304.22076,W,0.0,0.0,230419,,,A*7D
$GNGSA,A,3,19,02,06,24,14,12,17,,,,,,1.3,0.8,1.1*2C
$GNGSA,A,3,80,82,79,83,73,65,,,,,,,1.3,0.8,1.1*26
$PSIWMPVT,1819.740,257850.999,3,49.1726268,-123.0703558,-2.850,-0.003,-0.005,-0.001,6.481,4.359,22.859,0.500,0.000,0.354,30.324,0.016,13,*01
$PSIWMMPU,1819.850,-0.54646,0.15360,-9.88661,-0.81177,0.12512,-0.66223,*08
$PSIWMMPU,1820.050,-0.56608,0.13303,-9.89475,-0.71106,0.13123,-0.68359,*0B
$PSIWMMPU,1820.250,-0.55699,0.14308,-9.90049,-0.73547,0.07935,-0.64392,*0F
$PSIWMPOS,003020.350,4910.35761,N,12304.22135,W,7.40,-2.85,M,5.23,0,8,0,2,0,*45
$PSIWMATT,003020.350,289.8,T,-2.6,0.1,180.0,*5A
$PSIWMVEL,003020.350,289.8,T,0.0,K,-0.00,M,*7C
$PSIWMMPU,1820.450,-0.54024,0.14260,-9.90814,-0.75684,0.14954,-0.66833,*0A
$PSIWMMPU,1820.650,-0.54503,0.14355,-9.89666,-0.83008,0.13123,-0.63782,*08
$GPGGA,233714.000,4910.35756,N,12304.22076,W,1,13,0.8,-02.85,M,-16.8,M,,*4F
$GPRMC,233714.000,A,4910.35756,N,12304.22076,W,0.0,0.0,230419,,,A*7A
$GNGSA,A,3,19,02,06,24,14,12,17,,,,,,1.3,0.8,1.0*2D
$GNGSA,A,3,80,82,79,83,73,65,,,,,,,1.3,0.8,1.0*27
$PSIWMPVT,1820.740,257851.999,3,49.1726268,-123.0703558,-2.850,0.004,-0.007,-0.004,6.481,4.359,22.602,0.612,0.000,0.354,30.111,0.016,13,*23
$PSIWMMPU,1820.850,-0.54646,0.13733,-9.86843,-0.68970,0.02441,-0.64392,*01
$PSIWMMPU,1821.050,-0.53833,0.14978,-9.87752,-0.72327,0.08545,-0.65002,*0C
$PSIWMMPU,1821.250,-0.50675,0.15121,-9.86364,-0.75378,0.09460,-0.61340,*0F
$PSIWMPOS,003021.350,4910.35761,N,12304.22135,W,7.40,-2.85,M,5.23,0,8,0,2,0,*44
$PSIWMATT,003021.350,289.8,T,-2.6,0.1,180.0,*5B
$PSIWMVEL,003021.350,289.8,T,0.0,K,-0.00,M,*7D
$PSIWMMPU,1821.450,-0.56130,0.14930,-9.87034,-0.74463,0.12512,-0.66528,*0A
$PSIWMMPU,1821.650,-0.55795,0.13733,-9.89140,-0.74768,0.09460,-0.67444,*08
$GPGGA,233715.000,4910.35756,N,12304.22076,W,1,13,0.8,-02.99,M,-16.8,M,,*43
$GPRMC,233715.000,A,4910.35756,N,12304.22076,W,0.0,0.0,230419,,,A*7B
$GNGSA,A,3,19,02,06,24,14,12,17,,,,,,1.3,0.8,1.0*2D
$GNGSA,A,3,80,82,79,83,73,65,,,,,,,1.3,0.8,1.0*27
$PSIWMPVT,1821.740,257853.000,3,49.1726269,-123.0703494,-2.987,0.004,-0.015,-0.002,6.164,3.937,22.680,0.612,0.000,0.354,30.219,0.012,13,*29
$PSIWMMPU,1821.850,-0.55269,0.14595,-9.91054,-0.72632,0.07019,-0.68970,*0D
$PSIWMMPU,1822.050,-0.55173,0.11771,-9.90862,-0.68665,0.10986,-0.64392,*05
$PSIWMMPU,1822.250,-0.55173,0.12106,-9.86652,-0.73547,0.10071,-0.61951,*00
$PSIWMPOS,003022.350,4910.35761,N,12304.22096,W,6.68,-2.99,M,4.72,0,8,0,2,0,*4C
$PSIWMATT,003022.350,289.8,T,-2.6,0.1,180.0,*58
$PSIWMVEL,003022.350,289.8,T,0.0,K,-0.00,M,*7E
$PSIWMMPU,1822.450,-0.54455,0.13686,-9.90145,-0.73853,0.14954,-0.63782,*0E
$PSIWMMPU,1822.650,-0.55651,0.14068,-9.86891,-0.78125,0.09766,-0.65308,*0D
$GPGGA,233716.000,4910.35756,N,12304.22076,W,1,13,0.8,-02.99,M,-16.8,M,,*40
$GPRMC,233716.000,A,4910.35756,N,12304.22076,W,0.0,0.0,230419,,,A*78
$GNGSA,A,3,19,02,06,24,14,12,17,,,,,,1.3,0.8,1.0*2D
$GNGSA,A,3,80,82,79,83,73,65,,,,,,,1.3,0.8,1.0*27
$PSIWMPVT,1822.740,257854.000,3,49.1726269,-123.0703494,-2.987,-0.002,-0.012,-0.008,6.164,3.937,23.031,0.612,0.000,0.354,30.687,0.020,13,*04
$PSIWMMPU,1822.850,-0.55604,0.13781,-9.90097,-0.75684,0.12512,-0.63171,*0D
$PSIWMMPU,1823.050,-0.54694,0.14068,-9.91389,-0.74463,0.16479,-0.65308,*0E
$PSIWMMPU,1823.250,-0.54455,0.13111,-9.90719,-0.75989,0.12207,-0.67139,*06
$PSIWMPOS,003023.350,4910.35761,N,12304.22096,W,6.68,-2.99,M,4.72,0,8,0,2,0,*4D
$PSIWMATT,003023.350,289.8,T,-2.6,0.1,180.0,*59
$PSIWMVEL,003023.350,289.8,T,0.0,K,-0.00,M,*7F
$PSIWMMPU,1823.450,-0.53689,0.13877,-9.90910,-0.75989,0.12207,-0.64392,*0A
$PSIWMMPU,1823.650,-0.54312,0.14164,-9.87943,-0.74768,0.12817,-0.64087,*08
$GPGGA,233717.000,4910.35756,N,12304.22076,W,1,13,0.8,-02.99,M,-16.8,M,,*41
$GPRMC,233717.000,A,4910.35756,N,12304.22076,W,0.0,0.0,230419,,,A*79
$GNGSA,A,3,19,02,06,24,14,12,17,,,,,,1.3,0.8,1.0*2D
$GNGSA,A,3,80,82,79,83,73,65,,,,,,,1.3,0.8,1.0*27
$PSIWMPVT,1823.740,257854.999,3,49.1726269,-123.0703494,-2.987,-0.001,-0.006,-0.015,6.164,3.937,22.734,0.612,0.000,0.354,30.292,0.012,13,*04
$PSIWMMPU,1823.850,-0.55412,0.13781,-9.91054,-0.74768,0.11902,-0.63782,*01
$PSIWMMPU,1824.050,-0.56465,0.13686,-9.87369,-0.75378,0.13428,-0.62866,*06
$PSIWMMPU,1824.250,-0.54312,0.14116,-9.88853,-0.75989,0.11292,-0.66528,*07
$PSIWMPOS,003024.350,4910.35761,N,12304.22096,W,6.68,-2.99,M,4.72,0,8,0,2,0,*4A
$PSIWMATT,003024.350,289.8,T,-2.6,0.1,180.0,*5E
$PSIWMVEL,003024.350,289.8,T,0.0,K,-0.00,M,*78
$PSIWMMPU,1824.450,-0.55029,0.14068,-9.87034,-0.79041,0.13428,-0.62866,*02
$PSIWMMPU,1824.650,-0.55604,0.14403,-9.89570,-0.71106,0.08240,-0.64697,*05
$GPGGA,233718.000,4910.35756,N,12304.22076,W,1,13,0.8,-02.99,M,-16.8,M,,*4E
$GPRMC,233718.000,A,4910.35756,N,12304.22076,W,0.0,0.0,230419,,,A*76
$GNGSA,A,3,19,02,06,24,14,12,17,,,,,,1.3,0.8,1.0*2D
$GNGSA,A,3,80,82,79,83,73,65,,,,,,,1.3,0.8,1.0*27
$PSIWMPVT,1824.740,257855.999,3,49.1726269,-123.0703494,-2.987,0.012,0.001,-0.009,6.164,3.937,22.281,0.500,0.000,0.000,29.683,0.016,13,*0B
$PSIWMMPU,1824.850,-0.54599,0.14308,-9.89714,-0.73853,0.10071,-0.61340,*09
$PSIWMMPU,1825.050,-0.54359,0.12250,-9.88709,-0.74463,0.10071,-0.70190,*0A
$PSIWMMPU,1825.250,-0.56704,0.13973,-9.90719,-0.75684,0.14038,-0.65308,*01
$PSIWMPOS,003025.350,4910.35761,N,12304.22096,W,6.68,-2.99,M,4.72,0,8,0,2,0,*4B
$PSIWMATT,003025.350,289.8,T,-2.6,0.1,180.0,*5F
$PSIWMVEL,003025.350,289.8,T,0.0,K,-0.00,M,*79
$PSIWMMPU,1825.450,-0.55269,0.14260,-9.89427,-0.77820,0.10681,-0.68359,*09
$PSIWMMPU,1825.650,-0.53354,0.15265,-9.86795,-0.72937,0.05493,-0.63171,*07
$GPGGA,233719.000,4910.35756,N,12304.22076,W,1,13,0.8,-02.99,M,-16.8,M,,*4F
$GPRMC,233719.000,A,4910.35756,N,12304.22076,W,0.0,0.0,230419,,,A*77
$GNGSA,A,3,19,02,06,24,14,12,17,,,,,,1.3,0.8,1.0*2D
$GNGSA,A,3,80,82,79,83,73,65,,,,,,,1.3,0.8,1.0*27
$PSIWMPVT,1825.740,257857.000,3,49.1726269,-123.0703494,-2.987,0.010,0.020,-0.003,6.164,3.937,22.176,0.500,0.000,0.000,29.699,0.016,13,*0A
$PSIWMMPU,1825.850,-0.54886,0.13638,-9.89666,-0.78735,0.13123,-0.66223,*0C
$PSIWMMPU,1826.050,-0.55125,0.14021,-9.88470,-0.74463,0.11292,-0.69275,*00
$PSIWMMPU,1826.250,-0.57230,0.14116,-9.88374,-0.75684,0.12207,-0.66528,*04
$PSIWMPOS,003026.350,4910.35761,N,12304.22096,W,6.68,-2.99,M,4.72,0,8,0,2,0,*48
$PSIWMATT,003026.350,289.8,T,-2.6,0.1,180.0,*5C
$PSIWMVEL,003026.350,289.8,T,0.0,K,-0.00,M,*7A
$PSIWMMPU,1826.450,-0.55460,0.13255,-9.88039,-0.74463,0.08850,-0.64087,*01
$PSIWMMPU,1826.650,-0.53977,0.14786,-9.89475,-0.78125,0.09155,-0.66528,*0B
$GPGGA,233720.000,4910.35756,N,12304.22076,W,1,13,0.8,-02.99,M,-16.8,M,,*45
$GPRMC,233720.000,A,4910.35756,N,12304.22076,W,0.0,0.0,230419,,,A*7D
$GNGSA,A,3,19,02,06,24,14,12,17,,,,,,1.3,0.8,1.0*2D
$GNGSA,A,3,80,82,79,83,73,65,,,,,,,1.3,0.8,1.0*27
$PSIWMPVT,1826.740,257858.000,3,49.1726269,-123.0703494,-2.987,-0.002,-0.009,-0.006,6.205,4.000,22.828,0.500,0.000,0.000,30.892,0.043,13,*0A
$PSIWMMPU,1826.850,-0.54407,0.14930,-9.91484,-0.70801,0.12817,-0.68054,*0E
$PSIWMMPU,1827.050,-0.55460,0.11771,-9.89379,-0.76294,0.13123,-0.66833,*0D
$PSIWMMPU,1827.250,-0.55412,0.12872,-9.91245,-0.77515,0.16174,-0.66223,*01
$PSIWMPOS,003027.350,4910.35761,N,12304.22096,W,6.79,-2.99,M,4.80,0,8,0,2,0,*44
$PSIWMATT,003027.350,289.8,T,-2.6,0.1,180.0,*5D
$PSIWMVEL,003027.350,289.8,T,0.0,K,-0.00,M,*7B
$PSIWMMPU,1827.450,-0.56561,0.16413,-9.89857,-0.70801,0.04883,-0.64392,*0A
$PSIWMMPU,1827.650,-0.55891,0.14355,-9.87226,-0.71716,0.10071,-0.65918,*0D
$GPGGA,233721.000,4910.35756,N,12304.22076,W,1,13,0.8,-02.99,M,-16.8,M,,*44
$GPRMC,233721.000,A,4910.35756,N,12304.22076,W,0.0,0.0,230419,,,A*7C
$GNGSA,A,3,19,02,06,24,14,12,17,,,,,,1.3,0.8,1.0*2D
$GNGSA,A,3,80,82,79,83,73,65,,,,,,,1.3,0.8,1.0*27
$PSIWMPVT,1827.740,257858.999,3,49.1726269,-123.0703494,-2.987,0.006,0.005,-0.008,6.205,4.000,21.801,0.500,0.000,0.000,31.426,0.020,13,*0B
$PSIWMMPU,1827.850,-0.55077,0.12394,-9.89666,-0.77820,0.15259,-0.67139,*0E
$PSIWMMPU,1828.050,-0.54359,0.11484,-9.89475,-0.75989,0.12207,-0.67444,*01
$PSIWMMPU,1828.250,-0.54359,0.11963,-9.89523,-0.70190,0.18616,-0.69275,*04
$PSIWMPOS,003028.350,4910.35761,N,12304.22096,W,6.79,-2.99,M,4.80,0,8,0,2,0,*4B
$PSIWMATT,003028.350,289.8,T,-2.6,0.1,180.0,*52
$PSIWMVEL,003028.350,289.8,T,0.0,K,-0.00,M,*74
$PSIWMMPU,1828.450,-0.57135,0.12872,-9.88087,-0.79041,0.06714,-0.67749,*0D
$PSIWMMPU,1828.650,-0.54790,0.15025,-9.85359,-0.77209,0.05188,-0.66223,*0D
$GPGGA,233722.000,4910.35756,N,12304.22076,W,1,13,0.8,-02.99,M,-16.8,M,,*47
$GPRMC,233722.000,A,4910.35756,N,12304.22076,W,0.0,0.0,230419,,,A*7F
$GNGSA,A,3,19,02,06,24,25,12,17,,,,,,1.3,0.8,1.0*2F
$GNGSA,A,3,80,82,79,83,73,65,,,,,,,1.3,0.8,1.0*27
$PSIWMPVT,1828.740,257859.999,3,49.1726269,-123.0703494,-2.987,0.001,-0.005,-0.007,6.205,4.000,20.742,0.500,0.000,0.354,29.854,0.008,13,*21
$PSIWMMPU,1828.850,-0.55604,0.13159,-9.88613,-0.75378,0.06104,-0.68665,*0E
$PSIWMMPU,1829.050,-0.55604,0.13063,-9.90097,-0.76599,0.12817,-0.66528,*0C
$PSIWMMPU,1829.250,-0.54120,0.14786,-9.86221,-0.75684,0.08240,-0.67444,*08
$PSIWMPOS,003029.350,4910.35761,N,12304.22096,W,6.79,-2.99,M,4.80,0,8,0,2,0,*4A
$PSIWMATT,003029.350,289.8,T,-2.6,0.1,180.0,*53
$PSIWMVEL,003029.350,289.8,T,0.0,K,-0.00,M,*75
$PSIWMMPU,1829.450,-0.56178,0.15217,-9.90671,-0.73853,0.12817,-0.65308,*07
$PSIWMMPU,1829.650,-0.53785,0.12776,-9.86747,-0.75989,0.08240,-0.64087,*04
$GPGGA,233723.000,4910.35756,N,12304.22076,W,1,13,0.8,-02.99,M,-16.8,M,,*46
$GPRMC,233723.000,A,4910.35756,N,12304.22076,W,0.0,0.0,230419,,,A*7E
$GNGSA,A,3,19,02,06,24,25,12,17,,,,,,1.3,0.8,1.0*2F
$GNGSA,A,3,80,82,79,83,73,65,,,,,,,1.3,0.8,1.0*27
$PSIWMPVT,1829.740,257861.000,3,49.1726269,-123.0703494,-2.987,0.006,-0.011,-0.004,6.205,4.000,20.770,0.500,0.000,0.354,29.960,0.012,13,*2F
$PSIWMMPU,1829.850,-0.55986,0.14930,-9.86125,-0.75073,0.11292,-0.68359,*0E
$PSIWMMPU,1830.050,-0.55699,0.15695,-9.90097,-0.70190,0.11597,-0.67749,*00
$PSIWMMPU,1830.250,-0.55843,0.15360,-9.88566,-0.77209,0.12512,-0.68359,*06
$PSIWMPOS,003030.350,4910.35761,N,12304.22096,W,6.79,-2.99,M,4.80,0,8,0,2,0,*42
$PSIWMATT,003030.350,289.8,T,-2.6,0.1,180.0,*5B
$PSIWMVEL,003030.350,289.8,T,0.0,K,-0.00,M,*7D
$PSIWMMPU,1830.450,-0.55747,0.13877,-9.88566,-0.74463,0.09766,-0.64392,*09
$PSIWMMPU,1830.650,-0.54981,0.13111,-9.89188,-0.76599,0.10376,-0.68359,*02
$GPGGA,233724.000,4910.35756,N,12304.22076,W,1,13,0.8,-02.99,M,-16.8,M,,*41
$GPRMC,233724.000,A,4910.35756,N,12304.22076,W,0.1,0.0,230419,,,A*78
$GNGSA,A,3,19,02,06,24,25,12,17,,,,,,1.3,0.8,1.0*2F
$GNGSA,A,3,80,82,79,83,73,65,,,,,,,1.3,0.8,1.0*27
$PSIWMPVT,1830.740,257862.000,3,49.1726269,-123.0703494,-2.987,0.016,-0.021,0.003,6.205,4.000,20.977,0.612,0.000,0.354,30.176,0.016,13,*06
$PSIWMMPU,1830.850,-0.54981,0.12202,-9.90767,-0.75378,0.10376,-0.67749,*03
$PSIWMMPU,1831.050,-0.55508,0.13590,-9.90814,-0.75989,0.08850,-0.66528,*06
$PSIWMMPU,1831.250,-0.54216,0.14930,-9.88422,-0.73547,0.12817,-0.68970,*03
$PSIWMPOS,003031.350,4910.35761,N,12304.22096,W,6.79,-2.99,M,4.80,0,8,0,2,0,*43
$PSIWMATT,003031.350,289.8,T,-2.6,0.1,180.0,*5A
$PSIWMVEL,003031.350,289.8,T,0.0,K,-0.00,M,*7C
$PSIWMMPU,1831.450,-0.54551,0.14068,-9.89905,-0.75378,0.13428,-0.63477,*00
$PSIWMMPU,1831.650,-0.54838,0.14308,-9.87034,-0.76294,0.15564,-0.65613,*09
$GPGGA,233725.000,4910.35756,N,12304.22076,W,1,13,0.8,-02.99,M,-16.8,M,,*40
$GPRMC,233725.000,A,4910.35756,N,12304.22076,W,0.0,0.0,230419,,,A*78
$GNGSA,A,3,19,02,06,24,25,12,17,,,,,,1.3,0.8,1.0*2F
$GNGSA,A,3,80,82,79,83,73,65,,,,,,,1.3,0.8,1.0*27
$PSIWMPVT,1831.740,257863.000,3,49.1726269,-123.0703494,-2.987,-0.000,-0.012,-0.000,6.245,4.062,21.746,0.612,0.000,0.354,31.291,0.023,13,*02
$PSIWMMPU,1831.850,-0.54742,0.12537,-9.88039,-0.74768,0.14954,-0.68665,*0D
$PSIWMMPU,1832.050,-0.55604,0.11149,-9.87082,-0.75378,0.10681,-0.65308,*01
$PSIWMMPU,1832.250,-0.54934,0.14068,-9.89475,-0.81177,0.09155,-0.67444,*06
$PSIWMPOS,003032.350,4910.35761,N,12304.22096,W,6.89,-2.99,M,4.87,0,8,0,2,0,*48
$PSIWMATT,003032.350,289.8,T,-2.6,0.1,180.0,*59
$PSIWMVEL,003032.350,289.8,T,0.0,K,-0.00,M,*7F
$PSIWMMPU,1832.450,-0.53785,0.15169,-9.87704,-0.72937,0.09460,-0.64087,*02
$PSIWMMPU,1832.650,-0.56130,0.13016,-9.86604,-0.80261,0.12817,-0.67444,*09
$GPGGA,233726.000,4910.35756,N,12304.22076,W,1,13,0.8,-02.99,M,-16.8,M,,*43
$GPRMC,233726.000,A,4910.35756,N,12304.22076,W,0.0,0.0,230419,,,A*7B
$GNGSA,A,3,19,02,06,24,25,12,17,,,,,,1.3,0.8,1.0*2F
$GNGSA,A,3,80,82,79,83,73,65,,,,,,,1.3,0.8,1.0*27
$PSIWMPVT,1832.760,257863.999,3,49.1726269,-123.0703494,-2.987,-0.001,-0.017,-0.000,6.245,4.062,21.816,0.612,0.000,0.354,31.447,0.043,13,*0F
$PSIWMMPU,1832.850,-0.54216,0.13159,-9.90097,-0.78125,0.11597,-0.64697,*0E
$PSIWMMPU,1833.050,-0.53594,0.13111,-9.91532,-0.78430,0.13428,-0.69275,*09
$PSIWMMPU,1833.250,-0.55029,0.15695,-9.85790,-0.73547,0.11292,-0.68054,*03
$PSIWMPOS,003033.350,4910.35761,N,12304.22096,W,6.89,-2.99,M,4.87,0,8,0,2,0,*49
$PSIWMATT,003033.350,289.8,T,-2.6,0.1,180.0,*58
$PSIWMVEL,003033.350,289.8,T,0.0,K,-0.00,M,*7E
$PSIWMMPU,1833.450,-0.54455,0.12968,-9.89905,-0.75073,0.15259,-0.65002,*06
$PSIWMMPU,1833.650,-0.53594,0.11771,-9.87896,-0.79346,0.09460,-0.67139,*0C
$GPGGA,233727.000,4910.35756,N,12304.22076,W,1,13,0.8,-02.99,M,-16.8,M,,*42
$GPRMC,233727.000,A,4910.35756,N,12304.22076,W,0.0,0.0,230419,,,A*7A
$GNGSA,A,3,19,02,06,24,25,12,17,,,,,,1.3,0.8,1.0*2F
$GNGSA,A,3,80,82,79,83,73,65,,,,,,,1.3,0.8,1.0*27
$PSIWMPVT,1833.740,257865.000,3,49.1726269,-123.0703494,-2.987,0.007,-0.017,0.004,6.245,4.062,20.992,0.612,0.000,0.354,30.334,0.016,13,*0F
$PSIWMMPU,1833.850,-0.54742,0.12441,-9.87273,-0.68359,0.12817,-0.67139,*06
$PSIWMMPU,1834.050,-0.56034,0.14212,-9.88613,-0.75684,0.14954,-0.68359,*04
$PSIWMMPU,1834.250,-0.55364,0.14068,-9.89140,-0.73853,0.12207,-0.66528,*0B
$PSIWMPOS,003034.350,4910.35761,N,12304.22096,W,6.89,-2.99,M,4.87,0,8,0,2,0,*4E
$PSIWMATT,003034.350,289.8,T,-2.6,0.1,180.0,*5F
$PSIWMVEL,003034.350,289.8,T,0.0,K,-0.00,M,*79
$PSIWMMPU,1834.450,-0.54072,0.15935,-9.91006,-0.79956,0.14954,-0.68970,*08
$PSIWMMPU,1834.650,-0.53737,0.14547,-9.84546,-0.80261,0.14648,-0.67444,*08
$GPGGA,233728.000,4910.35756,N,12304.22076,W,1,13,0.8,-02.99,M,-16.8,M,,*4D
$GPRMC,233728.000,A,4910.35756,N,12304.22076,W,0.0,0.0,230419,,,A*75
$GNGSA,A,3,19,02,06,24,12,32,17,,,,,,1.3,0.8,1.0*29
$GNGSA,A,3,80,82,79,83,73,65,,,,,,,1.3,0.8,1.0*27
$PSIWMPVT,1834.740,257866.000,3,49.1726269,-123.0703494,-2.987,-0.003,-0.018,-0.001,6.245,4.062,21.316,0.612,0.000,0.354,29.557,0.133,13,*0F
$PSIWMMPU,1834.850,-0.54886,0.14260,-9.88613,-0.77515,0.17700,-0.74463,*0C
$PSIWMMPU,1835.050,-0.56178,0.14355,-9.91676,-0.73547,0.06409,-0.71106,*09
$PSIWMMPU,1835.250,-0.55747,0.13733,-9.91245,-0.77209,0.13733,-0.65918,*00
$PSIWMPOS,003035.350,4910.35761,N,12304.22096,W,6.89,-2.99,M,4.87,0,8,0,2,0,*4F
$PSIWMATT,003035.350,289.8,T,-2.6,0.1,180.0,*5E
$PSIWMVEL,003035.350,289.8,T,0.0,K,-0.00,M,*78
$PSIWMMPU,1835.450,-0.53833,0.14116,-9.90192,-0.72632,0.08545,-0.71411,*03
$PSIWMMPU,1835.650,-0.56369,0.13638,-9.90240,-0.73853,0.11597,-0.65002,*0C
$GPGGA,233729.000,4910.35756,N,12304.22076,W,1,12,0.8,-02.99,M,-16.8,M,,*4D
$GPRMC,233729.000,A,4910.35756,N,12304.22076,W,0.0,0.0,230419,,,A*74
$GNGSA,A,3,19,02,06,24,12,17,,,,,,,1.3,0.8,1.1*29
$GNGSA,A,3,80,82,79,83,73,65,,,,,,,1.3,0.8,1.1*26
$PSIWMPVT,1835.740,257867.000,3,49.1726269,-123.0703494,-2.987,0.008,-0.010,-0.002,6.245,4.062,23.066,0.612,0.000,0.354,30.168,0.012,12,*27
$PSIWMMPU,1835.850,-0.55077,0.13159,-9.89570,-0.72327,0.06409,-0.60120,*0C
$PSIWMMPU,1836.050,-0.54790,0.13781,-9.90240,-0.71411,0.09766,-0.66833,*0E
$PSIWMMPU,1836.250,-0.56082,0.13925,-9.90288,-0.74768,0.11902,-0.69885,*01
$PSIWMPOS,003036.350,4910.35761,N,12304.22096,W,6.89,-2.99,M,4.87,0,8,0,2,0,*4C
$PSIWMATT,003036.350,289.8,T,-2.6,0.1,180.0,*5D
$PSIWMVEL,003036.350,289.8,T,0.0,K,-0.00,M,*7B
$PSIWMMPU,1836.450,-0.55986,0.13207,-9.87369,-0.75378,0.10376,-0.66223,*0F
$PSIWMMPU,1836.650,-0.55508,0.14355,-9.88709,-0.74463,0.10681,-0.62256,*0C
$GPGGA,233730.000,4910.35756,N,12304.22076,W,1,12,0.8,-02.99,M,-16.8,M,,*45
$GPRMC,233730.000,A,4910.35756,N,12304.22076,W,0.0,0.0,230419,,,A*7C
$GNGSA,A,3,19,02,06,24,12,17,,,,,,,1.3,0.8,1.1*29
$GNGSA,A,3,80,82,79,83,73,65,,,,,,,1.3,0.8,1.1*26
$PSIWMPVT,1836.740,257867.999,3,49.1726269,-123.0703494,-2.987,-0.000,-0.016,0.001,6.285,4.123,22.809,0.612,0.000,0.354,29.670,0.016,12,*2A
$PSIWMMPU,1836.850,-0.53881,0.14882,-9.86604,-0.74158,0.14954,-0.65613,*07
$PSIWMMPU,1837.050,-0.55843,0.15121,-9.90623,-0.95825,0.28076,-0.71411,*0A
$PSIWMMPU,1837.250,-0.54359,0.13159,-9.89140,-0.81177,0.14954,-0.66528,*0A
$PSIWMPOS,003037.350,4910.35761,N,12304.22096,W,7.00,-2.99,M,4.95,0,8,0,2,0,*4E
$PSIWMATT,003037.350,289.8,T,-2.6,0.1,180.0,*5C
$PSIWMVEL,003037.350,289.8,T,0.0,K,-0.00,M,*7A
$PSIWMMPU,1837.450,-0.55221,0.14978,-9.86316,-0.78735,0.11292,-0.66833,*04
$PSIWMMPU,1837.650,-0.54886,0.14068,-9.90288,-0.76599,0.13733,-0.65918,*04
$GPGGA,233731.000,4910.35756,N,12304.22076,W,1,13,0.8,-02.99,M,-16.8,M,,*45
$GPRMC,233731.000,A,4910.35756,N,12304.22076,W,0.0,0.0,230419,,,A*7D
$GNGSA,A,3,19,02,06,24,25,12,17,,,,,,1.3,0.8,1.0*2F
$GNGSA,A,3,80,82,79,83,73,65,,,,,,,1.3,0.8,1.0*27
$PSIWMPVT,1837.740,257869.000,3,49.1726269,-123.0703494,-2.987,-0.001,-0.009,-0.006,6.285,4.123,21.832,0.612,0.000,0.354,29.635,0.137,13,*00
$PSIWMMPU,1837.850,-0.55269,0.14164,-9.88709,-0.74768,0.10986,-0.65002,*07
$PSIWMMPU,1838.050,-0.53307,0.13303,-9.89762,-0.74463,0.11597,-0.62256,*06
$PSIWMMPU,1838.250,-0.57087,0.13016,-9.89714,-0.76599,0.15259,-0.66833,*07
$PSIWMPOS,003038.350,4910.35761,N,12304.22096,W,7.00,-2.99,M,4.95,0,8,0,2,0,*41
$PSIWMATT,003038.350,289.8,T,-2.6,0.1,180.0,*53
$PSIWMVEL,003038.350,289.8,T,0.0,K,-0.00,M,*75
$PSIWMMPU,1838.450,-0.54981,0.14355,-9.87274,-0.71411,0.12207,-0.67139,*0B
$PSIWMMPU,1838.650,-0.54551,0.14116,-9.86460,-0.76294,0.12512,-0.66528,*05
$GPGGA,233732.000,4910.35756,N,12304.22076,W,1,13,0.8,-02.99,M,-16.8,M,,*46
$GPRMC,233732.000,A,4910.35756,N,12304.22076,W,0.0,0.0,230419,,,A*7E
$GNGSA,A,3,19,02,06,24,25,12,17,,,,,,1.3,0.8,1.0*2F
$GNGSA,A,3,80,82,79,83,73,65,,,,,,,1.3,0.8,1.0*27
$PSIWMPVT,1838.740,257870.000,3,49.1726269,-123.0703494,-2.987,-0.002,-0.016,-0.005,6.285,4.123,22.273,0.612,0.000,0.354,30.432,0.043,13,*0A
$PSIWMMPU,1838.850,-0.55316,0.13829,-9.87895,-0.75684,0.10681,-0.69885,*02
$PSIWMMPU,1839.050,-0.54790,0.14021,-9.87034,-0.76904,0.12817,-0.68665,*02
$PSIWMMPU,1839.250,-0.54168,0.13590,-9.87369,-0.74463,0.10986,-0.65918,*0F
$PSIWMPOS,003039.350,4910.35761,N,12304.22096,W,7.00,-2.99,M,4.95,0,8,0,2,0,*40
$PSIWMATT,003039.350,289.8,T,-2.6,0.1,180.0,*52
$PSIWMVEL,003039.350,289.8,T,0.0,K,-0.00,M,*74
$PSIWMMPU,1839.450,-0.55173,0.14643,-9.88135,-0.75684,0.11902,-0.65613,*0F
$PSIWMMPU,1839.650,-0.54934,0.14212,-9.92394,-0.75073,0.12207,-0.64087,*0C
$GPGGA,233733.000,4910.35756,N,12304.22076,W,1,13,0.8,-02.99,M,-16.8,M,,*47
$GPRMC,233733.000,A,4910.35756,N,12304.22076,W,0.0,0.0,230419,,,A*7F
$GNGSA,A,3,19,02,06,24,25,12,17,,,,,,1.3,0.8,1.0*2F
$GNGSA,A,3,80,82,79,83,73,65,,,,,,,1.3,0.8,1.0*27
$PSIWMPVT,1839.740,257871.000,3,49.1726269,-123.0703494,-2.987,-0.002,-0.023,-0.004,6.285,4.123,21.988,0.612,0.000,0.354,30.226,0.039,13,*0F
$PSIWMMPU,1839.850,-0.53881,0.13638,-9.88135,-0.72632,0.13123,-0.66528,*01
$PSIWMMPU,1840.050,-0.54455,0.14164,-9.89570,-0.72632,0.09155,-0.65918,*0E
$PSIWMMPU,1840.250,-0.54694,0.13159,-9.85599,-0.70190,0.10986,-0.69885,*0B
$PSIWMPOS,003040.350,4910.35761,N,12304.22096,W,7.00,-2.99,M,4.95,0,8,0,2,0,*4E
$PSIWMATT,003040.350,289.8,T,-2.6,0.1,180.0,*5C
$PSIWMVEL,003040.350,289.8,T,0.0,K,-0.00,M,*7A
$PSIWMMPU,1840.450,-0.54264,0.14595,-9.87274,-0.74768,0.17395,-0.64392,*09
$PSIWMMPU,1840.650,-0.54503,0.12585,-9.89331,-0.70801,0.10071,-0.70190,*0B
$GPGGA,233734.000,4910.35756,N,12304.22076,W,1,13,0.8,-02.99,M,-16.8,M,,*40
$GPRMC,233734.000,A,4910.35756,N,12304.22076,W,0.0,0.0,230419,,,A*78
$GNGSA,A,3,19,02,06,24,25,12,17,,,,,,1.3,0.8,1.0*2F
$GNGSA,A,3,80,82,79,83,73,65,,,,,,,1.3,0.8,1.0*27
$PSIWMPVT,1840.740,257872.000,3,49.1726269,-123.0703494,-2.987,0.003,0.003,0.005,6.285,4.123,21.062,0.612,0.000,0.000,28.883,0.039,13,*2E
$PSIWMMPU,1840.850,-0.55938,0.13686,-9.91006,-0.73242,0.15564,-0.66833,*02
$PSIWMMPU,1841.050,-0.55747,0.12824,-9.88757,-0.75073,0.14038,-0.64087,*0F
$PSIWMMPU,1841.250,-0.53546,0.15265,-9.89044,-0.71716,0.14343,-0.64087,*0B
$PSIWMPOS,003041.350,4910.35761,N,12304.22096,W,7.00,-2.99,M,4.95,0,8,0,2,0,*4F
$PSIWMATT,003041.350,289.8,T,-2.6,0.1,180.0,*5D
$PSIWMVEL,003041.350,289.8,T,0.0,K,-0.00,M,*7B
$PSIWMMPU,1841.450,-0.55460,0.13063,-9.90288,-0.74768,0.13733,-0.69885,*09
$PSIWMMPU,1841.650,-0.54551,0.13829,-9.91054,-0.77820,0.17395,-0.62561,*0D
$GPGGA,233735.000,4910.35756,N,12304.22076,W,1,13,0.8,-02.99,M,-16.8,M,,*41
$GPRMC,233735.000,A,4910.35756,N,12304.22076,W,0.0,0.0,230419,,,A*79
$GNGSA,A,3,19,02,06,24,25,12,17,,,,,,1.3,0.8,1.0*2F
$GNGSA,A,3,80,82,79,83,73,65,,,,,,,1.3,0.8,1.0*27
$PSIWMPVT,1841.740,257873.000,3,49.1726269,-123.0703494,-2.987,-0.005,-0.001,0.007,6.325,4.183,20.973,0.612,0.000,0.000,28.249,0.074,13,*24
$PSIWMMPU,1841.850,-0.54551,0.13925,-9.88231,-0.74768,0.08545,-0.62561,*02
$PSIWMMPU,1842.050,-0.55460,0.14595,-9.88613,-0.76904,0.16174,-0.65613,*01
$PSIWMMPU,1842.250,-0.55651,0.14403,-9.90862,-0.73242,0.14038,-0.67749,*07
$PSIWMPOS,003042.350,4910.35761,N,12304.22096,W,7.10,-2.99,M,5.02,0,8,0,2,0,*42
$PSIWMATT,003042.350,289.8,T,-2.6,0.1,180.0,*5E
$PSIWMVEL,003042.350,289.8,T,0.0,K,-0.00,M,*78
$PSIWMMPU,1842.450,-0.55556,0.14308,-9.90958,-0.77209,0.12207,-0.66528,*06
$PSIWMMPU,1842.650,-0.56943,0.12202,-9.88709,-0.74768,0.11597,-0.64697,*08
$GPGGA,233736.000,4910.35756,N,12304.22076,W,1,13,0.8,-02.99,M,-16.8,M,,*42
$GPRMC,233736.000,A,4910.35756,N,12304.22076,W,0.0,0.0,230419,,,A*7A
$GNGSA,A,3,19,02,06,24,14,12,17,,,,,,1.3,0.8,1.0*2D
$GNGSA,A,3,80,82,79,83,73,65,,,,,,,1.3,0.8,1.0*27
$PSIWMPVT,1842.760,257874.000,3,49.1726269,-123.0703494,-2.987,-0.007,-0.017,0.003,6.325,4.183,20.438,0.612,0.000,0.000,27.198,0.047,13,*21
$PSIWMMPU,1842.850,-0.55795,0.14930,-9.87274,-0.79041,0.17700,-0.69275,*02
$PSIWMMPU,1843.050,-0.54455,0.11628,-9.87369,-0.72937,0.15259,-0.65308,*04
$PSIWMMPU,1843.250,-0.54503,0.13590,-9.89188,-0.79041,0.12817,-0.68359,*08
$PSIWMPOS,003043.350,4910.35761,N,12304.22096,W,7.10,-2.99,M,5.02,0,8,0,2,0,*43
$PSIWMATT,003043.350,289.8,T,-2.6,0.1,180.0,*5F
$PSIWMVEL,003043.350,289.8,T,0.0,K,-0.00,M,*79
$PSIWMMPU,1843.450,-0.55556,0.14116,-9.87800,-0.75378,0.14954,-0.65918,*02
$PSIWMMPU,1843.650,-0.54120,0.13111,-9.87848,-0.78430,0.12817,-0.66528,*02
$GPGGA,233737.000,4910.35756,N,12304.22076,W,1,14,0.8,-02.99,M,-16.8,M,,*44
$GPRMC,233737.000,A,4910.35756,N,12304.22076,W,0.0,0.0,230419,,,A*7B
$GNGSA,A,3,19,02,06,24,14,12,32,17,,,,,1.3,0.8,1.0*2C
$GNGSA,A,3,80,82,79,83,73,65,,,,,,,1.3,0.8,1.0*27
$PSIWMPVT,1843.740,257875.000,3,49.1726269,-123.0703494,-2.987,0.009,0.010,0.004,6.325,4.183,20.566,0.612,0.000,0.000,27.307,0.023,14,*26
$PSIWMMPU,1843.850,-0.55316,0.14355,-9.90671,-0.72937,0.09766,-0.64697,*0B
$PSIWMMPU,1844.050,-0.54359,0.13303,-9.89379,-0.78735,0.11597,-0.61951,*0C
$PSIWMMPU,1844.250,-0.54551,0.12154,-9.90767,-0.75684,0.14648,-0.65918,*09
$PSIWMPOS,003044.350,4910.35761,N,12304.22096,W,7.10,-2.99,M,5.02,0,8,0,2,0,*44
$PSIWMATT,003044.350,289.8,T,-2.6,0.1,180.0,*58
$PSIWMVEL,003044.350,289.8,T,0.0,K,-0.00,M,*7E
$PSIWMMPU,1844.450,-0.52063,0.15695,-9.87800,-0.72021,0.11902,-0.64087,*0C
$PSIWMMPU,1844.650,-0.54646,0.13877,-9.88566,-0.74158,0.17090,-0.62561,*09
$GPGGA,233738.000,4910.35756,N,12304.22076,W,1,14,0.8,-02.99,M,-16.8,M,,*4B
$GPRMC,233738.000,A,4910.35756,N,12304.22076,W,0.0,0.0,230419,,,A*74
$GNGSA,A,3,19,02,06,24,14,12,32,17,,,,,1.3,0.8,1.0*2C
$GNGSA,A,3,80,82,79,83,73,65,,,,,,,1.3,0.8,1.0*27
$PSIWMPVT,1844.740,257876.000,3,49.1726269,-123.0703494,-2.987,-0.002,-0.009,-0.000,6.325,4.183,20.324,0.612,0.000,0.000,26.966,0.008,14,*0D
$PSIWMMPU,1844.850,-0.52445,0.12681,-9.89905,-0.74158,0.08240,-0.66223,*0A
$PSIWMMPU,1845.050,-0.54455,0.13207,-9.87465,-0.79956,0.11902,-0.73242,*07
$PSIWMMPU,1845.250,-0.55651,0.14643,-9.90432,-0.70496,0.10986,-0.68970,*00
$PSIWMPOS,003045.350,4910.35761,N,12304.22096,W,7.10,-2.99,M,5.02,0,8,0,2,0,*45
$PSIWMATT,003045.350,289.8,T,-2.6,0.1,180.0,*59
$PSIWMVEL,003045.350,289.8,T,0.0,K,-0.00,M,*7F
$PSIWMMPU,1845.450,-0.56704,0.14451,-9.89140,-0.74768,0.13428,-0.68054,*0E
$PSIWMMPU,1845.650,-0.55364,0.14786,-9.89762,-0.72632,0.07324,-0.65308,*03
$GPGGA,233739.000,4910.35756,N,12304.22076,W,1,14,0.8,-02.99,M,-16.8,M,,*4A
$GPRMC,233739.000,A,4910.35756,N,12304.22076,W,0.0,0.0,230419,,,A*75
$GNGSA,A,3,19,02,06,24,14,12,32,17,,,,,1.3,0.8,1.0*2C
$GNGSA,A,3,80,82,79,83,73,65,,,,,,,1.3,0.8,1.0*27
$PSIWMPVT,1845.740,257877.000,3,49.1726269,-123.0703494,-2.987,-0.003,-0.007,0.000,6.325,4.183,20.508,0.500,0.000,0.000,27.209,0.008,14,*24
$PSIWMMPU,1845.850,-0.55364,0.12633,-9.88518,-0.71411,0.10071,-0.65002,*06
$PSIWMMPU,1846.050,-0.55699,0.13638,-9.92394,-0.70801,0.18311,-0.65002,*08
$PSIWMMPU,1846.250,-0.56082,0.14068,-9.87704,-0.74158,0.13428,-0.65613,*09
$PSIWMPOS,003046.350,4910.35761,N,12304.22096,W,7.10,-2.99,M,5.02,0,8,0,2,0,*46
$PSIWMATT,003046.350,289.8,T,-2.6,0.1,180.0,*5A
$PSIWMVEL,003046.350,289.8,T,0.0,K,-0.00,M,*7C
$PSIWMMPU,1846.450,-0.55604,0.14116,-9.91772,-0.73242,0.07019,-0.72937,*09
$PSIWMMPU,1846.650,-0.54981,0.12920,-9.88374,-0.80261,0.12512,-0.65002,*07
$GPGGA,233740.000,4910.35756,N,12304.22076,W,1,14,0.8,-02.99,M,-16.8,M,,*44
$GPRMC,233740.000,A,4910.35756,N,12304.22076,W,0.0,0.0,230419,,,A*7B
$GNGSA,A,3,19,02,06,24,14,12,32,17,,,,,1.3,0.8,1.0*2C
$GNGSA,A,3,80,82,79,83,73,65,,,,,,,1.3,0.8,1.0*27
$PSIWMPVT,1846.740,257877.999,3,49.1726269,-123.0703494,-2.987,0.000,-0.003,-0.003,6.364,4.243,20.242,0.500,0.000,0.000,26.860,0.008,14,*2D
$PSIWMMPU,1846.850,-0.55604,0.11915,-9.88709,-0.74463,0.16174,-0.66223,*0C
$PSIWMMPU,1847.050,-0.55269,0.13063,-9.87991,-0.74768,0.12512,-0.64392,*01
$PSIWMMPU,1847.250,-0.53785,0.12872,-9.89570,-0.73547,0.09766,-0.68054,*00
$PSIWMPOS,003047.350,4910.35761,N,12304.22096,W,7.20,-2.99,M,5.09,0,8,0,2,0,*4F
$PSIWMATT,003047.350,289.8,T,-2.6,0.1,180.0,*5B
$PSIWMVEL,003047.350,289.8,T,0.0,K,-0.00,M,*7D
$PSIWMMPU,1847.450,-0.55699,0.13590,-9.90049,-0.75378,0.17090,-0.65918,*0A
$PSIWMMPU,1847.650,-0.55508,0.13542,-9.88374,-0.74463,0.14343,-0.66528,*06
$GPGGA,233741.000,4910.35756,N,12304.22076,W,1,13,0.8,-02.99,M,-16.8,M,,*42
$GPRMC,233741.000,A,4910.35756,N,12304.22076,W,0.0,0.0,230419,,,A*7A
$GNGSA,A,3,19,02,06,24,14,12,17,,,,,,1.3,0.8,1.0*2D
$GNGSA,A,3,80,82,79,83,73,65,,,,,,,1.3,0.8,1.0*27
$PSIWMPVT,1847.740,257878.999,3,49.1726269,-123.0703494,-2.987,0.004,-0.005,0.003,6.364,4.243,20.113,0.612,0.000,0.000,26.685,0.012,13,*02
$PSIWMMPU,1847.850,-0.55364,0.13973,-9.90336,-0.70496,0.08240,-0.67749,*00
$PSIWMMPU,1848.050,-0.55029,0.14978,-9.88422,-0.72632,0.08850,-0.69275,*0B
$PSIWMMPU,1848.250,-0.53881,0.12633,-9.89714,-0.76599,0.12207,-0.63782,*06
$PSIWMPOS,003048.350,4910.35761,N,12304.22096,W,7.20,-2.99,M,5.09,0,8,0,2,0,*40
$PSIWMATT,003048.350,289.8,T,-2.6,0.1,180.0,*54
$PSIWMVEL,003048.350,289.8,T,0.0,K,-0.00,M,*72
$PSIWMMPU,1848.450,-0.55412,0.13016,-9.86603,-0.76294,0.14954,-0.64697,*0B
$PSIWMMPU,1848.650,-0.54072,0.14116,-9.91628,-0.75989,0.12817,-0.68970,*0D
$GPGGA,233742.000,4910.35756,N,12304.22076,W,1,13,0.8,-02.99,M,-16.8,M,,*41
$GPRMC,233742.000,A,4910.35756,N,12304.22076,W,0.0,0.0,230419,,,A*79
$GNGSA,A,3,19,02,06,24,14,12,17,,,,,,1.3,0.8,1.0*2D
$GNGSA,A,3,80,82,79,83,73,65,,,,,,,1.3,0.8,1.0*27
$PSIWMPVT,1848.740,257880.000,3,49.1726269,-123.0703494,-2.987,0.003,-0.005,0.008,6.364,4.243,18.496,0.612,0.000,0.000,24.540,0.012,13,*04
$PSIWMMPU,1848.850,-0.55412,0.14021,-9.90288,-0.73853,0.10986,-0.67444,*04
$PSIWMMPU,1849.050,-0.54742,0.12537,-9.92633,-0.72937,0.16174,-0.65918,*0F
$PSIWMMPU,1849.250,-0.57087,0.13781,-9.86412,-0.74158,0.13123,-0.68665,*02
$PSIWMPOS,003049.350,4910.35761,N,12304.22096,W,7.20,-2.99,M,5.09,0,8,0,2,0,*41
$PSIWMATT,003049.350,289.8,T,-2.6,0.1,180.0,*55
$PSIWMVEL,003049.350,289.8,T,0.0,K,-0.00,M,*73
$PSIWMMPU,1849.450,-0.55125,0.14930,-9.86699,-0.72632,0.14038,-0.69275,*08
$PSIWMMPU,1849.650,-0.54168,0.12729,-9.87561,-0.78735,0.15259,-0.67139,*0A
$GPGGA,233743.000,4910.35756,N,12304.22076,W,1,13,0.8,-02.99,M,-16.8,M,,*40
$GPRMC,233743.000,A,4910.35756,N,12304.22076,W,0.0,0.0,230419,,,A*78
$GNGSA,A,3,19,02,06,24,14,12,17,,,,,,1.3,0.8,1.0*2D
$GNGSA,A,3,80,82,79,83,73,65,,,,,,,1.3,0.8,1.0*27
$PSIWMPVT,1849.740,257880.999,3,49.1726269,-123.0703494,-2.987,0.007,0.012,0.013,6.364,4.243,18.551,0.612,0.000,0.000,24.617,0.016,13,*26
$PSIWMMPU,1849.850,-0.55556,0.14021,-9.88135,-0.75378,0.14343,-0.63782,*06
$PSIWMMPU,1850.050,-0.55221,0.13398,-9.85981,-0.62256,0.06409,-0.60425,*01
$PSIWMMPU,1850.250,-0.55747,0.12968,-9.88565,-0.76599,0.09766,-0.63782,*00
$PSIWMPOS,003050.350,4910.35761,N,12304.22096,W,7.20,-2.99,M,5.09,0,8,0,2,0,*49
$PSIWMATT,003050.350,289.8,T,-2.6,0.1,180.0,*5D
$PSIWMVEL,003050.350,289.8,T,0.0,K,-0.00,M,*7B
$PSIWMMPU,1850.450,-0.54790,0.13303,-9.90001,-0.73853,0.10376,-0.68054,*01
$PSIWMMPU,1850.650,-0.54694,0.14738,-9.90384,-0.72632,0.10681,-0.64697,*03
$GPGGA,233744.000,4910.35756,N,12304.22076,W,1,13,0.8,-02.99,M,-16.8,M,,*47
$GPRMC,233744.000,A,4910.35756,N,12304.22076,W,0.0,0.0,230419,,,A*7F
$GNGSA,A,3,19,02,06,24,14,12,17,,,,,,1.3,0.8,1.0*2D
$GNGSA,A,3,80,82,79,83,73,65,,,,,,,1.3,0.8,1.0*27
$PSIWMPVT,1850.740,257881.999,3,49.1726269,-123.0703494,-2.987,-0.004,-0.007,0.011,6.364,4.243,17.848,0.612,0.000,0.000,23.681,0.012,13,*2C
$PSIWMMPU,1850.850,-0.53977,0.15935,-9.85120,-0.73547,0.14038,-0.68359,*09
$PSIWMMPU,1851.050,-0.54599,0.13111,-9.88039,-0.81177,0.15869,-0.63477,*00
$PSIWMMPU,1851.250,-0.55460,0.12920,-9.87561,-0.79041,0.14648,-0.66833,*0E
$PSIWMPOS,003051.350,4910.35761,N,12304.22096,W,7.20,-2.99,M,5.09,0,8,0,2,0,*48
$PSIWMATT,003051.350,289.8,T,-2.5,0.1,180.0,*5F
$PSIWMVEL,003051.350,289.8,T,0.0,K,-0.00,M,*7A
$PSIWMMPU,1851.450,-0.54551,0.14595,-9.87321,-0.73853,0.16479,-0.65918,*04
$PSIWMMPU,1851.650,-0.54838,0.14451,-9.89044,-0.78735,0.11292,-0.67444,*05
$GPGGA,233745.000,4910.35756,N,12304.22076,W,1,13,0.8,-02.99,M,-16.8,M,,*46
$GPRMC,233745.000,A,4910.35756,N,12304.22076,W,0.0,0.0,230419,,,A*7E
$GNGSA,A,3,19,02,06,24,14,12,17,,,,,,1.3,0.8,1.0*2D
$GNGSA,A,3,80,82,79,83,73,65,,,,,,,1.3,0.8,1.0*27
$PSIWMPVT,1851.740,257882.999,3,49.1726269,-123.0703494,-2.987,0.009,0.010,0.013,6.403,4.301,17.277,0.612,0.000,0.000,22.928,0.016,13,*29
$PSIWMMPU,1851.850,-0.53737,0.13590,-9.89331,-0.78430,0.17700,-0.67444,*08
$PSIWMMPU,1852.050,-0.55604,0.13255,-9.91724,-0.77209,0.13428,-0.64392,*02
$PSIWMMPU,1852.250,-0.54934,0.15217,-9.89188,-0.78125,0.18921,-0.65613,*04
$PSIWMPOS,003052.350,4910.35761,N,12304.22096,W,7.30,-2.99,M,5.16,0,8,0,2,0,*44
$PSIWMATT,003052.350,289.8,T,-2.5,0.1,180.0,*5C
$PSIWMVEL,003052.350,289.8,T,0.0,K,-0.00,M,*79
$PSIWMMPU,1852.450,-0.56034,0.14499,-9.88470,-0.75989,0.09766,-0.67444,*07
$PSIWMMPU,1852.650,-0.55029,0.13063,-9.90527,-0.74463,0.05188,-0.70801,*0F
$GPGGA,233746.000,4910.35756,N,12304.22076,W,1,14,0.8,-02.99,M,-16.8,M,,*42
$GPRMC,233746.000,A,4910.35756,N,12304.22076,W,0.0,0.0,230419,,,A*7D
$GNGSA,A,3,19,02,06,24,14,25,12,17,,,,,1.3,0.8,1.0*2A
$GNGSA,A,3,80,82,79,83,73,65,,,,,,,1.3,0.8,1.0*27
$PSIWMPVT,1852.740,257884.000,3,49.1726269,-123.0703494,-2.987,-0.003,0.004,0.006,6.403,4.301,17.457,0.612,0.000,0.000,23.176,0.012,14,*06
$PSIWMMPU,1852.850,-0.53594,0.14595,-9.88231,-0.81482,0.12512,-0.64697,*06
$PSIWMMPU,1853.050,-0.54503,0.14643,-9.86508,-0.73853,0.14343,-0.67444,*0B
$PSIWMMPU,1853.250,-0.54024,0.12872,-9.89810,-0.79041,0.12207,-0.67749,*00
$PSIWMPOS,003053.350,4910.35761,N,12304.22096,W,7.30,-2.99,M,5.16,0,8,0,2,0,*45
$PSIWMATT,003053.350,289.8,T,-2.5,0.1,180.0,*5D
$PSIWMVEL,003053.350,289.8,T,0.0,K,-0.00,M,*78
$PSIWMMPU,1853.450,-0.55125,0.13925,-9.90097,-0.75989,0.09460,-0.64087,*00
$PSIWMMPU,1853.650,-0.54790,0.13207,-9.89188,-0.76599,0.07019,-0.61035,*01
$GPGGA,233747.000,4910.35756,N,12304.22076,W,1,14,0.8,-02.99,M,-16.8,M,,*43
$GPRMC,233747.000,A,4910.35756,N,12304.22076,W,0.0,0.0,230419,,,A*7C
$GNGSA,A,3,19,02,06,24,14,25,12,17,,,,,1.3,0.8,1.0*2A
$GNGSA,A,3,80,82,79,83,73,65,,,,,,,1.3,0.8,1.0*27
$PSIWMPVT,1853.740,257884.999,3,49.1726269,-123.0703494,-2.987,0.001,0.010,0.007,6.403,4.301,16.938,0.612,0.000,0.000,22.478,0.020,14,*2B
$PSIWMMPU,1853.850,-0.55125,0.13159,-9.90145,-0.71106,0.15564,-0.67749,*04
$PSIWMMPU,1854.050,-0.54694,0.15313,-9.87704,-0.81787,0.13123,-0.69580,*00
$PSIWMMPU,1854.250,-0.53881,0.14260,-9.86556,-0.76599,0.09460,-0.64697,*0B
$PSIWMPOS,003054.350,4910.35761,N,12304.22096,W,7.30,-2.99,M,5.16,0,8,0,2,0,*42
$PSIWMATT,003054.350,289.8,T,-2.5,0.1,180.0,*5A
$PSIWMVEL,003054.350,289.8,T,0.0,K,-0.00,M,*7F
$PSIWMMPU,1854.450,-0.56417,0.14403,-9.91293,-0.71411,0.08850,-0.62866,*0E
$PSIWMMPU,1854.650,-0.54312,0.13877,-9.92250,-0.76599,0.17700,-0.69275,*09
$GPGGA,233748.000,4910.35756,N,12304.22076,W,1,14,0.8,-02.99,M,-16.8,M,,*4C
$GPRMC,233748.000,A,4910.35756,N,12304.22076,W,0.0,0.0,230419,,,A*73
$GNGSA,A,3,19,02,06,24,14,25,12,17,,,,,1.3,0.8,1.0*2A
$GNGSA,A,3,80,82,79,83,73,65,,,,,,,1.3,0.8,1.0*27
$PSIWMPVT,1854.740,257885.999,3,49.1726269,-123.0703494,-2.987,-0.001,0.011,0.009,6.403,4.301,17.660,0.612,0.000,0.000,23.440,0.012,14,*07
$PSIWMMPU,1854.850,-0.54168,0.15552,-9.91245,-0.79956,0.17395,-0.61646,*07
$PSIWMMPU,1855.050,-0.54120,0.14451,-9.89905,-0.75989,0.07935,-0.65613,*0C
$PSIWMMPU,1855.250,-0.53929,0.14643,-9.88900,-0.74463,0.15869,-0.68054,*06
$PSIWMPOS,003055.350,4910.35761,N,12304.22096,W,7.30,-2.99,M,5.16,0,8,0,2,0,*43
$PSIWMATT,003055.350,289.8,T,-2.5,0.1,180.0,*5B
$PSIWMVEL,003055.350,289.8,T,0.0,K,-0.00,M,*7E
$PSIWMMPU,1855.450,-0.54551,0.13255,-9.86843,-0.74768,0.11292,-0.65613,*02
$PSIWMMPU,1855.650,-0.53881,0.15312,-9.89188,-0.74768,0.10681,-0.66833,*0A
$GPGGA,233749.000,4910.35756,N,12304.22076,W,1,14,0.8,-02.99,M,-16.8,M,,*4D
$GPRMC,233749.000,A,4910.35756,N,12304.22076,W,0.0,0.0,230419,,,A*72
$GNGSA,A,3,19,02,06,24,14,25,12,17,,,,,1.3,0.8,1.0*2A
$GNGSA,A,3,80,82,79,83,73,65,,,,,,,1.3,0.8,1.0*27
$PSIWMPVT,1855.740,257886.999,3,49.1726269,-123.0703494,-2.987,0.003,0.004,0.011,6.403,4.301,17.828,0.612,0.000,0.000,23.666,0.016,14,*27
$PSIWMMPU,1855.850,-0.54312,0.13255,-9.92633,-0.75073,0.15564,-0.62866,*0E
$PSIWMMPU,1856.050,-0.56608,0.12633,-9.90049,-0.72021,0.11902,-0.72021,*07
$PSIWMMPU,1856.250,-0.54551,0.12824,-9.86986,-0.77820,0.15259,-0.68970,*06
$PSIWMPOS,003056.350,4910.35761,N,12304.22096,W,7.30,-2.99,M,5.16,0,8,0,2,0,*40
$PSIWMATT,003056.350,289.8,T,-2.5,0.1,180.0,*58
$PSIWMVEL,003056.350,289.8,T,0.0,K,-0.00,M,*7D
$PSIWMMPU,1856.450,-0.53450,0.14260,-9.91293,-0.72937,0.01831,-0.68054,*0E
$PSIWMMPU,1856.650,-0.54503,0.13973,-9.88948,-0.70496,0.10071,-0.65002,*01
$GPGGA,233750.000,4910.35756,N,12304.22076,W,1,14,0.8,-02.99,M,-16.8,M,,*45
$GPRMC,233750.000,A,4910.35756,N,12304.22076,W,0.0,0.0,230419,,,A*7A
$GNGSA,A,3,19,02,06,24,14,25,12,17,,,,,1.3,0.8,1.0*2A
$GNGSA,A,3,80,82,79,83,73,65,,,,,,,1.3,0.8,1.0*27
$PSIWMPVT,1856.740,257888.000,3,49.1726269,-123.0703494,-2.987,-0.002,0.002,0.011,6.442,4.359,18.270,0.612,0.000,0.000,24.255,0.012,14,*0E
$PSIWMMPU,1856.850,-0.54359,0.14212,-9.88039,-0.78125,0.08240,-0.69580,*0D
$PSIWMMPU,1857.050,-0.54646,0.14164,-9.90623,-0.72937,0.13428,-0.72632,*0A
$PSIWMMPU,1857.250,-0.54216,0.16652,-9.88087,-0.76904,0.03052,-0.64087,*0B
$PSIWMPOS,003057.350,4910.35761,N,12304.22096,W,7.40,-2.99,M,5.23,0,8,0,2,0,*40
$PSIWMATT,003057.350,289.8,T,-2.5,0.1,180.0,*59
$PSIWMVEL,003057.350,289.8,T,0.0,K,-0.00,M,*7C
$PSIWMMPU,1857.450,-0.55604,0.13159,-9.89331,-0.77515,0.08850,-0.69275,*03
$PSIWMMPU,1857.650,-0.55651,0.13159,-9.87274,-0.75378,0.10681,-0.66223,*07
$GPGGA,233751.000,4910.35756,N,12304.22076,W,1,13,0.8,-02.99,M,-16.8,M,,*43
$GPRMC,233751.000,A,4910.35756,N,12304.22076,W,0.0,0.0,230419,,,A*7B
$GNGSA,A,3,19,02,06,24,14,25,12,17,,,,,1.3,0.8,1.0*2A
$GNGSA,A,3,80,82,79,83,73,,,,,,,,1.3,0.8,1.0*24
$PSIWMPVT,1857.740,257889.000,3,49.1726269,-123.0703494,-2.987,0.002,0.002,0.004,6.442,4.359,19.355,0.612,0.000,0.000,25.700,0.016,13,*27
$PSIWMMPU,1857.850,-0.53354,0.14260,-9.91389,-0.77820,0.10376,-0.68054,*00
$PSIWMMPU,1858.050,-0.56226,0.15217,-9.91054,-0.75073,0.14954,-0.70190,*06
$PSIWMMPU,1858.250,-0.54694,0.15169,-9.89714,-0.75073,0.12207,-0.69275,*00
$PSIWMPOS,003058.350,4910.35761,N,12304.22096,W,7.40,-2.99,M,5.23,0,8,0,2,0,*4F
$PSIWMATT,003058.350,289.8,T,-2.5,0.1,180.0,*56
$PSIWMVEL,003058.350,289.8,T,0.0,K,-0.00,M,*73
$PSIWMMPU,1858.450,-0.53881,0.16413,-9.88996,-0.71106,0.09460,-0.65613,*07
$PSIWMMPU,1858.650,-0.54886,0.15121,-9.89714,-0.72937,0.14954,-0.65613,*08
$GPGGA,233752.000,4910.35756,N,12304.22076,W,1,13,0.8,-02.99,M,-16.8,M,,*40
$GPRMC,233752.000,A,4910.35756,N,12304.22076,W,0.0,0.0,230419,,,A*78
$GNGSA,A,3,19,02,06,24,14,25,12,17,,,,,1.3,0.8,1.0*2A
$GNGSA,A,3,80,82,79,83,73,,,,,,,,1.3,0.8,1.0*24
$PSIWMPVT,1858.740,257889.999,3,49.1726269,-123.0703494,-2.987,-0.001,0.012,0.009,6.442,4.359,19.621,0.612,0.000,0.000,26.055,0.012,13,*05
$PSIWMMPU,1858.850,-0.54407,0.14068,-9.89140,-0.77820,0.11292,-0.66223,*0B
$PSIWMMPU,1859.050,-0.54742,0.14499,-9.89570,-0.76904,0.14648,-0.64697,*04
$PSIWMMPU,1859.250,-0.55316,0.15743,-9.89140,-0.72937,0.16174,-0.68054,*0B
$PSIWMPOS,003059.350,4910.35761,N,12304.22096,W,7.40,-2.99,M,5.23,0,8,0,2,0,*4E
$PSIWMATT,003059.350,289.8,T,-2.6,0.1,180.0,*54
$PSIWMVEL,003059.350,289.8,T,0.0,K,-0.00,M,*72
$PSIWMMPU,1859.450,-0.55795,0.14786,-9.88661,-0.77515,0.14038,-0.64697,*08
$PSIWMMPU,1859.650,-0.54981,0.14930,-9.88470,-0.73547,0.08240,-0.68970,*08
$GPGGA,233753.000,4910.35756,N,12304.22076,W,1,13,0.8,-02.99,M,-16.8,M,,*41
$GPRMC,233753.000,A,4910.35756,N,12304.22076,W,0.0,0.0,230419,,,A*79
$GNGSA,A,3,19,02,06,24,14,25,12,17,,,,,1.3,0.8,1.0*2A
$GNGSA,A,3,80,82,79,83,73,,,,,,,,1.3,0.8,1.0*24
$PSIWMPVT,1859.740,257890.999,3,49.1726269,-123.0703494,-2.987,0.003,0.007,0.008,6.442,4.359,19.344,0.612,0.000,0.000,25.710,0.008,13,*2E
$PSIWMMPU,1859.850,-0.53211,0.13446,-9.90910,-0.77820,0.15869,-0.68970,*0F
$PSIWMMPU,1860.050,-0.54838,0.14308,-9.87895,-0.73853,0.14648,-0.68359,*06
$PSIWMMPU,1860.250,-0.53211,0.13159,-9.88566,-0.72632,0.12817,-0.69275,*09
$PSIWMPOS,003100.350,4910.35761,N,12304.22096,W,7.40,-2.99,M,5.23,0,8,0,2,0,*43
$PSIWMATT,003100.350,289.8,T,-2.6,0.1,180.0,*59
$PSIWMVEL,003100.350,289.8,T,0.0,K,-0.00,M,*7F
$PSIWMMPU,1860.450,-0.54359,0.12489,-9.86604,-0.76294,0.10986,-0.73547,*0F
$PSIWMMPU,1860.650,-0.53977,0.14260,-9.88374,-0.76904,0.09155,-0.66833,*01
$GPGGA,233754.000,4910.35756,N,12304.22076,W,1,13,0.8,-02.99,M,-16.8,M,,*46
$GPRMC,233754.000,A,4910.35756,N,12304.22076,W,0.0,0.0,230419,,,A*7E
$GNGSA,A,3,19,02,06,24,14,25,12,17,,,,,1.3,0.8,1.0*2A
$GNGSA,A,3,80,82,79,83,73,,,,,,,,1.3,0.8,1.0*24
$PSIWMPVT,1860.740,257892.000,3,49.1726269,-123.0703494,-2.987,-0.000,0.011,0.011,6.442,4.359,18.723,0.612,0.000,0.000,24.883,0.012,13,*05
$PSIWMMPU,1860.850,-0.55556,0.13638,-9.91054,-0.76904,0.11597,-0.64087,*07
$PSIWMMPU,1861.050,-0.55604,0.14930,-9.86699,-0.79041,0.13123,-0.69885,*02
$PSIWMMPU,1861.250,-0.53402,0.14643,-9.88661,-0.74158,0.15564,-0.61340,*0F
$PSIWMPOS,003101.350,4910.35761,N,12304.22096,W,7.40,-2.99,M,5.23,0,8,0,2,0,*42
$PSIWMATT,003101.350,289.8,T,-2.6,0.1,180.0,*58
$PSIWMVEL,003101.350,289.8,T,0.0,K,-0.00,M,*7E
$PSIWMMPU,1861.450,-0.55412,0.13446,-9.89666,-0.72632,0.11597,-0.67749,*06
$PSIWMMPU,1861.650,-0.54790,0.12872,-9.87800,-0.70801,0.10376,-0.69275,*06
$GPGGA,233755.000,4910.35756,N,12304.22076,W,1,13,0.8,-02.06,M,-16.8,M,,*41
$GPRMC,233755.000,A,4910.35756,N,12304.22076,W,0.0,0.0,230419,,,A*7F
$GNGSA,A,3,19,02,06,24,25,12,17,,,,,,1.3,0.8,1.0*2F
$GNGSA,A,3,80,82,79,83,73,65,,,,,,,1.3,0.8,1.0*27
$PSIWMPVT,1861.740,257893.000,3,49.1726306,-123.0703646,-2.058,-0.009,-0.012,0.010,6.124,3.937,18.488,0.612,0.000,0.000,24.574,0.008,13,*21
$PSIWMMPU,1861.850,-0.54168,0.13590,-9.89762,-0.74158,0.08850,-0.68970,*04
$PSIWMMPU,1862.050,-0.54742,0.14882,-9.86316,-0.78430,0.12512,-0.64087,*0A
$PSIWMMPU,1862.250,-0.54455,0.14834,-9.88470,-0.74463,0.09155,-0.65918,*00
$PSIWMPOS,003102.350,4910.35784,N,12304.22187,W,6.68,-2.06,M,4.72,0,8,0,2,0,*43
$PSIWMATT,003102.350,289.8,T,-2.6,0.1,180.0,*5B
$PSIWMVEL,003102.350,289.8,T,0.0,K,-0.00,M,*7D
$PSIWMMPU,1862.450,-0.54359,0.14882,-9.90384,-0.73242,0.09460,-0.62866,*0B
$PSIWMMPU,1862.650,-0.55460,0.15456,-9.88853,-0.75989,0.10681,-0.66223,*09
$GPGGA,233756.000,4910.35756,N,12304.22076,W,1,13,0.8,-02.06,M,-16.8,M,,*42
$GPRMC,233756.000,A,4910.35756,N,12304.22076,W,0.0,0.0,230419,,,A*7C
$GNGSA,A,3,19,02,06,24,14,25,12,17,,,,,1.3,0.8,1.0*2A
$GNGSA,A,3,80,82,79,83,73,,,,,,,,1.3,0.8,1.0*24
$PSIWMPVT,1862.740,257893.999,3,49.1726306,-123.0703646,-2.058,-0.007,0.006,0.011,6.124,3.937,18.559,0.612,0.000,0.000,24.658,0.020,13,*06
$PSIWMMPU,1862.850,-0.54551,0.14260,-9.90814,-0.77820,0.10681,-0.63782,*06
$PSIWMMPU,1863.050,-0.54742,0.10910,-9.88948,-0.77820,0.11292,-0.66223,*0A
$PSIWMMPU,1863.250,-0.55556,0.14786,-9.88039,-0.77820,0.14648,-0.64697,*0B
$PSIWMPOS,003103.350,4910.35784,N,12304.22187,W,6.68,-2.06,M,4.72,0,8,0,2,0,*42
$PSIWMATT,003103.350,289.8,T,-2.6,0.1,180.0,*5A
$PSIWMVEL,003103.350,289.8,T,0.0,K,-0.00,M,*7C
$PSIWMMPU,1863.450,-0.54024,0.11963,-9.88948,-0.74768,0.09766,-0.68665,*03
$PSIWMMPU,1863.650,-0.55269,0.13207,-9.89714,-0.76294,0.17700,-0.62561,*00
$GPGGA,233757.000,4910.35756,N,12304.22076,W,1,13,0.8,-02.06,M,-16.8,M,,*43
$GPRMC,233757.000,A,4910.35756,N,12304.22076,W,0.0,0.0,230419,,,A*7D
$GNGSA,A,3,19,02,06,24,25,12,17,,,,,,1.3,0.8,1.0*2F
$GNGSA,A,3,80,82,79,83,73,65,,,,,,,1.3,0.8,1.0*27
$PSIWMPVT,1863.740,257894.999,3,49.1726306,-123.0703646,-2.058,-0.007,-0.012,0.007,6.124,3.937,18.289,0.612,0.000,0.000,24.302,0.012,13,*2E
$PSIWMMPU,1863.850,-0.55747,0.14834,-9.92107,-0.75378,0.12207,-0.62561,*03
$PSIWMMPU,1864.050,-0.55891,0.14451,-9.90240,-0.76294,0.08240,-0.69275,*04
$PSIWMMPU,1864.250,-0.55077,0.14068,-9.87082,-0.77515,0.11902,-0.64697,*0D
$PSIWMPOS,003104.350,4910.35784,N,12304.22187,W,6.68,-2.06,M,4.72,0,8,0,2,0,*45
$PSIWMATT,003104.350,289.8,T,-2.6,0.1,180.0,*5D
$PSIWMVEL,003104.350,289.8,T,0.0,K,-0.00,M,*7B
$PSIWMMPU,1864.450,-0.54072,0.13925,-9.90527,-0.73853,0.14954,-0.67139,*09
$PSIWMMPU,1864.650,-0.54551,0.12633,-9.89427,-0.75989,0.11902,-0.60425,*06
$GPGGA,233758.000,4910.35756,N,12304.22076,W,1,13,0.8,-02.06,M,-16.8,M,,*4C
$GPRMC,233758.000,A,4910.35756,N,12304.22076,W,0.0,0.0,230419,,,A*72
$GNGSA,A,3,19,02,06,24,14,25,12,17,,,,,1.3,0.8,1.0*2A
$GNGSA,A,3,80,82,79,83,73,,,,,,,,1.3,0.8,1.0*24
$PSIWMPVT,1864.740,257896.000,3,49.1726306,-123.0703646,-2.058,-0.007,-0.018,-0.001,6.124,3.937,18.621,0.612,0.000,0.000,24.721,0.012,13,*00
$PSIWMMPU,1864.850,-0.56991,0.14212,-9.89331,-0.70496,0.05493,-0.63782,*00
$PSIWMMPU,1865.050,-0.55699,0.14690,-9.88948,-0.78735,0.10681,-0.63477,*08
$PSIWMMPU,1865.250,-0.55125,0.13973,-9.85312,-0.74158,0.12817,-0.64392,*0E
$PSIWMPOS,003105.350,4910.35784,N,12304.22187,W,6.68,-2.06,M,4.72,0,8,0,2,0,*44
$PSIWMATT,003105.350,289.8,T,-2.6,0.1,180.0,*5C
$PSIWMVEL,003105.350,289.8,T,0.0,K,-0.00,M,*7A
$PSIWMMPU,1865.450,-0.53833,0.13973,-9.88374,-0.76904,0.08240,-0.65002,*06
$PSIWMMPU,1865.650,-0.53594,0.14595,-9.88853,-0.75684,0.12207,-0.67444,*01
$GPGGA,233759.000,4910.35756,N,12304.22076,W,1,13,0.8,-02.06,M,-16.8,M,,*4D
$GPRMC,233759.000,A,4910.35756,N,12304.22076,W,0.1,0.0,230419,,,A*72
$GNGSA,A,3,19,02,06,24,14,25,12,17,,,,,1.3,0.8,1.0*2A
$GNGSA,A,3,80,82,79,83,73,,,,,,,,1.3,0.8,1.0*24
$PSIWMPVT,1865.740,257897.000,3,49.1726306,-123.0703646,-2.058,-0.028,-0.017,-0.006,6.124,4.000,18.406,0.612,0.000,0.000,24.433,0.016,13,*0C
$PSIWMMPU,1865.850,-0.53594,0.12681,-9.89714,-0.74463,0.09460,-0.67139,*0A
$PSIWMMPU,1866.050,-0.55986,0.15073,-9.85742,-0.74463,0.03967,-0.68054,*0E
$PSIWMMPU,1866.250,-0.55604,0.14499,-9.87513,-0.75989,0.13733,-0.63171,*07
$PSIWMPOS,003106.350,4910.35784,N,12304.22187,W,6.79,-2.06,M,4.80,0,8,0,2,0,*4A
$PSIWMATT,003106.350,289.8,T,-2.6,0.1,180.0,*5F
$PSIWMVEL,003106.350,289.8,T,0.0,K,-0.00,M,*79
$PSIWMMPU,1866.450,-0.54503,0.14164,-9.90049,-0.71411,0.11902,-0.64697,*01
$PSIWMMPU,1866.650,-0.54168,0.13829,-9.88996,-1.19629,0.29297,-0.76904,*03
$GPGGA,233800.000,4910.35756,N,12304.22076,W,1,13,0.8,-02.06,M,-16.8,M,,*4E
$GPRMC,233800.000,A,4910.35756,N,12304.22076,W,0.0,0.0,230419,,,A*70
$GNGSA,A,3,19,02,06,24,14,25,12,17,,,,,1.3,0.8,1.0*2A
$GNGSA,A,3,80,82,79,83,73,,,,,,,,1.3,0.8,1.0*24
$PSIWMPVT,1866.740,257898.000,3,49.1726306,-123.0703646,-2.058,0.005,-0.002,-0.004,6.164,4.000,18.410,0.612,0.000,0.000,24.433,0.008,13,*28
$PSIWMMPU,1866.850,-0.55125,0.13351,-9.89618,-0.63171,0.05493,-0.66528,*00
$PSIWMMPU,1867.050,-0.55364,0.13638,-9.88326,-0.69580,0.12207,-0.68970,*0F
$PSIWMMPU,1867.250,-0.53115,0.14930,-9.87895,-0.73853,0.13123,-0.68970,*0F
$PSIWMPOS,003107.350,4910.35784,N,12304.22187,W,6.79,-2.06,M,4.80,0,8,0,2,0,*4B
$PSIWMATT,003107.350,289.8,T,-2.6,0.1,180.0,*5E
$PSIWMVEL,003107.350,289.8,T,0.0,K,-0.00,M,*78
$PSIWMMPU,1867.450,-0.54981,0.14547,-9.87130,-0.80261,0.17700,-0.65613,*02
$PSIWMMPU,1867.650,-0.53402,0.15552,-9.91484,-0.72632,0.19226,-0.65613,*09
$GPGGA,233801.000,4910.35756,N,12304.22076,W,1,13,0.8,-02.06,M,-16.8,M,,*4F
$GPRMC,233801.000,A,4910.35756,N,12304.22076,W,0.0,0.0,230419,,,A*71
$GNGSA,A,3,19,02,06,24,14,25,12,17,,,,,1.3,0.8,1.0*2A
$GNGSA,A,3,80,82,79,83,73,,,,,,,,1.3,0.8,1.0*24
$PSIWMPVT,1867.740,257898.999,3,49.1726306,-123.0703646,-2.058,-0.006,-0.001,-0.012,6.164,4.000,18.227,0.612,0.000,0.000,24.184,0.016,13,*0E
$PSIWMMPU,1867.850,-0.53546,0.12729,-9.88374,-0.77209,0.14343,-0.66223,*0D
$PSIWMMPU,1868.050,-0.53211,0.13781,-9.90671,-0.75378,0.11902,-0.63171,*0B
$PSIWMMPU,1868.250,-0.56369,0.14021,-9.87943,-0.74158,0.07019,-0.65002,*06
$PSIWMPOS,003108.350,4910.35784,N,12304.22187,W,6.79,-2.06,M,4.80,0,8,0,2,0,*44
$PSIWMATT,003108.350,289.8,T,-2.6,0.1,180.0,*51
$PSIWMVEL,003108.350,289.8,T,0.0,K,-0.00,M,*77
$PSIWMMPU,1868.450,-0.54599,0.13829,-9.90384,-0.77515,0.14648,-0.61951,*0E
