$PSIWMMPU,820.650,0.03876,0.09379,-9.63013,-1.31836,0.72327,-0.64087,*12
$PSIWMMPU,820.850,0.01579,-0.06125,-9.15544,-0.08850,4.11987,-0.46387,*3A
$PSIWMMPU,821.050,-0.17370,0.04115,-9.54495,-1.02844,-2.01111,-0.51880,*1B
$PSIWMMPU,821.250,-0.17753,-0.06508,-10.30436,0.10986,2.21252,-0.59204,*0D
$GPGGA,215538.000,4910.21534,N,12306.27245,W,1,17,0.6,001.56,M,-16.8,M,,*5B
$GPRMC,215538.000,A,4910.21534,N,12306.27245,W,32.1,269.8,230419,,,A*41
$GNGSA,A,3,19,28,06,24,15,17,12,13,01,02,,,1.1,0.6,0.9*21
$GNGSA,A,3,88,79,78,80,82,81,71,,,,,,1.1,0.6,0.9*2F
$PSIWMPVT,821.410,251755.999,3,49.1702557,-123.1045408,1.563,-16.510,-0.049,0.029,4.359,3.000,1.621,0.354,0.000,0.000,2.564,0.090,17,*04
$PSIWMMPU,821.450,-0.19715,-0.01579,-9.95360,-2.06604,-4.23889,-0.35400,*35
$PSIWMMPU,821.650,-0.32730,0.03350,-10.19956,0.24109,4.34875,-0.58594,*22
$PSIWMMPU,821.850,-0.19858,0.01388,-9.38465,0.12207,-2.04468,-0.49744,*3A
$PSIWMMPU,822.050,-0.00287,-0.05599,-9.69760,-0.18005,3.25317,-0.67139,*1B
$PSIWMMPU,822.250,-0.09762,-0.09092,-10.35891,-2.32849,-5.97534,-0.45166,*09
$GPGGA,215539.000,4910.21544,N,12306.28596,W,1,17,0.6,001.49,M,-16.8,M,,*55
$GPRMC,215539.000,A,4910.21544,N,12306.28596,W,31.9,270.3,230419,,,A*49
$GNGSA,A,3,19,28,06,24,15,17,12,13,01,02,,,1.1,0.6,0.9*21
$GNGSA,A,3,88,79,78,80,82,81,71,,,,,,1.1,0.6,0.9*2F
$PSIWMPVT,822.410,251756.999,3,49.1702574,-123.1047660,1.489,-16.416,0.072,0.028,4.301,2.915,1.680,0.354,0.000,0.354,2.660,0.102,17,*28
$PSIWMMPU,822.450,-0.37659,-0.03637,-10.11104,-0.86060,2.90527,-0.42114,*28
$PSIWMMPU,822.650,-0.18519,-0.19284,-10.45365,-2.90833,-4.75769,-0.41199,*06
$PSIWMPDR,820.600,49.1702434,-123.1028071,3.657,-89.795486450,-1010101.125000000,0,-0.819836020,0.157987460,-0.582898855,39.88,0.108572319,0.125827208,0.055695325,0.080492221,84.418533325,20,*1B
$PSIWMMPU,822.850,-0.14882,-0.08326,-9.52725,-0.38147,3.66516,-0.60730,*12
$PSIWMMPU,823.050,-0.47756,-0.03780,-9.99906,-1.32751,-2.20947,-0.47302,*3C
$PSIWMMPU,823.250,-0.15552,-0.10958,-9.27028,-0.08545,1.53198,-0.63171,*19
$GPGGA,215540.000,4910.21557,N,12306.29945,W,1,17,0.6,001.54,M,-16.8,M,,*56
$GPRMC,215540.000,A,4910.21557,N,12306.29945,W,31.6,270.2,230419,,,A*48
$GNGSA,A,3,19,28,06,24,15,17,12,13,01,02,,,1.1,0.6,0.9*21
$GNGSA,A,3,88,79,78,80,82,81,71,,,,,,1.1,0.6,0.9*2F
$PSIWMPVT,823.410,251757.999,3,49.1702595,-123.1049909,1.540,-16.283,0.048,0.030,4.301,2.915,1.988,0.500,0.000,0.500,3.144,0.051,17,*27
$PSIWMMPU,823.450,-0.42731,-0.05886,-10.30531,-0.66528,-0.20142,-0.50354,*06
$PSIWMMPU,823.650,-0.19236,-0.05407,-9.42580,0.39062,3.32336,-0.60120,*38
$PSIWMMPU,823.850,0.04402,-0.06269,-9.99236,-0.48523,-2.13623,-1.29089,*1C
$PSIWMMPU,824.050,0.08374,-0.06269,-9.61673,-0.65002,2.52686,-1.14746,*3F
$PSIWMMPU,824.250,-0.00766,-0.05407,-10.23353,-1.17798,-1.98975,-1.28479,*00
$GPGGA,215541.000,4910.21561,N,12306.31279,W,1,17,0.6,001.65,M,-16.8,M,,*5D
$GPRMC,215541.000,A,4910.21561,N,12306.31279,W,31.4,270.1,230419,,,A*40
$GNGSA,A,3,19,28,06,24,15,17,12,13,01,02,,,1.1,0.6,0.9*21
$GNGSA,A,3,88,79,78,80,82,81,71,,,,,,1.1,0.6,0.9*2F
$PSIWMPVT,824.420,251759.000,3,49.1702602,-123.1052132,1.650,-16.159,0.029,-0.028,4.301,2.915,1.707,0.354,0.000,0.000,2.698,0.105,17,*0A
$PSIWMMPU,824.450,0.02823,-0.02823,-9.80814,-0.98877,3.26843,-1.16272,*35
$PSIWMMPU,824.650,-0.23495,0.01483,-10.76947,-1.08948,-6.77490,-0.62256,*29
$PSIWMMPU,824.850,-0.28137,0.01340,-9.74066,0.18921,7.69653,-0.23804,*1D
$PSIWMPOS,001344.850,4910.21561,N,12306.31279,W,141.42,1.65,M,100.00,0,4,0,2,0,*69
$PSIWMATT,001344.850,275.6,T,-0.8,0.4,180.0,*56
$PSIWMVEL,001344.850,275.6,T,0.0,K,-0.00,M,*79
$PSIWMMPU,825.050,-0.24404,0.08039,-10.64075,-1.19324,-4.64783,-0.12817,*2F
$PSIWMMPU,825.250,-0.09092,-0.01244,-9.16214,0.28381,3.54309,-0.19836,*3B
$GPGGA,215542.000,4910.21559,N,12306.32603,W,1,17,0.6,001.58,M,-16.8,M,,*51
$GPRMC,215542.000,A,4910.21559,N,12306.32603,W,31.3,270.0,230419,,,A*44
$GNGSA,A,3,19,28,06,24,15,17,12,13,01,02,,,1.1,0.6,0.9*21
$GNGSA,A,3,88,79,78,80,82,81,71,,,,,,1.1,0.6,0.9*2F
$PSIWMPVT,825.440,251760.000,3,49.1702599,-123.1054339,1.583,-16.103,-0.005,-0.026,4.301,2.915,1.785,0.354,0.000,0.500,2.824,0.098,17,*25
$PSIWMMPU,825.450,-0.37755,0.04259,-10.45844,-1.38550,-3.15857,-0.03662,*22
$PSIWMMPU,825.650,-0.17466,0.06508,-9.50523,-0.92468,3.49731,-0.18311,*3B
$PSIWMMPU,825.850,-0.35697,0.13925,-10.02825,-0.58594,0.18616,-0.13123,*05
$PSIWMPOS,001345.850,4910.21559,N,12306.32603,W,7.30,1.58,M,5.16,0,4,0,2,0,*62
$PSIWMATT,001345.850,270.0,T,-1.3,-0.5,180.0,*72
$PSIWMVEL,001345.850,270.0,T,58.0,K,0.03,M,*68
$PSIWMMPU,826.050,-0.14547,0.07178,-9.61338,-1.44653,1.88904,-0.13428,*32
$PSIWMMPU,826.250,-0.13686,0.11819,-10.88192,-1.54114,-1.82495,-0.15564,*25
$GPGGA,215543.000,4910.21562,N,12306.33922,W,1,17,0.6,001.75,M,-16.8,M,,*5A
$GPRMC,215543.000,A,4910.21562,N,12306.33922,W,31.3,270.5,230419,,,A*45
$GNGSA,A,3,19,28,06,24,15,17,12,13,01,02,,,1.1,0.6,0.9*21
$GNGSA,A,3,88,79,78,80,82,81,71,,,,,,1.1,0.6,0.9*2F
$PSIWMPVT,826.440,251760.999,3,49.1702603,-123.1056537,1.753,-16.121,0.131,-0.023,4.359,3.000,1.930,0.500,0.000,0.935,3.055,0.059,17,*0A
$PSIWMMPU,826.450,0.03350,0.09953,-9.97370,-0.68359,1.09253,-0.36011,*1E
$PSIWMMPU,826.650,0.05599,0.07656,-9.22195,-1.13525,-1.08948,-0.57678,*39
$PSIWMMPU,826.850,-0.14882,0.11102,-9.47365,-0.66223,1.61438,-0.52795,*3F
$PSIWMPOS,001346.850,4910.21562,N,12306.33922,W,7.40,1.75,M,5.23,0,4,0,2,0,*6A
$PSIWMATT,001346.850,270.5,T,-0.8,-0.6,180.0,*7D
$PSIWMVEL,001346.850,270.5,T,58.0,K,0.02,M,*6F
$PSIWMMPU,827.050,-0.17992,0.16796,-10.45796,-1.24817,-3.72314,-0.47302,*2B
$PSIWMMPU,827.250,-0.16796,0.08278,-9.05926,1.16272,2.06604,-0.48523,*15
$GPGGA,215544.000,4910.21574,N,12306.35257,W,1,17,0.6,001.88,M,-16.8,M,,*57
$GPRMC,215544.000,A,4910.21574,N,12306.35257,W,31.5,270.8,230419,,,A*41
$GNGSA,A,3,19,28,06,24,15,17,12,13,01,02,,,1.1,0.6,0.9*21
$GNGSA,A,3,88,79,78,80,82,81,71,,,,,,1.1,0.6,0.9*2F
$PSIWMMPU,827.450,-0.16748,0.18471,-9.77464,-1.03760,-1.58691,-0.51880,*1A
$PSIWMPVT,827.460,251761.999,3,49.1702623,-123.1058762,1.879,-16.188,0.216,-0.016,4.359,3.000,1.855,0.500,0.000,0.500,2.939,0.188,17,*05
$PSIWMMPU,827.650,-0.10384,0.23160,-10.04787,-1.12915,2.13623,-0.46692,*0A
$PSIWMMPU,827.850,-0.17466,0.32826,-10.28282,-0.93994,-1.50146,-0.57068,*22
$PSIWMPOS,001347.850,4910.21574,N,12306.35257,W,7.40,1.88,M,5.23,0,4,0,2,0,*61
$PSIWMATT,001347.850,270.8,T,-1.1,-0.9,180.0,*76
$PSIWMVEL,001347.850,270.8,T,58.3,K,0.02,M,*60
$PSIWMMPU,828.050,0.12633,0.23543,-9.98088,-1.54724,2.36511,-0.67139,*1B
$PSIWMMPU,828.250,-0.15552,0.33927,-10.60104,-0.86975,-2.97546,-0.64392,*22
$GPGGA,215545.000,4910.21585,N,12306.36588,W,1,17,0.6,001.76,M,-16.8,M,,*5F
$GPRMC,215545.000,A,4910.21585,N,12306.36588,W,31.5,270.6,230419,,,A*46
$GNGSA,A,3,19,28,06,24,15,17,12,13,01,02,,,1.1,0.6,0.9*21
$GNGSA,A,3,88,79,78,80,82,81,71,,,,,,1.1,0.6,0.9*2F
$PSIWMMPU,828.450,0.05024,0.29237,-9.53155,-0.82397,1.25732,-1.42517,*1B
$PSIWMPVT,828.470,251763.000,3,49.1702642,-123.1060980,1.758,-16.232,0.159,-0.094,4.583,3.391,1.797,0.354,0.000,0.354,2.846,0.219,17,*0B
$PSIWMMPU,828.650,0.45411,0.29955,-10.52447,-1.36108,-4.03137,-2.90833,*0D
$PSIWMMPU,828.850,0.50627,0.20720,-9.27555,-0.09766,1.30310,-2.68860,*10
$PSIWMPOS,001348.850,4910.21585,N,12306.36588,W,7.78,1.76,M,5.50,0,4,0,2,0,*68
$PSIWMATT,001348.850,270.6,T,-0.7,-1.8,180.0,*70
$PSIWMVEL,001348.850,270.6,T,58.4,K,0.09,M,*6D
$PSIWMMPU,829.050,0.18088,0.23782,-10.14118,-0.99487,-1.92261,-1.88599,*09
$PSIWMMPU,829.250,-0.17035,0.25026,-8.91857,0.70801,5.15442,-0.89111,*1B
$GPGGA,215546.000,4910.21584,N,12306.37932,W,1,17,0.6,001.38,M,-16.8,M,,*5B
$GPRMC,215546.000,A,4910.21584,N,12306.37932,W,32.0,269.6,230419,,,A*46
$GNGSA,A,3,19,28,06,24,15,17,12,13,01,02,,,1.1,0.6,0.9*21
$GNGSA,A,3,88,79,78,80,82,81,71,,,,,,1.1,0.6,0.9*2F
$PSIWMMPU,829.450,-0.19236,0.32922,-10.28282,-1.61438,-2.11792,-0.93994,*24
$PSIWMPVT,829.470,251764.000,3,49.1702640,-123.1063220,1.376,-16.472,-0.112,-0.090,4.416,3.162,1.836,0.354,0.000,0.500,2.910,0.125,17,*2F
$PSIWMMPU,829.650,0.29668,0.24883,-9.86556,-2.48413,1.16577,-0.81787,*16
$PSIWMMPU,829.850,-0.44789,0.42827,-10.80153,-1.03760,-1.74866,-0.65918,*2C
$PSIWMPOS,001349.850,4910.21584,N,12306.37932,W,7.49,1.86,M,5.30,2,5,0,2,0,*6C
$PSIWMATT,001349.850,269.5,T,0.6,-2.0,6.2,*50
$PSIWMVEL,001349.850,269.5,T,59.2,K,0.30,M,*6A
$PSIWMMPU,830.050,-0.09905,0.26558,-9.31335,0.12207,1.16882,-0.73242,*10
$PSIWMMPU,830.250,-0.34310,0.10432,-10.41585,-0.61951,-2.70386,-0.46387,*26
$PSIWMMPU,830.450,-0.00861,0.03828,-9.48466,-0.16174,2.24915,-0.63171,*3D
$GPGGA,215547.000,4910.21573,N,12306.39294,W,1,16,0.7,001.25,M,-16.8,M,,*57
$GPRMC,215547.000,A,4910.21573,N,12306.39294,W,32.3,269.3,230419,,,A*40
$GNGSA,A,3,19,28,06,24,15,17,12,13,01,,,,1.1,0.7,0.9*22
$GNGSA,A,3,88,79,78,80,82,81,71,,,,,,1.1,0.7,0.9*2E
$PSIWMPVT,830.540,251764.999,3,49.1702622,-123.1065490,1.247,-16.643,-0.198,-0.080,4.359,2.915,1.766,0.500,0.000,0.500,2.693,0.090,16,*21
$PSIWMMPU,830.650,-0.11197,0.03732,-10.23784,-0.43640,2.44141,-0.58899,*09
$PSIWMMPU,830.850,0.00431,0.04546,-9.87034,-0.89722,-3.48816,-0.50354,*35
$PSIWMPOS,001350.850,4910.21573,N,12306.39294,W,7.40,1.25,M,5.23,2,5,0,2,0,*67
$PSIWMATT,001350.850,269.4,T,-0.3,-1.5,1.9,*7B
$PSIWMVEL,001350.850,269.4,T,60.2,K,0.12,M,*69
$PSIWMMPU,831.050,-0.30051,0.00191,-9.64640,-0.59814,1.13525,-0.33875,*34
$PSIWMMPU,831.250,-0.33592,-0.04020,-9.92346,-0.79346,-1.06812,-0.35706,*34
$PSIWMMPU,831.450,-0.08613,-0.05216,-9.50715,-1.01013,4.68750,-0.27771,*1D
$GPGGA,215548.000,4910.21570,N,12306.40668,W,1,16,0.7,001.15,M,-16.8,M,,*51
$GPRMC,215548.000,A,4910.21570,N,12306.40668,W,32.3,269.4,230419,,,A*42
$GNGSA,A,3,19,28,06,24,15,17,12,13,01,,,,1.1,0.7,0.9*22
$GNGSA,A,3,88,79,78,80,82,81,71,,,,,,1.1,0.7,0.9*2E
$PSIWMPVT,831.540,251765.999,3,49.1702617,-123.1067780,1.150,-16.616,-0.179,-0.075,4.301,2.828,1.691,0.500,0.000,0.500,2.579,0.062,16,*26
$PSIWMMPU,831.650,-0.41248,0.19619,-10.65511,-1.10168,-4.65698,0.08240,*04
$PSIWMMPU,831.850,-0.26510,-0.04642,-9.16884,-0.51270,1.81274,0.06409,*3C
$PSIWMPOS,001351.850,4910.21570,N,12306.40668,W,7.30,1.24,M,5.16,2,5,0,2,0,*6C
$PSIWMATT,001351.850,269.8,T,-1.1,-1.4,1.3,*7E
$PSIWMVEL,001351.850,269.8,T,60.3,K,0.08,M,*6E
$PSIWMMPU,832.050,-0.29812,-0.01627,-10.62496,-1.53809,-1.38245,-0.00610,*0E
$PSIWMMPU,832.250,-0.41774,0.08805,-9.73349,-0.31433,0.24109,0.12207,*1C
$PSIWMMPU,832.450,-0.51823,0.11532,-10.15554,-0.42114,-0.09155,-0.59509,*21
$GPGGA,215549.000,4910.21558,N,12306.42027,W,1,17,0.6,001.20,M,-16.8,M,,*53
$GPRMC,215549.000,A,4910.21558,N,12306.42027,W,32.1,269.9,230419,,,A*49
$GNGSA,A,3,19,28,06,24,15,17,12,13,01,02,,,1.1,0.6,0.9*21
$GNGSA,A,3,88,79,78,80,82,81,71,,,,,,1.1,0.6,0.9*2F
$PSIWMPVT,832.540,251767.000,3,49.1702596,-123.1070045,1.205,-16.542,-0.025,-0.065,4.243,2.828,1.715,0.612,0.000,0.500,3.040,0.066,17,*25
$PSIWMMPU,832.650,-0.12776,0.34788,-9.54112,-0.45776,0.13733,-0.64087,*3C
$PSIWMMPU,832.850,-0.16748,0.37516,-9.83158,-0.24109,0.92773,-0.67749,*3B
$PSIWMPOS,001352.850,4910.21558,N,12306.42027,W,7.20,0.90,M,5.09,2,5,0,2,0,*6B
$PSIWMATT,001352.850,269.9,T,-2.0,-0.9,1.0,*71
$PSIWMVEL,001352.850,269.9,T,59.5,K,0.03,M,*6B
$PSIWMMPU,833.050,-0.15265,0.42205,-9.88996,-1.25122,-1.79138,-0.64392,*15
$PSIWMMPU,833.250,-0.16413,0.30816,-9.77895,-0.21057,2.44751,-0.68054,*36
$PSIWMMPU,833.450,-0.30099,0.30099,-10.05313,-0.36011,-0.97046,-0.70190,*21
$GPGGA,215550.000,4910.21551,N,12306.43388,W,1,17,0.6,001.32,M,-16.8,M,,*56
$GPRMC,215550.000,A,4910.21551,N,12306.43388,W,32.5,270.2,230419,,,A*48
$GNGSA,A,3,19,28,06,24,15,17,12,13,01,02,,,1.1,0.6,0.9*21
$GNGSA,A,3,88,79,78,80,82,81,71,,,,,,1.1,0.6,0.9*2F
$PSIWMPVT,833.580,251768.000,3,49.1702586,-123.1072313,1.315,-16.734,0.061,-0.063,4.472,3.162,1.762,0.612,0.000,0.612,3.042,0.086,17,*02
$PSIWMMPU,833.650,-0.07752,0.26653,-9.61481,-0.80261,2.42615,-0.62866,*3A
$PSIWMMPU,833.850,-0.16796,0.29572,-10.26703,-1.47705,-2.29492,-0.61340,*2D
$PSIWMPOS,001353.850,4910.21551,N,12306.43388,W,7.59,1.19,M,5.37,2,5,0,2,0,*67
$PSIWMATT,001353.850,269.8,T,-1.7,-0.8,0.9,*7C
$PSIWMVEL,001353.850,269.8,T,58.7,K,0.09,M,*62
$PSIWMMPU,834.050,-0.16270,0.38233,-9.21813,-2.13013,3.26233,-0.64392,*3A
$PSIWMMPU,834.250,-0.50723,0.28089,-10.09333,-0.22583,-0.36011,-0.55847,*20
$PSIWMMPU,834.450,-0.00191,0.22155,-9.69951,-1.98059,-2.10876,-0.68359,*11
$GPGGA,215551.000,4910.21552,N,12306.44775,W,1,17,0.6,001.20,M,-16.8,M,,*56
$GPRMC,215551.000,A,4910.21552,N,12306.44775,W,33.0,270.1,230419,,,A*4C
$GNGSA,A,3,19,28,06,24,15,17,12,13,01,02,,,1.1,0.6,0.9*21
$GNGSA,A,3,88,79,78,80,82,81,71,,,,,,1.1,0.6,0.9*2F
$PSIWMPVT,834.570,251769.000,3,49.1702587,-123.1074625,1.204,-16.963,0.024,-0.053,4.583,3.317,1.617,0.612,0.000,0.612,2.742,0.129,17,*0D
$PSIWMMPU,834.650,-0.09092,0.29381,-9.60812,1.14746,3.13416,-1.05591,*1A
$PSIWMMPU,834.850,-0.09714,0.26510,-9.62104,-1.58691,-2.38037,-1.18103,*1F
$PSIWMPOS,001354.850,4910.21552,N,12306.44775,W,7.78,1.12,M,5.50,2,5,0,2,0,*6B
$PSIWMATT,001354.850,269.7,T,-1.8,-1.2,0.9,*70
$PSIWMVEL,001354.850,269.7,T,60.6,K,-0.01,M,*45
$PSIWMMPU,835.050,-0.04115,0.33113,-9.94547,-0.12207,1.80664,-0.95215,*3C
$PSIWMMPU,835.250,-0.19428,0.22586,-9.78804,-0.92773,-0.86060,-0.72937,*1D
$PSIWMMPU,835.450,-0.19332,0.24979,-9.62343,-0.28992,1.88293,-0.70190,*35
$GPGGA,215552.000,4910.21555,N,12306.46169,W,1,17,0.6,001.14,M,-16.8,M,,*5C
$GPRMC,215552.000,A,4910.21555,N,12306.46169,W,33.3,269.9,230419,,,A*42
$GNGSA,A,3,19,28,06,24,15,17,12,13,01,02,,,1.1,0.6,0.9*21
$GNGSA,A,3,88,79,78,80,82,81,71,,,,,,1.1,0.6,0.9*2F
$PSIWMPVT,835.540,251769.999,3,49.1702591,-123.1076949,1.139,-17.141,-0.036,-0.051,4.359,3.082,1.539,0.354,0.000,0.000,2.496,0.082,17,*27
$PSIWMMPU,835.650,-0.16892,0.23304,-10.33068,-1.46179,-0.80872,-0.70801,*2C
$PSIWMMPU,835.850,0.02010,0.13829,-10.10099,-0.43335,-3.34778,-0.68970,*09
$PSIWMPOS,001355.850,4910.21554,N,12306.46573,W,1.81,1.13,M,1.21,2,5,0,2,0,*69
$PSIWMATT,001355.850,269.7,T,-1.8,-1.4,0.8,*76
$PSIWMVEL,001355.850,269.7,T,62.3,K,0.07,M,*68
$PSIWMMPU,836.050,-0.39525,0.33113,-10.04931,1.41602,7.84912,-0.77209,*2C
$PSIWMMPU,836.250,-0.06029,0.10049,-9.05064,-1.41602,-0.99182,-0.72327,*16
$PSIWMMPU,836.450,-0.17657,0.05455,-10.32302,-1.56860,2.70386,-0.54016,*0A
$GPGGA,215553.000,4910.21557,N,12306.47604,W,1,17,0.6,001.18,M,-16.8,M,,*5E
$GPRMC,215553.000,A,4910.21557,N,12306.47604,W,33.7,270.0,230419,,,A*49
$GNGSA,A,3,19,28,06,24,15,17,12,13,01,02,,,1.1,0.6,0.9*21
$GNGSA,A,3,88,79,78,80,82,81,71,,,,,,1.1,0.6,0.9*2F
$PSIWMPVT,836.540,251771.000,3,49.1702595,-123.1079341,1.181,-17.343,0.003,-0.054,4.301,3.000,1.520,0.354,0.000,0.500,2.407,0.148,17,*05
$PSIWMMPU,836.650,-0.34070,0.17035,-10.61778,-0.83313,0.31128,-0.63477,*04
$PSIWMMPU,836.850,-0.21725,0.14547,-9.44446,0.61646,2.81677,-0.74158,*15
$PSIWMPOS,001356.850,4910.21556,N,12306.48024,W,1.81,1.77,M,1.21,2,5,0,2,0,*63
$PSIWMATT,001356.850,269.7,T,-1.1,-1.4,0.8,*7C
$PSIWMVEL,001356.850,269.7,T,63.0,K,0.10,M,*6F
$PSIWMMPU,837.050,0.03110,0.01292,-10.01964,-2.19727,0.27771,-0.42725,*28
$PSIWMMPU,837.250,-0.36798,0.28328,-10.55653,0.77515,0.51270,-0.46387,*2F
$PSIWMMPU,837.450,0.06986,0.11293,-9.42915,-2.98462,-0.30212,-0.65613,*36
$GPGGA,215554.000,4910.21559,N,12306.49036,W,1,16,0.7,001.03,M,-16.8,M,,*54
$GPRMC,215554.000,A,4910.21559,N,12306.49036,W,33.8,269.9,230419,,,A*47
$GNGSA,A,3,19,28,06,24,15,17,12,13,01,,,,1.1,0.7,0.9*22
$GNGSA,A,3,88,79,78,80,82,81,71,,,,,,1.1,0.7,0.9*2E
$PSIWMPVT,837.570,251772.000,3,49.1702599,-123.1081727,1.032,-17.384,-0.024,-0.048,4.472,3.162,2.055,0.500,0.000,0.500,3.134,0.047,16,*22
$PSIWMMPU,837.650,-0.18231,0.17035,-10.40915,0.92163,1.61743,-0.43030,*28
$PSIWMMPU,837.850,-0.14978,0.20863,-9.51480,-1.00708,-2.20947,-0.55542,*10
$PSIWMPOS,001357.850,4910.21558,N,12306.49413,W,1.81,1.97,M,1.21,2,5,0,2,0,*63
$PSIWMATT,001357.850,269.9,T,-0.8,-1.5,0.8,*7A
$PSIWMVEL,001357.850,269.9,T,62.1,K,-0.01,M,*4D
$PSIWMMPU,838.050,-0.02393,0.21198,-9.76650,-0.51880,1.16577,-0.68359,*35
$PSIWMMPU,838.250,-0.30099,0.18088,-10.09285,-0.43640,-2.32544,-0.63171,*23
$PSIWMMPU,838.450,-0.27563,0.18088,-9.61099,-1.49231,-4.04053,-0.62561,*17
$GPGGA,215555.000,4910.21571,N,12306.50488,W,1,16,0.7,000.85,M,-16.8,M,,*59
$GPRMC,215555.000,A,4910.21571,N,12306.50488,W,34.0,269.8,230419,,,A*4B
$GNGSA,A,3,19,28,06,24,15,17,12,13,01,,,,1.1,0.7,0.9*22
$GNGSA,A,3,88,79,78,80,82,81,71,,,,,,1.1,0.7,0.9*2E
$PSIWMPVT,838.540,251773.000,3,49.1702618,-123.1084146,0.851,-17.504,-0.072,-0.040,4.359,2.915,1.605,0.500,0.000,0.500,2.450,0.062,16,*2E
$PSIWMMPU,838.650,-0.26414,0.21820,-9.84163,-1.15662,4.82178,-0.49438,*3E
$PSIWMMPU,838.850,-0.29668,0.20098,-10.16224,-0.24109,-1.92566,-0.68359,*27
$PSIWMPOS,001358.850,4910.21565,N,12306.50900,W,1.81,1.85,M,1.21,2,5,0,2,0,*66
$PSIWMATT,001358.850,270.0,T,-1.2,-1.7,0.8,*7D
$PSIWMVEL,001358.850,270.0,T,63.9,K,0.01,M,*67
$PSIWMMPU,839.050,-0.12776,-0.15695,-9.27124,-0.53406,2.80762,-0.33264,*11
$PSIWMMPU,839.250,-0.23974,-0.06986,-10.17994,-1.04980,-0.56763,-0.21362,*0B
$PSIWMMPU,839.450,-0.32252,-0.17609,-9.85216,-0.35706,-1.14136,-0.27161,*3D
$GPGGA,215556.000,4910.21594,N,12306.51932,W,1,17,0.6,000.85,M,-16.8,M,,*5C
$GPRMC,215556.000,A,4910.21594,N,12306.51932,W,34.1,270.1,230419,,,A*4E
$GNGSA,A,3,19,28,06,24,15,17,12,13,01,02,,,1.1,0.6,0.9*21
$GNGSA,A,3,88,79,78,80,82,81,71,,,,,,1.1,0.6,0.9*2F
$PSIWMPVT,839.540,251773.999,3,49.1702656,-123.1086554,0.848,-17.545,0.036,-0.039,4.301,2.828,1.777,0.612,0.000,0.500,3.037,0.027,17,*05
$PSIWMMPU,839.650,-0.44263,-0.28232,-9.76459,-0.44250,0.14954,-0.19531,*11
$PSIWMMPU,839.850,-0.15456,-0.33640,-9.73732,-0.43945,3.21960,-0.26550,*1A
$PSIWMPOS,001359.850,4910.21586,N,12306.52364,W,1.81,1.30,M,1.21,2,5,0,2,0,*6E
$PSIWMATT,001359.850,270.6,T,-0.9,-1.3,0.8,*74
$PSIWMVEL,001359.850,270.6,T,64.4,K,-0.04,M,*42
$PSIWMMPU,840.050,-0.05312,-0.33496,-10.80632,-1.26038,-0.67749,-0.32349,*05
$PSIWMMPU,840.250,-0.34836,-0.29285,-9.83493,-0.45471,-3.05176,-0.13428,*36
$PSIWMMPU,840.450,-0.24644,-0.12872,-9.78564,-0.27161,-3.14026,-0.31738,*3B
$GPGGA,215557.000,4910.21598,N,12306.53363,W,1,17,0.6,000.61,M,-16.8,M,,*57
$GPRMC,215557.000,A,4910.21598,N,12306.53363,W,33.5,270.3,230419,,,A*4E
$GNGSA,A,3,19,28,06,24,15,17,12,13,01,02,,,1.1,0.6,0.9*21
$GNGSA,A,3,88,79,78,80,82,81,71,,,,,,1.1,0.6,0.9*2F
$PSIWMPVT,840.540,251775.000,3,49.1702663,-123.1088938,0.605,-17.264,0.077,-0.032,4.243,2.828,1.816,0.612,0.000,0.612,3.225,0.051,17,*08
$PSIWMMPU,840.650,-0.46416,-0.02393,-9.63635,-1.16272,2.32544,-0.54932,*1C
$PSIWMMPU,840.850,-0.16222,-0.12872,-10.01485,-0.77515,0.72937,-0.75684,*29
$PSIWMPOS,001400.850,4910.21597,N,12306.53796,W,1.80,0.86,M,1.21,2,5,0,2,0,*60
$PSIWMATT,001400.850,270.8,T,-1.5,-1.0,0.8,*7F
$PSIWMVEL,001400.850,270.8,T,63.2,K,-0.07,M,*45
$PSIWMMPU,841.050,-0.07608,0.01866,-10.03112,-0.81177,-1.37329,-0.70190,*29
$PSIWMMPU,841.250,-0.08518,0.09522,-10.00768,-1.06812,1.69983,-0.73547,*0E
$PSIWMMPU,841.450,-0.16174,0.18184,-9.83350,-0.36316,0.84839,-0.94299,*3F
$GPGGA,215558.000,4910.21611,N,12306.54780,W,1,17,0.6,000.68,M,-16.8,M,,*5D
$GPRMC,215558.000,A,4910.21611,N,12306.54780,W,33.2,270.7,230419,,,A*4E
$GNGSA,A,3,19,28,06,24,15,17,12,13,01,02,,,1.1,0.6,0.9*21
$GNGSA,A,3,88,79,78,80,82,81,71,,,,,,1.1,0.6,0.9*2F
$PSIWMPVT,841.570,251776.000,3,49.1702684,-123.1091300,0.679,-17.111,0.196,-0.027,4.243,2.828,1.770,0.612,0.000,0.612,3.101,0.070,17,*00
$PSIWMMPU,841.650,-0.03541,0.21868,-9.52916,-1.31226,-0.69580,-1.01013,*16
$PSIWMMPU,841.850,0.06029,0.23256,-10.00528,-0.62256,1.82190,-1.07117,*2F
$PSIWMPOS,001401.850,4910.21611,N,12306.55155,W,1.79,0.77,M,1.20,2,5,0,2,0,*6A
$PSIWMATT,001401.850,270.6,T,-1.2,-0.8,0.8,*7E
$PSIWMVEL,001401.850,270.6,T,60.9,K,0.02,M,*6A
$PSIWMMPU,842.050,0.08613,0.18471,-9.90767,-1.19019,-0.42419,-0.83923,*34
$PSIWMMPU,842.250,-0.01101,0.14786,-9.92011,-0.65308,-0.33569,-0.73242,*1F
$PSIWMMPU,842.450,-0.18901,0.26414,-10.08759,-1.40991,-1.19629,-0.72632,*20
$GPGGA,215559.000,4910.21611,N,12306.56189,W,1,17,0.6,000.82,M,-16.8,M,,*55
$GPRMC,215559.000,A,4910.21611,N,12306.56189,W,33.7,270.2,230419,,,A*42
$GNGSA,A,3,19,28,06,24,15,17,12,13,01,02,,,1.1,0.6,0.9*21
$GNGSA,A,3,88,79,78,80,82,81,71,,,,,,1.1,0.6,0.9*2F
$PSIWMPVT,842.540,251777.000,3,49.1702685,-123.1093648,0.820,-17.322,0.066,-0.063,4.183,2.828,1.531,0.354,0.000,0.000,2.467,0.184,17,*01
$PSIWMMPU,842.650,-0.19380,0.31438,-9.38752,1.39771,1.20239,-0.75073,*1D
$PSIWMMPU,842.850,0.06508,0.13733,-9.35737,-1.77002,0.92773,-0.86365,*1F
$PSIWMPOS,001402.850,4910.21615,N,12306.56601,W,1.79,0.39,M,1.20,2,5,0,2,0,*62
$PSIWMATT,001402.850,270.4,T,-0.9,-0.5,0.8,*78
$PSIWMVEL,001402.850,270.4,T,62.3,K,-0.07,M,*4B
$PSIWMMPU,843.050,-0.37037,0.17035,-10.58429,-0.59814,1.79749,-0.71106,*0A
$PSIWMMPU,843.250,-0.13255,-0.00813,-9.69568,0.19836,1.03149,-0.63171,*30
$PSIWMMPU,843.450,0.26271,-0.02536,-10.13066,-2.13013,1.02844,-0.83008,*03
$GPGGA,215600.000,4910.21618,N,12306.57620,W,1,16,0.7,001.00,M,-16.8,M,,*5D
$GPRMC,215600.000,A,4910.21618,N,12306.57620,W,33.6,270.4,230419,,,A*46
$GNGSA,A,3,19,28,06,24,15,17,12,13,01,,,,1.1,0.7,0.9*22
$GNGSA,A,3,88,79,78,80,82,81,71,,,,,,1.1,0.7,0.9*2E
$PSIWMPVT,843.540,251778.000,3,49.1702696,-123.1096033,0.997,-17.317,0.126,-0.091,4.183,2.915,1.875,0.354,0.000,0.354,2.860,0.055,16,*06
$PSIWMMPU,843.650,-0.12729,0.02249,-10.70822,-0.39673,0.50964,-0.36926,*08
$PSIWMMPU,843.850,-0.07656,-0.05503,-9.09802,-0.20752,-3.59802,-0.56763,*39
$PSIWMPOS,001403.850,4910.21620,N,12306.58041,W,1.80,0.67,M,1.20,2,5,0,2,0,*64
$PSIWMATT,001403.850,270.4,T,-0.7,-0.3,0.8,*71
$PSIWMVEL,001403.850,270.4,T,62.6,K,0.17,M,*63
$PSIWMMPU,844.050,-0.09379,-0.08948,-9.85694,-1.04370,1.91345,-0.59509,*1A
$PSIWMMPU,844.250,-0.09092,-0.18566,-10.04404,0.15259,-1.72729,-0.56458,*27
$PSIWMMPU,844.450,-0.10575,-0.16892,-9.32675,0.79956,2.77405,-0.65308,*3E
$GPGGA,215601.000,4910.21631,N,12306.59030,W,1,16,0.7,000.87,M,-16.8,M,,*50
$GPRMC,215601.000,A,4910.21631,N,12306.59030,W,33.3,270.3,230419,,,A*47
$GNGSA,A,3,19,28,06,24,15,17,12,13,01,,,,1.1,0.7,0.9*22
$GNGSA,A,3,88,79,78,80,82,81,71,,,,,,1.1,0.7,0.9*2E
$PSIWMPVT,844.540,251779.000,3,49.1702718,-123.1098383,0.872,-17.150,0.083,-0.099,4.123,2.915,1.953,0.354,0.000,0.354,2.978,0.105,16,*0F
$PSIWMMPU,844.650,-0.21725,-0.29812,-9.46073,-1.26343,-0.94604,-0.56152,*3A
$PSIWMMPU,844.850,-0.11963,-0.26127,-10.07084,-1.29395,2.88696,-0.61646,*25
$PSIWMPOS,001404.850,4910.21630,N,12306.59457,W,1.79,0.53,M,1.20,2,5,0,2,0,*61
$PSIWMATT,001404.850,270.5,T,-0.3,0.1,0.8,*5C
$PSIWMVEL,001404.850,270.5,T,62.3,K,0.02,M,*64
$PSIWMMPU,845.050,0.08183,-0.38425,-9.98423,-1.19324,-0.04578,-0.65308,*1A
$PSIWMMPU,845.250,0.12585,-0.31917,-10.00959,-0.15564,1.32446,-0.52490,*05
$PSIWMMPU,845.450,0.04211,-0.32204,-10.63405,-2.43530,-5.06592,-0.47913,*21
$GPGGA,215602.000,4910.21640,N,12306.60429,W,1,15,0.7,000.79,M,-16.8,M,,*51
$GPRMC,215602.000,A,4910.21640,N,12306.60429,W,33.0,270.3,230419,,,A*47
$GNGSA,A,3,19,28,06,24,15,17,12,01,,,,,1.2,0.7,1.0*2B
$GNGSA,A,3,88,79,78,80,82,81,71,,,,,,1.2,0.7,1.0*25
$PSIWMPVT,845.540,251780.000,3,49.1702734,-123.1100716,0.789,-16.971,0.089,-0.099,4.359,3.240,2.047,0.354,0.000,0.500,2.948,0.102,15,*0F
$PSIWMMPU,845.650,-0.02440,-0.30960,-9.19659,0.68665,2.86255,-0.50354,*3B
$PSIWMMPU,845.850,-0.04594,-0.41631,-10.14932,-2.71606,-1.30310,-0.59204,*0D
$PSIWMPOS,001405.850,4910.21640,N,12306.60855,W,1.81,0.62,M,1.21,2,5,0,2,0,*67
$PSIWMATT,001405.850,270.6,T,-0.6,0.1,0.8,*5B
$PSIWMVEL,001405.850,270.6,T,61.7,K,0.02,M,*61
$PSIWMMPU,846.050,-0.13829,0.06125,-10.32302,0.14954,3.45459,-0.59509,*23
$PSIWMMPU,846.250,-0.09427,-0.14499,-9.27938,0.02136,-0.78125,-0.83923,*1D
$PSIWMMPU,846.450,0.02584,-0.01388,-9.70765,-0.84839,1.11694,-0.92163,*35
$GPGGA,215603.000,4910.21646,N,12306.61809,W,1,15,0.7,000.54,M,-16.8,M,,*56
$GPRMC,215603.000,A,4910.21646,N,12306.61809,W,32.3,270.2,230419,,,A*4C
$GNGSA,A,3,19,28,06,24,15,17,12,13,01,,,,1.1,0.7,0.9*22
$GNGSA,A,3,88,79,78,80,82,81,,,,,,,1.1,0.7,0.9*28
$PSIWMPVT,846.540,251781.000,3,49.1702743,-123.1103016,0.540,-16.643,0.046,-0.093,4.301,3.162,1.758,0.500,0.000,0.500,2.798,0.281,15,*01
$PSIWMMPU,846.650,0.16939,-0.18710,-9.18894,-0.83313,0.93384,-0.85449,*3A
$PSIWMMPU,846.850,-0.13159,0.02728,-10.13831,-0.42114,1.86768,-1.07727,*08
$PSIWMPOS,001406.850,4910.21646,N,12306.62227,W,1.81,0.07,M,1.21,2,5,0,2,0,*6C
$PSIWMATT,001406.850,270.4,T,-0.4,0.5,0.8,*5C
$PSIWMVEL,001406.850,270.4,T,60.2,K,-0.07,M,*4C
$PSIWMMPU,847.050,0.14738,-0.02823,-10.21774,-1.13220,-1.52893,-0.97656,*2D
$PSIWMMPU,847.250,0.25983,-0.04450,-9.72966,-0.70496,0.72327,-1.13831,*39
$PSIWMMPU,847.450,0.22969,-0.17657,-9.54495,-1.28174,-0.13123,-1.05896,*1D
$GPGGA,215604.000,4910.21653,N,12306.63168,W,1,15,0.7,000.44,M,-16.8,M,,*58
$GPRMC,215604.000,A,4910.21653,N,12306.63168,W,32.2,270.1,230419,,,A*41
$GNGSA,A,3,19,28,06,24,15,17,12,13,01,,,,1.1,0.7,0.9*22
$GNGSA,A,3,88,79,78,80,82,81,,,,,,,1.1,0.7,0.9*28
$PSIWMPVT,847.540,251782.000,3,49.1702755,-123.1105280,0.439,-16.579,0.038,-0.032,4.243,3.162,1.707,0.354,0.000,0.354,2.854,0.398,15,*03
$PSIWMMPU,847.650,-0.07178,-0.04785,-10.66181,-2.37427,-2.82898,-0.96436,*08
$PSIWMMPU,847.850,-0.09092,-0.12298,-9.81292,-0.46387,0.33569,-1.04370,*13
$PSIWMPOS,001407.850,4910.21653,N,12306.63582,W,1.80,0.33,M,1.21,2,5,0,2,0,*66
$PSIWMATT,001407.850,270.0,T,-0.7,0.2,0.8,*5D
$PSIWMVEL,001407.850,270.0,T,59.6,K,0.06,M,*6B
$PSIWMMPU,848.050,-0.24309,-0.12920,-9.73732,-0.27466,-3.03955,-0.88806,*3E
$PSIWMMPU,848.250,-0.11245,-0.13638,-9.28751,0.12817,-0.69275,-0.88196,*18
$PSIWMMPU,848.450,-0.45842,-0.12106,-9.40523,2.89917,5.17578,-0.76904,*38
$GPGGA,215605.000,4910.21647,N,12306.64511,W,1,16,0.6,000.44,M,-16.8,M,,*53
$GPRMC,215605.000,A,4910.21647,N,12306.64511,W,31.7,269.7,230419,,,A*40
$GNGSA,A,3,19,28,06,24,15,17,12,13,01,02,,,1.1,0.6,0.9*21
$GNGSA,A,3,88,79,78,80,82,81,,,,,,,1.1,0.6,0.9*29
$PSIWMPVT,848.540,251783.000,3,49.1702746,-123.1107519,0.443,-16.338,-0.075,-0.023,4.243,3.162,2.102,0.354,0.000,0.500,3.624,0.582,16,*21
$PSIWMMPU,848.650,-0.13351,-0.12968,-10.36130,-2.65808,-1.84937,-0.87585,*00
$PSIWMMPU,848.850,-0.23926,-0.22251,-10.18664,-1.40686,2.51465,-0.65613,*2F
$PSIWMPOS,001408.850,4910.21648,N,12306.64919,W,1.80,0.33,M,1.20,2,5,0,2,0,*6B
$PSIWMATT,001408.850,269.8,T,-0.4,1.0,0.8,*52
$PSIWMVEL,001408.850,269.8,T,58.7,K,-0.05,M,*4A
$PSIWMMPU,849.050,-0.01962,-0.18854,-10.52399,-2.35291,-2.20032,-0.48828,*0E
$PSIWMMPU,849.250,0.03493,-0.21103,-10.25890,-1.07727,-0.74463,-0.47607,*26
$PSIWMMPU,849.450,-0.04402,-0.09044,-9.90527,1.22070,4.27551,-0.60730,*3D
$GPGGA,215606.000,4910.21646,N,12306.65844,W,1,16,0.6,000.27,M,-16.8,M,,*58
$GPRMC,215606.000,A,4910.21646,N,12306.65844,W,31.3,269.7,230419,,,A*4A
$GNGSA,A,3,19,28,06,24,15,17,12,13,01,02,,,1.1,0.6,0.9*21
$GNGSA,A,3,88,79,78,80,82,81,,,,,,,1.1,0.6,0.9*29
$PSIWMPVT,849.540,251783.999,3,49.1702743,-123.1109739,0.272,-16.133,-0.080,-0.021,4.301,3.082,2.012,0.500,0.000,0.500,3.350,0.496,16,*2A
$PSIWMMPU,849.650,0.07513,-0.21677,-9.42293,-0.91553,1.65100,-0.57068,*36
$PSIWMMPU,849.850,0.01675,-0.40052,-10.24406,-0.79956,-0.44250,-0.39062,*2D
$PSIWMPOS,001409.850,4910.21644,N,12306.66245,W,1.80,0.17,M,1.21,2,5,0,2,0,*61
$PSIWMATT,001409.850,269.8,T,0.5,1.0,0.8,*7F
$PSIWMVEL,001409.850,269.8,T,58.0,K,-0.05,M,*4C
$PSIWMMPU,850.050,0.10958,-0.76945,-9.67654,-0.18921,-0.14954,-0.49438,*1C
$PSIWMMPU,850.250,-0.09188,-0.94842,-9.71626,-0.27161,-0.58289,-0.34790,*3E
$PSIWMMPU,850.450,0.04163,-1.13313,-10.01342,-1.24207,-1.33057,-0.42419,*2B
$GPGGA,215607.000,4910.21655,N,12306.67159,W,1,15,0.6,000.32,M,-16.8,M,,*5B
$GPRMC,215607.000,A,4910.21655,N,12306.67159,W,30.8,269.3,230419,,,A*40
$GNGSA,A,3,19,28,06,24,15,17,12,02,,,,,1.1,0.6,0.9*22
$GNGSA,A,3,88,79,78,80,82,81,71,,,,,,1.1,0.6,0.9*2F
$PSIWMPVT,850.540,251784.999,3,49.1702759,-123.1111932,0.316,-15.830,-0.197,0.030,4.301,3.082,2.133,0.500,0.354,0.354,3.546,0.477,15,*08
$PSIWMMPU,850.650,-0.04067,-1.23601,-9.54639,-0.16174,1.06812,-0.32349,*15
$PSIWMMPU,850.850,-0.15504,-1.30922,-10.51634,-1.46179,-3.14331,-0.32043,*01
$PSIWMPOS,001410.850,4910.21648,N,12306.67556,W,1.80,0.42,M,1.21,2,5,0,2,0,*61
$PSIWMATT,001410.850,270.1,T,-0.2,1.5,0.8,*59
$PSIWMVEL,001410.850,270.1,T,58.6,K,-0.01,M,*47
$PSIWMMPU,851.050,-0.14738,-1.53891,-9.90240,-0.91553,-0.45166,-0.33264,*3C
$PSIWMMPU,851.250,-0.23974,-1.74371,-9.72296,0.59204,0.48828,-0.47607,*36
$PSIWMMPU,851.450,-0.05455,-1.77816,-9.34924,-1.63574,2.63672,-0.55847,*15
$GPGGA,215608.000,4910.21642,N,12306.68386,W,1,15,0.7,000.37,M,-16.8,M,,*59
$GPRMC,215608.000,A,4910.21642,N,12306.68386,W,28.3,270.0,230419,,,A*4F
$GNGSA,A,3,19,28,06,24,15,17,12,13,01,,,,1.1,0.7,0.9*22
$GNGSA,A,3,88,79,80,82,81,71,,,,,,,1.1,0.7,0.9*21
$PSIWMPVT,851.540,251786.000,3,49.1702736,-123.1113976,0.368,-14.547,0.001,0.034,4.359,3.162,1.977,0.500,0.000,0.500,3.035,0.508,15,*2F
$PSIWMMPU,851.650,-0.10049,-1.80927,-10.01342,0.79956,-0.50354,-0.51880,*2F
$PSIWMMPU,851.850,-0.11915,-1.78008,-9.04203,-0.92163,1.77002,-0.52795,*1D
$PSIWMPOS,001411.850,4910.21643,N,12306.68772,W,1.81,0.34,M,1.21,2,5,0,2,0,*60
$PSIWMATT,001411.850,270.1,T,-0.7,2.9,0.8,*52
$PSIWMVEL,001411.850,270.1,T,55.7,K,-0.02,M,*49
$PSIWMMPU,852.050,-0.33400,-1.67289,-10.46514,-0.41504,-1.14746,-0.51880,*09
$PSIWMMPU,852.250,-0.14021,-1.72744,-9.77033,-0.83008,-0.04272,-0.57373,*37
$PSIWMMPU,852.450,-0.13733,-1.65040,-10.04404,-1.09558,0.11292,-0.53101,*2C
$GPGGA,215609.000,4910.21628,N,12306.69488,W,1,15,0.7,000.44,M,-16.8,M,,*58
$GPRMC,215609.000,A,4910.21628,N,12306.69488,W,24.7,269.6,230419,,,A*4C
$GNGSA,A,3,19,28,06,24,15,17,12,13,01,,,,1.1,0.7,0.9*22
$GNGSA,A,3,88,79,80,82,81,71,,,,,,,1.1,0.7,0.9*21
$PSIWMPVT,852.540,251786.999,3,49.1702714,-123.1115813,0.441,-12.720,-0.095,-0.050,4.359,3.162,1.941,0.500,0.000,0.354,2.979,0.566,15,*2D
$PSIWMMPU,852.650,-0.08278,-1.54991,-9.83063,-0.12817,-0.23804,-0.62561,*3F
$PSIWMMPU,852.850,-0.32587,-1.07092,-9.83063,-0.43030,-1.20239,-0.49133,*36
$PSIWMPOS,001412.850,4910.21630,N,12306.69839,W,1.81,-0.29,M,1.21,2,5,0,2,0,*47
$PSIWMATT,001412.850,270.0,T,-1.0,4.6,0.8,*5F
$PSIWMVEL,001412.850,270.0,T,48.7,K,-0.00,M,*45
$PSIWMMPU,853.050,-0.26366,-1.18480,-9.87226,-0.41809,1.39465,-0.61646,*18
$PSIWMMPU,853.250,-0.24787,-1.02546,-9.82823,-1.08337,1.55334,-0.48828,*17
$PSIWMMPU,853.450,-0.11341,-0.95320,-9.80718,-1.22070,0.76904,-0.75378,*14
$GPGGA,215610.000,4910.21628,N,12306.70455,W,1,16,0.7,000.35,M,-16.8,M,,*5D
$GPRMC,215610.000,A,4910.21628,N,12306.70455,W,22.0,270.2,230419,,,A*41
$GNGSA,A,3,19,28,06,24,15,17,12,13,01,,,,1.1,0.7,0.9*22
$GNGSA,A,3,88,79,78,80,82,81,71,,,,,,1.1,0.7,0.9*2E
$PSIWMPVT,853.540,251787.999,3,49.1702714,-123.1117425,0.353,-11.304,0.035,-0.059,4.359,3.162,2.023,0.354,0.000,0.354,3.087,0.133,16,*0A
$PSIWMMPU,853.650,-0.03158,-0.63882,-9.94690,-1.64795,1.12305,-0.92773,*11
$PSIWMMPU,853.850,-0.13542,-0.22586,-10.08855,-1.03149,1.37024,-0.90027,*22
$PSIWMPOS,001413.850,4910.21629,N,12306.70764,W,1.81,-0.66,M,1.21,2,5,0,2,0,*4A
$PSIWMATT,001413.850,269.9,T,-0.4,5.6,0.8,*5B
$PSIWMVEL,001413.850,269.9,T,41.0,K,-0.05,M,*4E
$PSIWMMPU,854.050,-0.26031,-0.30290,-10.48954,-0.70190,0.34790,-0.82703,*24
$PSIWMMPU,854.250,0.16413,-0.56082,-9.49806,-0.81177,1.01929,-0.80566,*3D
$PSIWMMPU,854.450,-0.05551,-0.90392,-10.18951,-1.20239,-0.59509,-0.84229,*00
$GPGGA,215611.000,4910.21634,N,12306.71345,W,1,16,0.7,000.37,M,-16.8,M,,*54
$GPRMC,215611.000,A,4910.21634,N,12306.71345,W,20.6,270.1,230419,,,A*4D
$GNGSA,A,3,19,28,06,24,15,17,12,13,01,,,,1.1,0.7,0.9*22
$GNGSA,A,3,88,79,78,80,82,81,71,,,,,,1.1,0.7,0.9*2E
$PSIWMPVT,854.540,251788.999,3,49.1702723,-123.1118909,0.370,-10.624,0.025,-0.059,4.359,3.082,1.906,0.354,0.000,0.500,2.907,0.027,16,*0D
$PSIWMMPU,854.650,0.05646,-1.14557,-9.83828,-0.95520,-1.52893,-0.79346,*13
$PSIWMMPU,854.850,-0.20815,-1.43985,-9.86604,0.25024,0.96436,-0.72632,*36
$PSIWMPOS,001414.850,4910.21629,N,12306.71658,W,2.24,-0.99,M,1.39,2,5,0,2,0,*47
$PSIWMATT,001414.850,269.7,T,-0.3,6.1,0.9,*50
$PSIWMVEL,001414.850,269.7,T,38.6,K,-0.16,M,*4D
$PSIWMMPU,855.050,-0.17083,-1.63126,-9.84211,0.06104,0.57068,-0.65613,*38
$PSIWMMPU,855.250,0.06699,-1.66093,-9.56170,-0.39978,2.09045,-0.82703,*36
$PSIWMMPU,855.450,0.19236,-1.36903,-9.94164,-1.08948,0.79346,-0.77209,*31
$GPGGA,215612.000,4910.21641,N,12306.72161,W,1,16,0.7,000.35,M,-16.8,M,,*50
$GPRMC,215612.000,A,4910.21641,N,12306.72161,W,18.4,269.9,230419,,,A*42
$GNGSA,A,3,19,28,06,24,15,17,12,13,01,,,,1.1,0.7,0.9*22
$GNGSA,A,3,88,79,78,80,82,81,71,,,,,,1.1,0.7,0.9*2E
$PSIWMPVT,855.540,251790.000,3,49.1702735,-123.1120269,0.350,-9.481,-0.009,0.014,4.301,3.082,1.793,0.354,0.000,0.354,2.734,0.074,16,*3D
$PSIWMMPU,855.650,0.09810,-1.16614,-10.11582,-0.86365,-0.05493,-0.77515,*2F
$PSIWMMPU,855.850,0.00431,-1.25228,-9.75215,-0.88806,0.07935,-0.87280,*35
$PSIWMPOS,001415.850,4910.21629,N,12306.72484,W,2.68,-0.99,M,1.56,2,5,0,2,0,*47
$PSIWMATT,001415.850,269.7,T,0.3,6.9,0.9,*74
$PSIWMVEL,001415.850,269.7,T,37.0,K,-0.21,M,*41
$PSIWMMPU,856.050,0.00479,-0.99244,-9.86029,-1.48926,-1.22986,-0.64392,*1D
$PSIWMMPU,856.250,-0.05024,-1.25084,-9.97131,-0.86670,-1.26343,-0.45776,*3E
$PSIWMMPU,856.450,-0.00048,-1.80400,-10.11056,-0.32349,-0.21362,-0.46082,*0C
$GPGGA,215613.000,4910.21650,N,12306.72880,W,1,15,0.7,000.29,M,-16.8,M,,*59
$GPRMC,215613.000,A,4910.21650,N,12306.72880,W,15.9,269.6,230419,,,A*4A
$GNGSA,A,3,19,28,06,24,15,17,13,01,,,,,1.1,0.7,0.9*21
$GNGSA,A,3,88,79,78,80,82,81,71,,,,,,1.1,0.7,0.9*2E
$PSIWMPVT,856.540,251790.999,3,49.1702750,-123.1121467,0.287,-8.183,-0.055,0.019,4.301,3.162,1.781,0.354,0.000,0.354,2.718,0.105,15,*32
$PSIWMMPU,856.650,-0.09140,-2.33516,-9.52964,0.12207,1.03455,-0.44250,*30
$PSIWMMPU,856.850,-0.24261,-2.54427,-9.96939,-0.69275,-0.93079,-0.50049,*37
$PSIWMPOS,001416.850,4910.21632,N,12306.73193,W,2.91,-1.32,M,1.65,2,5,0,2,0,*4A
$PSIWMATT,001416.850,269.8,T,-0.2,7.7,1.0,*53
$PSIWMVEL,001416.850,269.8,T,34.6,K,-0.14,M,*4E
$PSIWMMPU,857.050,0.02967,-2.75721,-9.66650,-0.46692,1.17798,-0.60425,*36
$PSIWMMPU,857.250,-0.03063,-2.77491,-10.00768,-0.87891,-0.46082,-0.76599,*08
$PSIWMMPU,857.450,0.11819,-2.56532,-9.65310,-0.66833,0.18616,-0.58899,*35
$GPGGA,215614.000,4910.21648,N,12306.73433,W,1,17,0.6,000.59,M,-16.8,M,,*56
$GPRMC,215614.000,A,4910.21648,N,12306.73433,W,11.6,269.6,230419,,,A*4A
$GNGSA,A,3,19,28,06,24,15,17,12,13,01,02,,,1.1,0.6,0.9*21
$GNGSA,A,3,88,79,78,80,82,81,71,,,,,,1.1,0.6,0.9*2F
$PSIWMPVT,857.540,251791.999,3,49.1702747,-123.1122389,0.590,-5.949,-0.037,0.018,4.243,3.082,1.547,0.354,0.000,0.500,2.583,0.207,17,*33
$PSIWMMPU,857.650,-0.15504,-2.28874,-10.01581,-1.06201,-1.08643,-0.75684,*01
$PSIWMMPU,857.850,0.02393,-2.15954,-9.82010,-0.67444,0.37537,-0.55847,*3D
$PSIWMPOS,001417.850,4910.21636,N,12306.73758,W,2.99,-1.57,M,1.70,2,5,0,2,0,*41
$PSIWMATT,001417.850,269.8,T,-0.3,8.9,1.0,*52
$PSIWMVEL,001417.850,269.8,T,31.9,K,-0.05,M,*45
$PSIWMMPU,858.050,-0.09618,-1.98919,-9.80909,-0.60730,-0.19836,-0.72937,*3F
$PSIWMMPU,858.250,-0.05838,-1.84181,-9.90097,-0.72327,-0.02747,-0.66528,*33
$PSIWMMPU,858.450,-0.10671,-1.70064,-10.03065,-0.66833,0.35095,-0.65613,*2E
$GPGGA,215615.000,4910.21655,N,12306.73805,W,1,17,0.6,000.40,M,-16.8,M,,*5A
$GPRMC,215615.000,A,4910.21655,N,12306.73805,W,7.0,270.4,230419,,,A*75
$GNGSA,A,3,19,28,06,24,15,17,12,13,01,02,,,1.1,0.6,0.9*21
$GNGSA,A,3,88,79,78,80,82,81,71,,,,,,1.1,0.6,0.9*2F
$PSIWMPVT,858.540,251792.999,3,49.1702759,-123.1123009,0.398,-3.624,0.023,0.023,4.243,3.000,1.598,0.500,0.000,0.500,2.565,0.191,17,*1D
$PSIWMMPU,858.650,-0.17322,-1.56235,-9.94212,-0.77820,-0.18005,-0.65002,*31
$PSIWMMPU,858.850,-0.04881,-1.43076,-9.94930,-0.85754,-0.33875,-0.69275,*3C
$PSIWMPOS,001418.850,4910.21641,N,12306.74134,W,3.01,-1.65,M,1.73,2,5,0,2,0,*47
$PSIWMATT,001418.850,269.8,T,-0.4,10.4,1.1,*6F
$PSIWMVEL,001418.850,269.8,T,23.9,K,-0.11,M,*4C
$PSIWMMPU,859.050,-0.17849,-1.31927,-9.77225,-0.72021,0.61646,-0.68054,*10
$PSIWMMPU,859.250,-0.07752,-1.34511,-10.05457,-0.68970,-0.07019,-0.56763,*0D
$PSIWMMPU,859.450,-0.10192,-1.34846,-9.75071,-0.58289,0.10376,-0.80566,*14
$GPGGA,215616.000,4910.21657,N,12306.74015,W,1,16,0.6,000.58,M,-16.8,M,,*5D
$GPRMC,215616.000,A,4910.21657,N,12306.74015,W,3.9,268.2,230419,,,A*78
$GNGSA,A,3,19,28,06,24,15,17,13,01,02,,,,1.1,0.6,0.9*22
$GNGSA,A,3,88,79,78,80,82,81,71,,,,,,1.1,0.6,0.9*2F
$PSIWMPVT,859.570,251794.000,3,49.1702761,-123.1123359,0.580,-2.004,-0.064,0.031,4.416,3.240,2.086,0.500,0.000,0.500,3.304,0.094,16,*36
$PSIWMMPU,859.650,-0.14116,-1.32118,-9.93446,-0.67749,0.41199,-0.56152,*18
$PSIWMMPU,859.850,-0.10479,-1.09245,-9.81436,-0.82092,0.04578,-0.68359,*1D
$PSIWMPOS,001419.850,4910.21645,N,12306.74303,W,3.02,-1.81,M,1.73,2,5,0,2,0,*4D
$PSIWMATT,001419.850,269.8,T,-0.2,11.8,1.1,*65
$PSIWMVEL,001419.850,269.8,T,13.9,K,-0.11,M,*4E
$PSIWMMPU,860.050,-0.09092,-0.91253,-9.91532,-0.87585,0.15259,-0.63477,*17
$PSIWMMPU,860.250,-0.13159,-0.66227,-9.89140,-0.98267,0.21973,-0.63477,*1A
$PSIWMMPU,860.450,-0.09283,-0.50244,-9.90719,-0.92468,0.11292,-0.65002,*15
$GPGGA,215617.000,4910.21661,N,12306.74118,W,1,16,0.6,000.78,M,-16.8,M,,*57
$GPRMC,215617.000,A,4910.21661,N,12306.74118,W,1.6,272.3,230419,,,A*77
$GNGSA,A,3,19,28,06,24,15,17,13,01,02,,,,1.1,0.6,0.9*22
$GNGSA,A,3,88,79,78,80,82,81,71,,,,,,1.1,0.6,0.9*2F
$PSIWMPVT,860.570,251795.000,3,49.1702769,-123.1123530,0.783,-0.834,0.033,0.039,4.528,3.464,1.852,0.500,0.000,0.500,2.981,0.047,16,*15
$PSIWMMPU,860.650,-0.13255,-0.22203,-9.91819,-1.00098,0.09766,-0.65918,*1B
$PSIWMMPU,860.850,-0.13638,0.05168,-9.95312,-1.00708,0.14954,-0.64087,*3B
$PSIWMPOS,001420.850,4910.21650,N,12306.74315,W,3.03,-1.65,M,1.73,2,5,0,2,0,*4F
$PSIWMATT,001420.850,269.8,T,-0.1,12.6,1.2,*62
$PSIWMVEL,001420.850,269.8,T,2.7,K,-0.17,M,*7C
$PSIWMMPU,861.050,-0.17131,0.36654,-9.86699,-1.01013,-0.08240,-0.66528,*14
$PSIWMMPU,861.250,-0.12585,0.41631,-9.85503,-0.91858,0.21362,-0.61035,*3E
$PSIWMMPU,861.450,-0.12633,0.40100,-9.84594,-0.77820,0.22278,-0.65308,*3A
$GPGGA,215618.000,4910.21661,N,12306.74168,W,1,17,0.6,000.85,M,-16.8,M,,*5C
$GPRMC,215618.000,A,4910.21661,N,12306.74168,W,1.2,268.1,230419,,,A*72
$GNGSA,A,3,19,28,06,24,15,17,12,13,01,02,,,1.1,0.6,0.9*21
$GNGSA,A,3,88,79,78,80,82,81,71,,,,,,1.1,0.6,0.9*2F
$PSIWMPVT,861.570,251795.999,3,49.1702768,-123.1123614,0.849,-0.595,-0.020,0.036,4.637,3.464,2.211,0.500,0.000,0.500,3.509,0.105,17,*3E
$PSIWMMPU,861.650,-0.14260,0.40674,-9.94260,-0.84839,0.12512,-0.68665,*3A
$PSIWMMPU,861.850,-0.14643,0.51919,-9.90623,-0.80566,0.01831,-0.65918,*37
$PSIWMPOS,001421.850,4910.21651,N,12306.74300,W,3.50,-1.98,M,1.83,2,5,0,2,0,*40
$PSIWMATT,001421.850,269.8,T,-0.1,12.6,1.2,*63
$PSIWMVEL,001421.850,269.8,T,6.6,K,-0.31,M,*7C
$PSIWMMPU,862.050,-0.15408,0.73883,-9.87465,-1.02539,0.11292,-0.67139,*3E
$PSIWMMPU,862.250,-0.18519,1.13504,-9.85312,-1.35803,-0.02747,-0.67139,*12
$PSIWMMPU,862.450,-0.18758,1.37860,-9.90767,-1.13831,0.16174,-0.66528,*36
$GPGGA,215619.000,4910.21658,N,12306.74196,W,1,17,0.6,000.32,M,-16.8,M,,*5A
$GPRMC,215619.000,A,4910.21658,N,12306.74196,W,2.0,272.8,230419,,,A*7B
$GNGSA,A,3,19,28,06,24,15,17,12,13,01,02,,,1.1,0.6,0.9*21
$GNGSA,A,3,88,79,78,80,82,81,71,,,,,,1.1,0.6,0.9*2F
$PSIWMPVT,862.540,251796.999,3,49.1702763,-123.1123661,0.319,-1.046,0.051,0.067,4.416,3.082,2.027,0.612,0.000,0.612,3.225,0.270,17,*1D
$PSIWMMPU,862.650,-0.13207,1.46809,-9.87561,-0.99182,0.30823,-0.69275,*36
$PSIWMMPU,862.850,-0.17514,1.64083,-9.85025,-0.98267,0.13733,-0.69885,*37
$PSIWMPOS,001422.850,4910.21651,N,12306.74216,W,3.91,-2.39,M,1.90,2,5,0,2,0,*42
$PSIWMATT,001422.850,269.7,T,-0.0,12.0,1.3,*69
$PSIWMVEL,001422.850,269.7,T,15.1,K,-0.50,M,*42
$PSIWMMPU,863.050,-0.15600,1.75615,-9.87608,-1.06506,0.00305,-0.62561,*31
$PSIWMMPU,863.250,-0.18184,1.84611,-9.79856,-1.01013,0.18616,-0.72021,*33
$PSIWMMPU,863.450,-0.28854,2.05235,-9.85886,-1.11389,-0.06409,-0.75989,*17
$GPGGA,215620.000,4910.21657,N,12306.74324,W,1,16,0.6,000.62,M,-16.8,M,,*50
$GPRMC,215620.000,A,4910.21657,N,12306.74324,W,4.7,270.1,230419,,,A*7F
$GNGSA,A,3,19,28,06,24,15,17,13,01,02,,,,1.1,0.6,0.9*22
$GNGSA,A,3,88,79,78,80,82,81,71,,,,,,1.1,0.6,0.9*2F
$PSIWMPVT,863.540,251798.000,3,49.1702761,-123.1123873,0.618,-2.407,0.004,0.102,4.359,3.000,2.348,0.612,0.000,0.612,3.734,0.324,16,*18
$PSIWMMPU,863.650,-0.17657,2.04900,-9.77272,-0.91858,0.36011,-0.69275,*3C
$PSIWMMPU,863.850,-0.19188,1.91311,-9.91963,-0.67139,0.00305,-0.62866,*38
$PSIWMPOS,001423.850,4910.21652,N,12306.74197,W,4.22,-2.39,M,1.97,2,5,0,2,0,*42
$PSIWMATT,001423.850,269.7,T,-0.0,10.5,1.4,*68
$PSIWMVEL,001423.850,269.7,T,20.6,K,-0.61,M,*40
$PSIWMMPU,864.050,-0.24404,2.18490,-9.97896,-0.44556,0.18616,-0.70801,*39
$PSIWMMPU,864.250,-0.09331,2.22223,-9.68659,-1.20544,-0.01526,-0.74463,*16
$PSIWMMPU,864.450,-0.13111,2.33037,-9.78517,-0.70190,0.72937,-0.69580,*38
$GPGGA,215621.000,4910.21659,N,12306.74600,W,1,16,0.6,000.78,M,-16.8,M,,*57
$GPRMC,215621.000,A,4910.21659,N,12306.74600,W,8.3,270.2,230419,,,A*78
$GNGSA,A,3,19,28,06,24,15,17,13,01,02,,,,1.1,0.6,0.9*22
$GNGSA,A,3,88,79,78,80,82,81,71,,,,,,1.1,0.6,0.9*2F
$PSIWMPVT,864.570,251799.000,3,49.1702766,-123.1124334,0.784,-4.254,0.014,0.135,4.528,3.240,2.820,0.612,0.000,0.612,4.462,0.168,16,*1C
$PSIWMMPU,864.650,-0.26175,2.08681,-10.05313,-0.58899,0.11597,-0.85449,*02
$PSIWMMPU,864.850,-0.06460,1.75854,-9.67750,-0.48523,-0.27771,-0.66223,*17
$PSIWMPOS,001424.850,4910.21652,N,12306.74303,W,4.46,-1.98,M,2.06,2,5,0,2,0,*4B
$PSIWMATT,001424.850,269.6,T,0.1,8.6,1.4,*78
$PSIWMVEL,001424.850,269.6,T,22.0,K,-0.57,M,*47
$PSIWMMPU,865.050,-0.10958,1.77673,-9.40858,-0.62256,2.26746,-0.93079,*34
$PSIWMMPU,865.250,-0.23352,1.63892,-10.17851,-0.33875,-1.04980,-0.67139,*2A
$PSIWMMPU,865.450,-0.02632,1.45612,-9.75693,-0.45776,0.83313,-0.81482,*31
$GPGGA,215622.000,4910.21658,N,12306.75029,W,1,16,0.6,001.01,M,-16.8,M,,*56
$GPRMC,215622.000,A,4910.21658,N,12306.75029,W,11.9,269.7,230419,,,A*49
$GNGSA,A,3,19,28,06,24,15,17,13,01,02,,,,1.1,0.6,0.9*22
$GNGSA,A,3,88,79,78,80,82,81,71,,,,,,1.1,0.6,0.9*2F
$PSIWMPVT,865.570,251799.999,3,49.1702764,-123.1125048,1.011,-6.107,-0.032,0.112,4.637,3.464,2.312,0.612,0.000,0.612,3.664,0.266,16,*37
$PSIWMMPU,865.650,-0.22729,2.01838,-9.66793,-0.94910,0.01526,-0.86975,*36
$PSIWMMPU,865.850,0.03110,1.56188,-10.02682,0.13123,0.37231,-0.61951,*03
$PSIWMPOS,001425.850,4910.21653,N,12306.74554,W,4.65,-1.90,M,2.14,2,5,0,2,0,*45
$PSIWMATT,001425.850,269.4,T,0.1,6.5,1.5,*77
$PSIWMVEL,001425.850,269.4,T,18.8,K,-0.37,M,*43
$PSIWMMPU,866.050,0.18566,1.71691,-9.90862,-1.12305,1.25732,-0.88806,*15
$PSIWMMPU,866.250,-0.21581,1.69442,-9.99523,-1.12305,-0.57373,-0.90332,*10
$PSIWMMPU,866.450,0.07130,1.69012,-10.07802,-0.71716,-0.41199,-0.77209,*02
$GPGGA,215623.000,4910.21649,N,12306.75609,W,1,16,0.6,001.20,M,-16.8,M,,*50
$GPRMC,215623.000,A,4910.21649,N,12306.75609,W,14.9,269.9,230419,,,A*47
$GNGSA,A,3,19,28,06,24,15,17,13,01,02,,,,1.1,0.6,0.9*22
$GNGSA,A,3,88,79,78,80,82,81,71,,,,,,1.1,0.6,0.9*2F
$PSIWMPVT,866.570,251800.999,3,49.1702748,-123.1126015,1.196,-7.687,-0.010,0.125,4.743,3.606,2.531,0.612,0.000,0.612,4.003,0.098,16,*3A
$PSIWMMPU,866.650,0.01244,1.62935,-9.99906,-0.33875,-0.07019,-0.71411,*35
$PSIWMMPU,866.850,-0.29859,1.32979,-9.93207,-0.43640,-0.47302,-0.27161,*14
$PSIWMPOS,001426.850,4910.21651,N,12306.75323,W,3.75,-1.07,M,2.02,2,5,0,2,0,*4C
$PSIWMATT,001426.850,269.3,T,-0.2,3.8,1.5,*55
$PSIWMVEL,001426.850,269.3,T,10.2,K,0.03,M,*6F
$PSIWMMPU,867.050,-0.27036,1.08288,-9.82058,-0.62561,0.28992,-0.30212,*33
$PSIWMMPU,867.250,-0.33353,1.05752,-9.96222,-1.07727,-1.91040,-0.23193,*13
$PSIWMMPU,867.450,-0.26318,1.01732,-9.76028,-0.67749,0.63782,-0.25635,*30
$GPGGA,215624.000,4910.21650,N,12306.76322,W,1,15,0.7,001.18,M,-16.8,M,,*59
$GPRMC,215624.000,A,4910.21650,N,12306.76322,W,17.6,269.1,230419,,,A*43
$GNGSA,A,3,19,28,06,24,15,17,13,01,,,,,1.1,0.7,0.9*21
$GNGSA,A,3,88,79,78,80,82,81,71,,,,,,1.1,0.7,0.9*2E
$PSIWMPVT,867.540,251802.000,3,49.1702750,-123.1127203,1.184,-9.039,-0.136,0.147,4.743,3.674,2.902,0.354,0.000,0.000,4.516,0.094,15,*34
$PSIWMMPU,867.650,-0.17801,0.95416,-10.06749,-0.84229,-0.63171,-0.22583,*25
$PSIWMMPU,867.850,-0.22634,0.96564,-10.20483,-0.76904,-1.01929,-0.25024,*25
$PSIWMPOS,001427.850,4910.21650,N,12306.75990,W,3.31,-0.66,M,1.89,2,5,0,2,0,*48
$PSIWMATT,001427.850,269.7,T,-0.8,1.4,1.5,*54
$PSIWMVEL,001427.850,269.7,T,0.4,K,0.26,M,*5A
$PSIWMMPU,868.050,-0.27897,0.93933,-9.90767,-0.55237,-0.49744,-0.22583,*1C
$PSIWMMPU,868.250,-0.24596,0.92354,-9.89140,-0.52185,1.05896,-0.29907,*32
$PSIWMMPU,868.450,-0.29859,0.99292,-9.71339,-0.33264,1.18713,-0.31128,*35
$GPGGA,215625.000,4910.21651,N,12306.77119,W,1,16,0.7,001.15,M,-16.8,M,,*5C
$GPRMC,215625.000,A,4910.21651,N,12306.77119,W,19.2,269.9,230419,,,A*4A
$GNGSA,A,3,19,28,06,24,15,17,12,13,01,,,,1.1,0.7,0.9*22
$GNGSA,A,3,88,79,78,80,82,81,71,,,,,,1.1,0.7,0.9*2E
$PSIWMPVT,868.540,251803.000,3,49.1702752,-123.1128531,1.153,-9.905,-0.026,0.119,4.796,3.674,2.344,0.354,0.000,0.000,3.848,0.086,16,*37
$PSIWMMPU,868.650,-0.32348,0.77232,-9.94882,-0.34790,1.44348,-0.39673,*37
$PSIWMMPU,868.850,-0.40052,0.61011,-9.71865,-0.78125,-0.17395,-0.26550,*14
$PSIWMPOS,001428.850,4910.21650,N,12306.76744,W,3.19,-0.57,M,1.82,2,5,0,2,0,*40
$PSIWMATT,001428.850,270.0,T,-1.1,-0.9,1.6,*7E
$PSIWMVEL,001428.850,270.0,T,10.6,K,0.41,M,*68
$PSIWMMPU,869.050,-0.31726,0.39621,-9.62391,0.14343,2.80457,-0.28076,*17
$PSIWMMPU,869.250,-0.35793,0.45028,-9.77799,-0.95520,-0.38452,-0.14038,*18
$PSIWMMPU,869.450,-0.39813,0.50436,-9.91532,-0.92773,1.04980,-0.26245,*3A
$GPGGA,215626.000,4910.21643,N,12306.77974,W,1,16,0.7,001.27,M,-16.8,M,,*5E
$GPRMC,215626.000,A,4910.21643,N,12306.77974,W,20.4,270.2,230419,,,A*46
$GNGSA,A,3,19,28,06,24,15,17,12,13,01,,,,1.1,0.7,0.9*22
$GNGSA,A,3,88,79,78,80,82,81,71,,,,,,1.1,0.7,0.9*2E
$PSIWMPVT,869.540,251804.000,3,49.1702739,-123.1129957,1.266,-10.524,0.031,0.108,4.796,3.674,2.383,0.354,0.000,0.000,4.089,0.098,16,*2E
$PSIWMMPU,869.650,-0.33448,0.35458,-9.74880,-0.05798,1.25732,-0.37842,*36
$PSIWMMPU,869.850,-0.38521,0.29524,-9.64783,-1.27869,0.75073,-0.28076,*30
$PSIWMPOS,001429.850,4910.21648,N,12306.77687,W,3.15,-0.49,M,1.78,2,5,0,2,0,*41
$PSIWMATT,001429.850,270.4,T,-1.1,-3.0,1.6,*71
$PSIWMVEL,001429.850,270.4,T,22.9,K,0.40,M,*62
$PSIWMMPU,870.050,-0.34405,0.32108,-10.31488,-2.26440,-0.67139,-0.45166,*24
$PSIWMMPU,870.250,-0.25888,0.24691,-9.77560,0.61646,1.29700,-0.37537,*15
$PSIWMMPU,870.450,-0.18040,0.07321,-9.52437,-0.54016,-0.33264,-0.31738,*19
$GPGGA,215627.000,4910.21646,N,12306.78886,W,1,16,0.7,001.18,M,-16.8,M,,*55
$GPRMC,215627.000,A,4910.21646,N,12306.78886,W,21.0,270.4,230419,,,A*42
$GNGSA,A,3,19,28,06,24,15,17,12,13,01,,,,1.1,0.7,0.9*22
$GNGSA,A,3,88,79,78,80,82,81,71,,,,,,1.1,0.7,0.9*2E
$PSIWMPVT,870.540,251804.999,3,49.1702744,-123.1131477,1.176,-10.818,0.073,0.140,4.583,3.162,2.148,0.354,0.000,0.000,3.410,0.098,16,*29
$PSIWMMPU,870.650,-0.31678,-0.08135,-9.84929,-0.50964,1.29700,-0.66223,*14
$PSIWMMPU,870.850,-0.24596,-0.03924,-10.16271,-1.69983,-2.20642,-0.91858,*07
$PSIWMPOS,001430.850,4910.21651,N,12306.78773,W,3.12,-0.74,M,1.75,2,5,0,2,0,*40
$PSIWMATT,001430.850,270.5,T,-1.4,-5.0,1.7,*7A
$PSIWMVEL,001430.850,270.5,T,34.1,K,0.23,M,*61
$PSIWMMPU,871.050,-0.03445,-0.15121,-9.60094,-0.17395,-0.71411,-1.05896,*37
$PSIWMMPU,871.250,-0.28854,-0.32013,-9.96557,-0.39368,0.13733,-1.12610,*14
$PSIWMMPU,871.450,-0.22395,-0.40052,-9.66027,0.07629,-0.10681,-1.05286,*18
$GPGGA,215628.000,4910.21661,N,12306.79795,W,1,17,0.6,001.01,M,-16.8,M,,*5B
$GPRMC,215628.000,A,4910.21661,N,12306.79795,W,20.8,270.8,230419,,,A*41
$GNGSA,A,3,19,28,06,24,15,17,12,13,01,02,,,1.1,0.6,0.9*21
$GNGSA,A,3,88,79,78,80,82,81,71,,,,,,1.1,0.6,0.9*2F
$PSIWMPVT,871.540,251806.000,3,49.1702769,-123.1132992,1.011,-10.700,0.145,0.138,4.472,2.915,2.039,0.354,0.000,0.000,3.386,0.191,17,*24
$PSIWMMPU,871.650,-0.07608,-0.43210,-9.64448,-0.39978,-0.23193,-1.12000,*31
$PSIWMMPU,871.850,-0.17944,-0.35458,-10.01916,-1.65100,-0.98267,-1.01013,*08
$PSIWMPOS,001431.850,4910.21658,N,12306.79871,W,3.12,-0.74,M,1.75,2,5,0,2,0,*44
$PSIWMATT,001431.850,270.2,T,-1.7,-5.7,1.7,*78
$PSIWMVEL,001431.850,270.2,T,42.4,K,-0.13,M,*4D
$PSIWMMPU,872.050,-0.17227,-0.30242,-9.78230,-0.62256,0.56763,-1.03455,*10
$PSIWMMPU,872.250,-0.21868,-0.35410,-9.80048,-0.93079,0.35095,-1.03149,*1A
$PSIWMMPU,872.450,-0.05551,-0.30673,-10.04835,-0.86670,-0.20142,-1.01624,*0E
$GPGGA,215629.000,4910.21644,N,12306.80666,W,1,17,0.6,001.23,M,-16.8,M,,*56
$GPRMC,215629.000,A,4910.21644,N,12306.80666,W,19.9,270.1,230419,,,A*4E
$GNGSA,A,3,19,28,06,24,15,17,12,13,01,02,,,1.1,0.6,0.9*21
$GNGSA,A,3,88,79,78,80,82,81,71,,,,,,1.1,0.6,0.9*2F
$PSIWMPVT,872.540,251807.000,3,49.1702740,-123.1134443,1.228,-10.264,0.020,0.075,4.416,2.828,2.023,0.354,0.000,0.000,3.365,0.211,17,*2F
$PSIWMMPU,872.650,0.02823,-0.41057,-9.73062,0.62866,1.84326,-1.08337,*18
$PSIWMMPU,872.850,-0.19045,-0.49431,-10.18856,-1.25122,-0.68665,-0.98267,*09
$PSIWMPOS,001432.850,4910.21653,N,12306.80907,W,3.14,-0.98,M,1.76,2,5,0,2,0,*4D
$PSIWMATT,001432.850,269.7,T,-1.8,-6.0,1.6,*7C
$PSIWMVEL,001432.850,269.7,T,46.4,K,-0.32,M,*44
$PSIWMMPU,873.050,-0.05886,-0.51393,-9.94547,-0.60120,0.21362,-1.00403,*19
$PSIWMMPU,873.250,-0.13159,-0.71060,-10.16080,-0.75378,-0.63171,-0.96130,*0D
$PSIWMMPU,873.450,-0.20098,-0.99196,-10.03017,-0.32959,-0.26855,-0.72327,*09
$GPGGA,215630.000,4910.21630,N,12306.81497,W,1,17,0.6,001.10,M,-16.8,M,,*50
$GPRMC,215630.000,A,4910.21630,N,12306.81497,W,18.9,269.6,230419,,,A*46
$GNGSA,A,3,19,28,06,24,15,17,12,13,01,02,,,1.1,0.6,0.9*21
$GNGSA,A,3,88,79,78,80,82,81,71,,,,,,1.1,0.6,0.9*2F
$PSIWMPVT,873.540,251808.000,3,49.1702717,-123.1135828,1.104,-9.721,-0.072,0.053,4.359,2.828,1.438,0.354,0.000,0.000,2.493,0.102,17,*33
$PSIWMMPU,873.650,-0.29620,-1.49345,-9.91341,-0.52490,-0.63171,0.18616,*12
$PSIWMMPU,873.850,-0.64360,-1.72266,-9.76459,-0.24719,0.45776,1.52588,*3B
$PSIWMPOS,001433.850,4910.21640,N,12306.81858,W,3.15,-1.06,M,1.78,2,5,0,2,0,*4D
$PSIWMATT,001433.850,269.8,T,-2.0,-5.3,1.5,*7A
$PSIWMVEL,001433.850,269.8,T,48.7,K,-0.47,M,*45
$PSIWMMPU,874.050,-0.70629,-2.27199,-9.94978,0.08240,-2.33154,3.07922,*37
$PSIWMMPU,874.250,-0.88382,-2.65768,-9.80096,0.21057,0.39062,5.31311,*13
$PSIWMMPU,874.450,-1.42167,-2.50264,-9.88996,-0.84839,-0.63477,8.28247,*12
$GPGGA,215631.000,4910.21623,N,12306.82234,W,1,17,0.6,000.90,M,-16.8,M,,*56
$GPRMC,215631.000,A,4910.21623,N,12306.82234,W,16.2,270.2,230419,,,A*40
$GNGSA,A,3,19,28,06,24,15,17,12,13,01,02,,,1.1,0.6,0.9*21
$GNGSA,A,3,88,79,78,80,82,81,71,,,,,,1.1,0.6,0.9*2F
$PSIWMPVT,874.540,251808.999,3,49.1702704,-123.1137057,0.899,-8.323,0.035,0.112,4.301,2.828,1.590,0.354,0.000,0.000,2.674,0.430,17,*1D
$PSIWMMPU,874.650,-1.67241,-2.24567,-10.06079,-0.50964,-0.64392,9.91211,*2A
$PSIWMMPU,874.850,-1.53604,-2.59068,-10.01438,0.33569,1.91040,13.09509,*17
$PSIWMPOS,001434.850,4910.21647,N,12306.82697,W,3.15,-1.23,M,1.80,2,5,0,2,0,*43
$PSIWMATT,001434.850,276.8,T,-2.5,-3.8,1.3,*7D
$PSIWMVEL,001434.850,276.8,T,50.6,K,-0.57,M,*45
$PSIWMMPU,875.050,-2.05522,-2.34377,-9.98040,-2.00806,-3.86353,18.08472,*28
$PSIWMMPU,875.250,-3.08595,-1.18720,-10.14405,-0.18616,2.16980,20.29419,*38
$PSIWMMPU,875.450,-2.24855,-0.38329,-9.87561,-1.21155,2.46887,23.50159,*0B
$GPGGA,215632.000,4910.21653,N,12306.82815,W,1,16,0.6,001.10,M,-16.8,M,,*53
$GPRMC,215632.000,A,4910.21653,N,12306.82815,W,11.5,281.0,230419,,,A*41
$GNGSA,A,3,19,28,06,24,15,17,12,13,01,02,,,1.1,0.6,0.9*21
$GNGSA,A,3,79,78,80,82,81,71,,,,,,,1.1,0.6,0.9*2F
$PSIWMPVT,875.570,251810.000,3,49.1702755,-123.1138024,1.100,-5.812,1.134,0.074,4.528,3.162,2.078,0.354,0.000,0.000,3.346,0.219,16,*1E
$PSIWMMPU,875.650,-3.08164,-0.29046,-9.59328,1.16272,-4.13208,25.39062,*06
$PSIWMMPU,875.850,-2.95914,-0.31438,-9.36455,-0.26855,0.41199,27.00195,*06
$PSIWMPOS,001435.850,4910.21735,N,12306.83243,W,3.16,-1.48,M,1.81,2,5,0,2,0,*45
$PSIWMATT,001435.850,298.0,T,-4.2,-3.1,1.2,*7D
$PSIWMVEL,001435.850,298.0,T,40.9,K,-0.29,M,*4B
$PSIWMMPU,876.050,-2.87205,-0.08853,-9.54782,0.84229,0.74463,26.95312,*21
$PSIWMMPU,876.250,-3.63289,0.03397,-9.97944,2.25830,-2.62756,27.92969,*24
$PSIWMMPU,876.450,-3.32664,0.39047,-9.53060,3.50037,2.23694,28.83606,*03
$GPGGA,215633.000,4910.21766,N,12306.83219,W,1,15,0.6,001.06,M,-16.8,M,,*56
$GPRMC,215633.000,A,4910.21766,N,12306.83219,W,10.3,306.5,230419,,,A*4C
$GNGSA,A,3,19,28,06,24,15,17,12,01,02,,,,1.1,0.6,0.9*23
$GNGSA,A,3,79,78,80,82,81,71,,,,,,,1.1,0.6,0.9*2F
$PSIWMPVT,876.580,251811.000,3,49.1702943,-123.1138698,1.061,-4.278,3.171,0.067,4.637,3.317,2.262,0.354,0.000,0.354,3.578,0.137,15,*1A
$PSIWMMPU,876.650,-3.46110,0.46703,-9.82297,2.91138,-3.82385,29.27856,*2B
$PSIWMMPU,876.850,-3.85253,0.41392,-8.43001,-0.54321,1.28479,28.80554,*20
$PSIWMPOS,001436.850,4910.21872,N,12306.83446,W,3.29,-1.97,M,1.86,2,5,0,2,0,*40
$PSIWMATT,001436.850,326.3,T,-7.4,-1.5,1.2,*7A
$PSIWMVEL,001436.850,326.3,T,25.2,K,-0.04,M,*48
$PSIWMMPU,877.050,-3.49986,1.00536,-10.08950,-3.25928,1.98975,28.65906,*11
$PSIWMMPU,877.250,-3.13715,1.46521,-10.09381,-1.38855,-0.67139,27.81982,*3B
$PSIWMMPU,877.450,-3.89081,1.56522,-10.02873,1.69067,2.92664,26.13525,*3A
$GPGGA,215634.000,4910.21993,N,12306.83467,W,1,15,0.6,000.99,M,-16.8,M,,*5D
$GPRMC,215634.000,A,4910.21993,N,12306.83467,W,11.1,336.6,230419,,,A*43
$GNGSA,A,3,19,28,06,24,15,17,12,02,,,,,1.1,0.6,0.9*22
$GNGSA,A,3,88,79,78,80,82,81,71,,,,,,1.1,0.6,0.9*2F
$PSIWMPVT,877.580,251812.000,3,49.1703322,-123.1139111,0.986,-2.269,5.252,0.055,4.690,3.391,2.250,0.354,0.000,0.500,3.560,0.109,15,*10
$PSIWMMPU,877.650,-3.09647,1.66906,-9.52868,0.02747,-0.71716,22.48535,*26
$PSIWMMPU,877.850,-2.57872,1.70399,-9.18846,1.34277,3.48816,15.70435,*04
$PSIWMPOS,001437.850,4910.21968,N,12306.83470,W,3.33,-2.14,M,1.86,2,5,0,2,0,*4D
$PSIWMATT,001437.850,352.7,T,-7.3,-3.1,1.2,*7D
$PSIWMVEL,001437.850,352.7,T,12.0,K,0.28,M,*6B
$PSIWMMPU,878.050,-1.82745,1.73223,-9.97131,-0.07019,1.34888,9.17969,*1E
$PSIWMMPU,878.250,-1.17332,1.66045,-9.56888,-0.37231,0.17395,5.48706,*19
$PSIWMMPU,878.450,-0.76467,1.65662,-9.78756,-0.18921,2.24915,3.18909,*1B
$GPGGA,215635.000,4910.22308,N,12306.83556,W,1,15,0.6,000.94,M,-16.8,M,,*59
$GPRMC,215635.000,A,4910.22308,N,12306.83556,W,14.0,358.4,230419,,,A*44
$GNGSA,A,3,19,28,06,24,17,12,13,01,02,,,,1.1,0.6,0.9*25
$GNGSA,A,3,79,78,80,82,81,71,,,,,,,1.1,0.6,0.9*2F
$PSIWMPVT,878.580,251813.000,3,49.1703847,-123.1139260,0.942,-0.198,7.219,0.050,4.743,3.606,1.930,0.500,0.000,0.500,3.050,0.078,15,*10
$PSIWMMPU,878.650,-0.62733,1.37430,-9.88278,-0.23804,0.19836,1.59302,*1E
$PSIWMMPU,878.850,-0.64504,1.27429,-9.60237,-0.05188,1.85852,0.95520,*1C
$PSIWMPOS,001438.850,4910.22172,N,12306.83541,W,3.35,-1.97,M,1.85,2,5,0,2,0,*4C
$PSIWMATT,001438.850,359.6,T,-7.2,-3.6,1.2,*7E
$PSIWMVEL,001438.850,359.6,T,5.3,K,0.05,M,*54
$PSIWMMPU,879.050,-0.24691,1.16040,-9.86412,-0.29297,1.20239,0.14648,*11
$PSIWMMPU,879.250,-0.16413,1.01732,-9.88278,-0.03052,-0.54932,-0.40283,*19
$PSIWMMPU,879.450,-0.25601,1.02211,-9.49327,-0.25635,1.88293,-0.50964,*32
$GPGGA,215636.000,4910.22718,N,12306.83558,W,1,15,0.6,000.65,M,-16.8,M,,*5F
$GPRMC,215636.000,A,4910.22718,N,12306.83558,W,16.6,1.9,230419,,,A*4A
$GNGSA,A,3,19,28,06,24,15,17,12,01,02,,,,1.1,0.6,0.9*23
$GNGSA,A,3,88,79,78,80,81,71,,,,,,,1.1,0.6,0.9*25
$PSIWMPVT,879.580,251814.000,3,49.1704531,-123.1139263,0.654,0.284,8.546,0.042,4.848,3.674,2.203,0.500,0.000,0.500,3.484,0.062,15,*3B
$PSIWMMPU,879.650,-0.06556,1.20921,-10.05361,-1.36414,-1.66016,-1.15967,*29
$PSIWMMPU,879.850,-0.12537,1.12978,-9.64735,-0.66223,0.99792,-1.29089,*35
$PSIWMPOS,001439.850,4910.22555,N,12306.83575,W,3.39,-1.81,M,1.84,2,5,0,2,0,*41
$PSIWMATT,001439.850,0.4,T,-7.2,-5.5,1.3,*76
$PSIWMVEL,001439.850,0.4,T,13.3,K,-0.07,M,*40
$PSIWMMPU,880.050,-0.07800,1.19533,-10.52974,-1.09558,0.17090,-1.17493,*0A
$PSIWMMPU,880.250,-0.06412,0.86420,-9.96461,-1.12000,-1.07117,-1.13831,*1A
$PSIWMMPU,880.450,0.10814,0.82065,-9.80287,-0.31738,0.63782,-1.22681,*1B
$GPGGA,215637.000,4910.23202,N,12306.83541,W,1,17,0.6,000.57,M,-16.8,M,,*5A
$GPRMC,215637.000,A,4910.23202,N,12306.83541,W,18.5,1.7,230419,,,A*4F
$GNGSA,A,3,19,28,06,24,15,17,12,13,01,02,,,1.1,0.6,0.9*21
$GNGSA,A,3,88,79,78,80,82,81,71,,,,,,1.1,0.6,0.9*2F
$PSIWMPVT,880.570,251815.000,3,49.1705336,-123.1139234,0.574,0.275,9.496,-0.010,4.848,3.674,2.426,0.354,0.000,0.000,3.839,0.043,17,*11
$PSIWMMPU,880.650,0.01531,0.65892,-9.55261,-0.39978,1.21765,-1.07727,*1C
$PSIWMMPU,880.850,-0.02345,0.55125,-9.84211,-0.91553,0.84534,-1.04370,*3E
$PSIWMPOS,001440.850,4910.23076,N,12306.83567,W,3.41,-1.72,M,1.84,2,5,0,2,0,*4A
$PSIWMATT,001440.850,0.3,T,-7.4,-7.8,1.3,*76
$PSIWMVEL,001440.850,0.3,T,23.5,K,-0.25,M,*4C
$PSIWMMPU,881.050,-0.01005,0.60484,-9.74306,-0.18616,1.12610,-1.18713,*37
$PSIWMMPU,881.250,-0.06651,0.74409,-9.84355,-0.93384,-0.70496,-1.13525,*19
$PSIWMMPU,881.450,0.08278,0.65987,-9.54639,-0.76904,-0.22278,-1.11389,*30
$GPGGA,215638.000,4910.23729,N,12306.83523,W,1,17,0.6,000.28,M,-16.8,M,,*55
$GPRMC,215638.000,A,4910.23729,N,12306.83523,W,19.7,0.9,230419,,,A*44
$GNGSA,A,3,19,28,06,24,15,17,12,13,01,02,,,1.1,0.6,0.9*21
$GNGSA,A,3,88,79,78,80,82,81,71,,,,,,1.1,0.6,0.9*2F
$PSIWMPVT,881.540,251816.000,3,49.1706214,-123.1139206,0.277,0.156,10.145,-0.013,4.528,3.240,1.660,0.354,0.000,0.000,2.628,0.066,17,*26
$PSIWMMPU,881.650,0.01818,0.65030,-9.96126,-0.42725,0.47607,-1.12610,*1B
$PSIWMMPU,881.850,0.04546,0.64312,-9.58897,-1.13525,1.08948,-1.36108,*14
$PSIWMPOS,001441.850,4910.23702,N,12306.83547,W,3.39,-1.81,M,1.83,2,5,0,2,0,*49
$PSIWMATT,001441.850,0.1,T,-7.1,-9.2,1.3,*74
$PSIWMVEL,001441.850,0.1,T,33.0,K,-0.54,M,*4D
$PSIWMMPU,882.050,-0.10862,0.58140,-9.77847,-0.25024,-0.10376,-1.51367,*1E
$PSIWMMPU,882.250,0.16174,0.72256,-9.39183,-0.17395,-1.62354,-1.53503,*34
$PSIWMMPU,882.450,-0.02680,0.74983,-9.58323,-1.73340,0.26245,-1.65710,*3F
$GPGGA,215639.000,4910.24296,N,12306.83511,W,1,17,0.6,000.12,M,-16.8,M,,*5A
$GPRMC,215639.000,A,4910.24296,N,12306.83511,W,21.0,0.2,230419,,,A*45
$GNGSA,A,3,19,28,06,24,15,17,12,13,01,02,,,1.1,0.6,0.9*21
$GNGSA,A,3,88,79,78,80,82,81,71,,,,,,1.1,0.6,0.9*2F
$PSIWMPVT,882.570,251816.999,3,49.1707161,-123.1139185,0.120,0.038,10.801,-0.001,4.637,3.464,1.906,0.354,0.000,0.000,3.013,0.086,17,*26
$PSIWMMPU,882.650,0.08230,0.71203,-10.13448,-1.77307,0.70801,-1.91956,*27
$PSIWMMPU,882.850,0.17227,0.60724,-9.61434,-0.07019,-0.17395,-1.87073,*3E
$PSIWMPOS,001442.850,4910.24362,N,12306.83526,W,3.21,-1.31,M,1.80,2,5,0,2,0,*49
$PSIWMATT,001442.850,359.5,T,-6.7,-10.0,1.3,*41
$PSIWMVEL,001442.850,359.5,T,39.8,K,-0.75,M,*44
$PSIWMMPU,883.050,0.08709,0.69576,-9.41671,-0.94604,-1.07117,-1.85547,*35
$PSIWMMPU,883.250,0.32730,0.42875,-9.70669,-0.02441,1.34583,-1.82495,*19
$PSIWMMPU,883.450,0.26749,0.43736,-9.39422,-1.38550,0.38147,-1.33362,*10
$GPGGA,215640.000,4910.24905,N,12306.83511,W,1,17,0.6,000.07,M,-16.8,M,,*51
$GPRMC,215640.000,A,4910.24905,N,12306.83511,W,22.2,359.3,230419,,,A*45
$GNGSA,A,3,19,28,06,24,15,17,12,13,01,02,,,1.1,0.6,0.9*21
$GNGSA,A,3,88,79,78,80,82,81,71,,,,,,1.1,0.6,0.9*2F
$PSIWMPVT,883.580,251817.999,3,49.1708175,-123.1139185,0.074,-0.130,11.442,-0.037,4.690,3.606,2.113,0.354,0.000,0.000,3.344,0.043,17,*04
$PSIWMMPU,883.650,-0.23112,0.58522,-10.44121,-0.88501,1.72424,-0.97046,*00
$PSIWMMPU,883.850,0.01914,0.41966,-9.57893,-0.27466,-0.98877,-0.87891,*37
$PSIWMPOS,001443.850,4910.25024,N,12306.83517,W,3.18,-1.39,M,1.80,2,5,0,2,0,*48
$PSIWMATT,001443.850,359.0,T,-6.2,-9.9,1.3,*71
$PSIWMVEL,001443.850,359.0,T,44.5,K,-0.90,M,*4C
$PSIWMMPU,884.050,0.09810,0.40100,-9.67607,-0.56763,1.18713,-0.82703,*14
$PSIWMMPU,884.250,0.05407,0.56704,-10.17372,-1.18713,-1.70288,-0.90027,*07
$PSIWMMPU,884.450,0.05981,0.54216,-9.74354,-0.83313,-1.12610,-0.71411,*37
$GPGGA,215641.000,4910.25545,N,12306.83522,W,1,17,0.6,-00.01,M,-16.8,M,,*42
$GPRMC,215641.000,A,4910.25545,N,12306.83522,W,23.0,358.6,230419,,,A*4A
$GNGSA,A,3,19,28,06,24,15,17,12,13,01,02,,,1.1,0.6,0.9*21
$GNGSA,A,3,88,79,78,80,82,81,71,,,,,,1.1,0.6,0.9*2F
$PSIWMPVT,884.580,251818.999,3,49.1709242,-123.1139204,-0.009,-0.280,11.845,-0.047,4.743,3.742,2.387,0.354,0.000,0.000,3.773,0.051,17,*21
$PSIWMMPU,884.650,-0.06269,0.52015,-10.02395,-1.02234,0.03662,-0.80872,*07
$PSIWMMPU,884.850,-0.15169,0.58762,-10.15027,-0.53406,-0.71411,-0.75989,*2A
$PSIWMPOS,001444.850,4910.25704,N,12306.83520,W,3.19,-1.64,M,1.81,2,5,0,2,0,*46
$PSIWMATT,001444.850,359.1,T,-5.9,-9.7,1.3,*71
