$PSIWMMPU,7170.050,-0.44263,0.34932,-10.03926,-0.71716,-0.45776,-0.24414,*1E
$PSIWMMPU,7170.250,-0.42827,0.36846,-10.03447,-0.61035,-0.32043,-0.32043,*1D
$PSIWMMPU,7170.450,-0.42827,0.33161,-10.05122,-0.55237,-0.28076,-0.31128,*17
$GPGGA,234140.000,4910.36073,N,12304.22316,W,1,11,0.8,002.72,M,-16.8,M,,*5E
$GPRMC,234140.000,A,4910.36073,N,12304.22316,W,0.0,0.0,230419,,,A*7C
$GNGSA,A,3,19,12,06,24,17,14,02,,,,,,1.2,0.8,1.0*2C
$GNGSA,A,3,82,79,80,73,,,,,,,,,1.2,0.8,1.0*2E
$PSIWMPVT,7170.630,258118.000,3,49.1726789,-123.0703859,2.723,0.005,-0.005,0.003,6.892,4.637,23.367,0.707,0.000,0.000,42.780,0.039,11,*23
$PSIWMMPU,7170.650,-0.46033,0.34836,-10.03399,-0.58289,-0.40894,-0.34790,*16
$PSIWMMPU,7170.850,-0.44789,0.36511,-10.05314,-0.57068,-0.28687,-0.28076,*17
$PSIWMMPU,7171.050,-0.46177,0.33448,-10.01629,-0.50964,-0.28992,-0.29602,*11
$PSIWMMPU,7171.250,-0.42923,0.36319,-10.04644,-0.55847,-0.29297,-0.25635,*14
$PSIWMMPU,7171.450,-0.47804,0.34884,-10.04309,-0.51270,-0.28687,-0.30823,*11
$GPGGA,234141.000,4910.36073,N,12304.22316,W,1,11,0.8,002.72,M,-16.8,M,,*5F
$GPRMC,234141.000,A,4910.36073,N,12304.22316,W,0.0,0.0,230419,,,A*7D
$GNGSA,A,3,19,12,06,24,17,14,02,,,,,,1.2,0.8,1.0*2C
$GNGSA,A,3,82,79,80,73,,,,,,,,,1.2,0.8,1.0*2E
$PSIWMPVT,7171.630,258119.000,3,49.1726789,-123.0703859,2.723,-0.002,-0.010,0.002,6.928,4.637,23.289,0.707,0.000,0.000,43.105,0.188,11,*0C
$PSIWMMPU,7171.650,-0.43880,0.34118,-10.02873,-0.55237,-0.39978,-0.32959,*11
$PSIWMMPU,7171.850,-0.45268,0.34740,-9.98327,-0.57678,-0.39673,-0.35400,*20
$PSIWMPDR,6316.750,49.1726687,-123.0703855,0.537,-98.500091553,-1010101.125000000,0,-0.535804152,-0.366293222,-0.164825544,37.93,0.066643521,0.079533182,0.055173844,0.034222893,93.438087463,152,*3D
$PSIWMMPU,7172.050,-0.45268,0.33640,-10.01773,-0.45166,-0.27161,-0.27771,*16
$PSIWMMPU,7172.250,-0.44741,0.35171,-10.05553,-0.51270,-0.32043,-0.30823,*16
$PSIWMMPU,7172.450,-0.43593,0.34836,-10.05888,-0.59814,-0.37537,-0.28687,*10
$GPGGA,234142.000,4910.36073,N,12304.22316,W,1,11,0.8,002.72,M,-16.8,M,,*5C
$GPRMC,234142.000,A,4910.36073,N,12304.22316,W,0.0,0.0,230419,,,A*7E
$GNGSA,A,3,19,12,06,24,17,14,02,,,,,,1.2,0.8,1.0*2C
$GNGSA,A,3,82,79,80,73,,,,,,,,,1.2,0.8,1.0*2E
$PSIWMPVT,7172.630,258120.000,3,49.1726789,-123.0703859,2.723,0.010,0.001,0.003,6.928,4.637,23.840,0.707,0.000,0.000,44.068,0.258,11,*0B
$PSIWMMPU,7172.650,-0.46895,0.34357,-10.04787,-0.58289,-0.39368,-0.30518,*10
$PSIWMMPU,7172.850,-0.43066,0.34262,-10.00098,-0.58899,-0.34485,-0.28381,*18
$PSIWMMPU,7173.050,-0.46512,0.34118,-10.01150,-0.54626,-0.34790,-0.33569,*13
$PSIWMMPU,7173.250,-0.43210,0.33640,-10.01485,-0.54016,-0.34790,-0.29907,*1B
$PSIWMMPU,7173.450,-0.47325,0.35554,-10.07228,-0.61035,-0.37842,-0.30518,*17
$GPGGA,234143.000,4910.36073,N,12304.22316,W,1,10,0.8,002.72,M,-16.8,M,,*5C
$GPRMC,234143.000,A,4910.36073,N,12304.22316,W,0.0,0.0,230419,,,A*7F
$GNGSA,A,3,19,12,06,24,17,02,,,,,,,1.2,0.8,1.0*29
$GNGSA,A,3,82,79,80,73,,,,,,,,,1.2,0.8,1.0*2E
$PSIWMPVT,7173.630,258120.999,3,49.1726789,-123.0703859,2.723,-0.002,-0.009,-0.003,6.928,4.637,24.629,0.707,0.000,0.000,45.175,0.035,10,*27
$PSIWMMPU,7173.650,-0.44358,0.35314,-10.02586,-0.58289,-0.36316,-0.31128,*1A
$PSIWMMPU,7173.850,-0.45842,0.34788,-10.02634,-0.51880,-0.41504,-0.32654,*1F
$PSIWMMPU,7174.050,-0.44789,0.34645,-10.06510,-0.58289,-0.34790,-0.29907,*1C
$PSIWMMPU,7174.250,-0.43449,0.33640,-10.02203,-0.55847,-0.31738,-0.28381,*12
$PSIWMPOS,015934.400,4910.36073,N,12304.22316,W,141.42,2.72,M,100.00,0,8,0,2,0,*69
$PSIWMATT,015934.400,261.5,T,-2.6,-2.0,180.0,*76
$PSIWMVEL,015934.400,261.5,T,0.0,K,-0.00,M,*7E
$PSIWMMPU,7174.450,-0.46368,0.33975,-10.06606,-0.48218,-0.39673,-0.33264,*13
$GPGGA,234144.000,4910.36073,N,12304.22316,W,1,10,0.8,002.72,M,-16.8,M,,*5B
$GPRMC,234144.000,A,4910.36073,N,12304.22316,W,0.0,0.0,230419,,,A*78
$GNGSA,A,3,19,12,06,24,17,02,,,,,,,1.2,0.8,1.0*29
$PSIWMMPU,7174.650,-0.44263,0.34597,-9.99763,-0.64697,-0.44250,-0.25940,*2A
$GNGSA,A,3,82,79,80,73,,,,,,,,,1.2,0.8,1.0*2E
$PSIWMPVT,7174.670,258121.999,3,49.1726789,-123.0703859,2.723,0.008,-0.005,-0.003,6.928,4.637,24.137,0.707,0.000,0.000,45.429,0.039,10,*06
$PSIWMMPU,7174.850,-0.50388,0.34310,-10.03447,-0.50659,-0.44556,-0.29907,*19
$PSIWMMPU,7175.050,-0.43354,0.34884,-10.03639,-0.50049,-0.25330,-0.25940,*17
$PSIWMMPU,7175.250,-0.49239,0.34310,-10.06558,-0.56458,-0.42419,-0.33569,*1D
$PSIWMPOS,015935.400,4910.36073,N,12304.22316,W,11.76,2.72,M,8.31,0,8,0,2,0,*50
$PSIWMATT,015935.400,261.5,T,-2.6,-2.0,180.0,*77
$PSIWMVEL,015935.400,261.5,T,0.0,K,0.00,M,*52
$PSIWMMPU,7175.450,-0.43880,0.32826,-10.02682,-0.53101,-0.28992,-0.30823,*1F
$GPGGA,234145.000,4910.36073,N,12304.22316,W,1,11,0.8,002.72,M,-16.8,M,,*5B
$GPRMC,234145.000,A,4910.36073,N,12304.22316,W,0.0,0.0,230419,,,A*79
$PSIWMMPU,7175.650,-0.46464,0.35027,-9.97131,-0.56458,-0.39062,-0.27466,*2A
$GNGSA,A,3,19,12,06,24,17,14,02,,,,,,1.2,0.8,1.0*2C
$GNGSA,A,3,82,79,80,73,,,,,,,,,1.2,0.8,1.0*2E
$PSIWMPVT,7175.670,258122.999,3,49.1726789,-123.0703859,2.723,0.000,-0.011,-0.002,6.928,4.690,22.980,0.707,0.000,0.000,42.900,0.094,11,*00
$PSIWMMPU,7175.850,-0.44119,0.33735,-10.08663,-0.49438,-0.18921,-0.26550,*15
$PSIWMMPU,7176.050,-0.46560,0.38808,-10.00481,-0.61951,-0.37231,-0.30518,*1E
$PSIWMMPU,7176.250,-0.43354,0.35793,-9.99284,-0.54016,-0.38147,-0.33569,*27
$PSIWMPOS,015936.400,4910.36073,N,12304.22316,W,11.76,2.94,M,8.31,2,5,0,2,0,*54
$PSIWMATT,015936.400,261.5,T,-2.6,-2.0,100.0,*7C
$PSIWMVEL,015936.400,261.5,T,0.0,K,0.07,M,*56
$PSIWMMPU,7176.450,-0.48187,0.35458,-10.02347,-0.51575,-0.27466,-0.33569,*1B
$PSIWMMPU,7176.650,-0.45268,0.34262,-10.03017,-0.55237,-0.29907,-0.30518,*1B
$GPGGA,234146.000,4910.36073,N,12304.22316,W,1,10,0.8,002.72,M,-16.8,M,,*59
$GPRMC,234146.000,A,4910.36073,N,12304.22316,W,0.0,0.0,230419,,,A*7A
$GNGSA,A,3,19,12,06,24,17,02,,,,,,,1.2,0.8,1.0*29
$GNGSA,A,3,82,79,80,73,,,,,,,,,1.2,0.8,1.0*2E
$PSIWMPVT,7176.740,258123.999,3,49.1726789,-123.0703859,2.723,-0.003,-0.011,-0.005,6.964,4.690,23.230,0.707,0.000,0.000,41.977,0.016,10,*28
$PSIWMMPU,7176.850,-0.47325,0.36463,-10.00672,-0.44556,-0.32654,-0.31738,*1E
$PSIWMMPU,7177.050,-0.44215,0.34022,-10.02969,-0.58594,-0.34790,-0.31128,*19
$PSIWMMPU,7177.250,-0.46847,0.34549,-10.07754,-0.57068,-0.31128,-0.27466,*18
$PSIWMPOS,015937.400,4910.36073,N,12304.22316,W,11.82,2.39,M,8.36,2,5,0,2,0,*5E
$PSIWMATT,015937.400,261.5,T,-2.6,-2.0,100.0,*7D
$PSIWMVEL,015937.400,261.5,T,0.0,K,0.14,M,*55
$PSIWMMPU,7177.450,-0.49431,0.33209,-10.04931,-0.60425,-0.40283,-0.30823,*10
$PSIWMMPU,7177.650,-0.44406,0.34262,-10.00480,-0.54932,-0.34790,-0.25635,*17
$GPGGA,234147.000,4910.36073,N,12304.22316,W,1,10,0.8,002.72,M,-16.8,M,,*58
$GPRMC,234147.000,A,4910.36073,N,12304.22316,W,0.0,0.0,230419,,,A*7B
$GNGSA,A,3,19,12,06,24,17,02,,,,,,,1.2,0.8,1.0*29
$GNGSA,A,3,82,79,80,73,,,,,,,,,1.2,0.8,1.0*2E
$PSIWMPVT,7177.740,258124.999,3,49.1726789,-123.0703859,2.723,0.002,-0.007,-0.010,6.964,4.690,22.758,0.707,0.000,0.000,40.871,0.238,10,*03
$PSIWMMPU,7177.850,-0.46225,0.33353,-10.01868,-0.52185,-0.40283,-0.30212,*10
$PSIWMMPU,7178.050,-0.39621,0.35075,-10.00193,-0.61951,-0.31738,-0.31738,*1C
$PSIWMMPU,7178.250,-0.46129,0.34070,-10.01103,-0.55542,-0.34485,-0.32959,*16
$PSIWMPOS,015938.400,4910.36073,N,12304.22316,W,7.96,1.94,M,5.63,2,5,0,2,0,*6A
$PSIWMATT,015938.400,261.5,T,-2.6,-1.9,99.9,*40
$PSIWMVEL,015938.400,261.5,T,0.0,K,0.12,M,*5C
$PSIWMMPU,7178.450,-0.44885,0.32874,-10.04213,-0.55237,-0.28381,-0.26855,*13
$PSIWMMPU,7178.650,-0.47517,0.36989,-10.00576,-0.53101,-0.35095,-0.27771,*11
$GPGGA,234148.000,4910.36073,N,12304.22316,W,1,10,0.8,002.72,M,-16.8,M,,*57
$GPRMC,234148.000,A,4910.36073,N,12304.22316,W,0.0,0.0,230419,,,A*74
$GNGSA,A,3,19,12,06,24,17,02,,,,,,,1.2,0.8,1.0*29
$GNGSA,A,3,82,79,80,73,,,,,,,,,1.2,0.8,1.0*2E
$PSIWMPVT,7178.740,258125.999,3,49.1726789,-123.0703859,2.723,-0.004,-0.014,-0.014,6.964,4.690,23.023,0.707,0.000,0.000,40.920,0.055,10,*26
$PSIWMMPU,7178.850,-0.45315,0.34453,-10.01055,-0.57373,-0.41199,-0.29297,*1A
$PSIWMMPU,7179.050,-0.43306,0.32204,-10.03017,-0.55847,-0.32959,-0.21362,*1C
$PSIWMMPU,7179.250,-0.46655,0.34501,-10.05266,-0.56152,-0.35706,-0.31128,*1E
$PSIWMPOS,015939.400,4910.36073,N,12304.22316,W,7.96,2.66,M,5.63,2,5,0,2,0,*65
$PSIWMATT,015939.400,261.5,T,-2.6,-2.0,99.9,*4B
$PSIWMVEL,015939.400,261.5,T,0.0,K,0.11,M,*5E
$PSIWMMPU,7179.450,-0.44980,0.34166,-10.02395,-0.57678,-0.36926,-0.30518,*15
$PSIWMMPU,7179.650,-0.48330,0.33400,-10.01342,-0.55542,-0.40283,-0.24719,*1A
$GPGGA,234149.000,4910.36073,N,12304.22316,W,1,10,0.8,002.72,M,-16.8,M,,*56
$GPRMC,234149.000,A,4910.36073,N,12304.22316,W,0.0,0.0,230419,,,A*75
$GNGSA,A,3,19,12,06,24,17,02,,,,,,,1.2,0.8,1.0*29
$GNGSA,A,3,82,79,80,73,,,,,,,,,1.2,0.8,1.0*2E
$PSIWMPVT,7179.750,258126.999,3,49.1726789,-123.0703859,2.723,-0.006,-0.004,-0.012,6.964,4.690,24.062,0.707,0.000,0.000,40.203,0.129,10,*22
$PSIWMMPU,7179.850,-0.45363,0.34836,-10.04644,-0.57983,-0.36621,-0.24719,*19
$PSIWMMPU,7180.050,-0.44023,0.34022,-10.03017,-0.56458,-0.33569,-0.30823,*18
$PSIWMMPU,7180.250,-0.46655,0.34118,-10.03830,-0.51880,-0.33875,-0.29297,*19
$PSIWMPOS,015940.400,4910.36073,N,12304.22316,W,7.96,2.34,M,5.63,2,5,0,2,0,*6C
$PSIWMATT,015940.400,261.5,T,-2.7,-2.0,99.8,*45
$PSIWMVEL,015940.400,261.5,T,0.0,K,0.10,M,*51
$PSIWMMPU,7180.450,-0.46655,0.35314,-10.02969,-0.59204,-0.35706,-0.31738,*16
$PSIWMMPU,7180.650,-0.47804,0.35123,-10.02060,-0.54016,-0.34180,-0.36926,*1A
$GPGGA,234150.000,4910.36073,N,12304.22316,W,1,10,0.8,002.72,M,-16.8,M,,*5E
$GPRMC,234150.000,A,4910.36073,N,12304.22316,W,0.1,0.0,230419,,,A*7C
$GNGSA,A,3,19,12,06,24,17,02,,,,,,,1.2,0.8,1.0*29
$GNGSA,A,3,82,79,80,73,,,,,,,,,1.2,0.8,1.0*2E
$PSIWMPVT,7180.770,258127.999,3,49.1726789,-123.0703859,2.723,-0.014,-0.026,-0.016,6.964,4.743,22.461,0.707,0.000,0.000,39.439,0.164,10,*26
$PSIWMMPU,7180.850,-0.43880,0.34214,-10.01772,-0.50049,-0.33264,-0.32654,*13
$PSIWMMPU,7181.050,-0.44502,0.34166,-10.03352,-0.53711,-0.35095,-0.30823,*17
$PSIWMMPU,7181.250,-0.44071,0.32970,-9.99045,-0.56763,-0.39673,-0.34180,*25
$PSIWMPOS,015941.400,4910.36073,N,12304.22316,W,8.05,2.33,M,5.69,2,5,0,2,0,*65
$PSIWMATT,015941.400,261.3,T,-2.6,-2.0,99.7,*4C
$PSIWMVEL,015941.400,261.3,T,0.1,K,0.09,M,*5F
$PSIWMMPU,7181.450,-0.45459,0.35362,-10.01581,-0.50049,-0.19836,-0.27771,*18
$PSIWMMPU,7181.650,-0.47086,0.36415,-10.07275,-0.61340,-0.38147,-0.29907,*15
$GPGGA,234151.000,4910.36073,N,12304.22316,W,1,10,0.8,002.72,M,-16.8,M,,*5F
$GPRMC,234151.000,A,4910.36073,N,12304.22316,W,0.0,0.0,230419,,,A*7C
$GNGSA,A,3,19,12,06,24,17,02,,,,,,,1.2,0.8,1.0*29
$GNGSA,A,3,82,79,80,73,,,,,,,,,1.2,0.8,1.0*2E
$PSIWMPVT,7181.740,258129.000,3,49.1726789,-123.0703859,2.723,0.010,-0.002,-0.017,7.000,4.743,22.984,0.707,0.000,0.000,38.434,0.211,10,*0C
$PSIWMMPU,7181.850,-0.45985,0.35219,-10.01246,-0.53711,-0.37231,-0.30518,*1A
$PSIWMMPU,7182.050,-0.46512,0.38903,-10.02777,-0.56763,-0.24719,-0.31433,*1D
$PSIWMMPU,7182.250,-0.44502,0.35410,-10.02634,-0.55542,-0.31738,-0.30212,*19
$PSIWMPOS,015942.400,4910.36073,N,12304.22316,W,8.05,3.05,M,5.69,2,5,0,2,0,*62
$PSIWMATT,015942.400,261.4,T,-2.7,-2.0,99.5,*4B
$PSIWMVEL,015942.400,261.4,T,0.0,K,0.09,M,*5A
$PSIWMMPU,7182.450,-0.47756,0.34453,-10.02155,-0.57983,-0.36011,-0.29907,*16
$PSIWMMPU,7182.650,-0.46464,0.36463,-10.02873,-0.65308,-0.49438,-0.25330,*16
$GPGGA,234152.000,4910.36073,N,12304.22316,W,1,10,0.8,002.72,M,-16.8,M,,*5C
$GPRMC,234152.000,A,4910.36073,N,12304.22316,W,0.0,0.0,230419,,,A*7F
$GNGSA,A,3,19,12,06,24,17,02,,,,,,,1.2,0.8,1.0*29
$GNGSA,A,3,82,79,80,73,,,,,,,,,1.2,0.8,1.0*2E
$PSIWMPVT,7182.740,258129.999,3,49.1726789,-123.0703859,2.723,0.009,-0.007,-0.015,7.000,4.743,22.625,0.707,0.000,0.000,37.536,0.164,10,*00
$PSIWMMPU,7182.850,-0.45076,0.32348,-9.95504,-0.58899,-0.28992,-0.34485,*23
$PSIWMMPU,7183.050,-0.46225,0.34597,-10.03495,-0.48218,-0.36011,-0.23193,*1A
$PSIWMMPU,7183.250,-0.45172,0.35027,-10.01485,-0.54932,-0.23804,-0.29907,*1F
$PSIWMPOS,015943.400,4910.36073,N,12304.22316,W,8.05,2.84,M,5.69,2,5,0,2,0,*6B
$PSIWMATT,015943.400,261.5,T,-2.6,-2.0,99.3,*4C
$PSIWMVEL,015943.400,261.5,T,0.0,K,0.07,M,*54
$PSIWMMPU,7183.450,-0.47708,0.36176,-10.00768,-0.55542,-0.37537,-0.32654,*16
$PSIWMMPU,7183.650,-0.46560,0.36176,-10.03399,-0.54932,-0.34485,-0.32043,*11
$GPGGA,234153.000,4910.36073,N,12304.22316,W,1,10,0.8,002.72,M,-16.8,M,,*5D
$GPRMC,234153.000,A,4910.36073,N,12304.22316,W,0.0,0.0,230419,,,A*7E
$GNGSA,A,3,19,12,06,24,17,02,,,,,,,1.2,0.8,1.0*29
$GNGSA,A,3,82,79,80,73,,,,,,,,,1.2,0.8,1.0*2E
$PSIWMPVT,7183.750,258130.999,3,49.1726789,-123.0703859,2.723,0.000,-0.003,-0.017,7.000,4.743,25.574,0.707,0.000,0.000,37.859,0.086,10,*0E
$PSIWMMPU,7183.850,-0.48378,0.35027,-10.05361,-0.45166,-0.24414,-0.33875,*15
$PSIWMMPU,7184.050,-0.46799,0.34932,-10.09955,-0.62256,-0.41504,-0.23499,*1B
$PSIWMMPU,7184.250,-0.46990,0.34597,-10.02060,-0.54932,-0.32654,-0.28992,*1A
$PSIWMPOS,015944.400,4910.36073,N,12304.22316,W,8.05,2.33,M,5.69,2,5,0,2,0,*60
$PSIWMATT,015944.400,261.5,T,-2.7,-2.0,99.2,*4B
$PSIWMVEL,015944.400,261.5,T,0.0,K,0.08,M,*5C
$PSIWMMPU,7184.450,-0.47182,0.35506,-10.03591,-0.55847,-0.33875,-0.26245,*14
$PSIWMMPU,7184.650,-0.45890,0.34501,-10.01390,-0.51575,-0.30518,-0.33264,*17
$GPGGA,234154.000,4910.36073,N,12304.22316,W,1,10,0.8,002.72,M,-16.8,M,,*5A
$GPRMC,234154.000,A,4910.36073,N,12304.22316,W,0.0,0.0,230419,,,A*79
$GNGSA,A,3,19,12,06,24,17,02,,,,,,,1.2,0.8,1.0*29
$GNGSA,A,3,82,79,80,73,,,,,,,,,1.2,0.8,1.0*2E
$PSIWMPVT,7184.770,258132.000,3,49.1726789,-123.0703859,2.723,0.008,0.003,-0.017,7.000,4.743,23.996,0.707,0.000,0.000,37.287,0.191,10,*2D
$PSIWMMPU,7184.850,-0.45459,0.34788,-10.04213,-0.53101,-0.38452,-0.29907,*1B
$PSIWMMPU,7185.050,-0.45890,0.33688,-10.04787,-0.54016,-0.34485,-0.27771,*12
$PSIWMMPU,7185.250,-0.46655,0.35984,-10.03591,-0.62256,-0.35706,-0.36011,*18
$PSIWMPOS,015945.400,4910.36073,N,12304.22315,W,1.87,2.54,M,1.25,2,5,0,2,0,*6C
$PSIWMATT,015945.400,261.5,T,-2.7,-2.0,99.2,*4A
$PSIWMVEL,015945.400,261.5,T,0.0,K,0.07,M,*52
$PSIWMMPU,7185.450,-0.47421,0.35554,-10.03447,-0.56458,-0.34790,-0.31738,*1F
$PSIWMMPU,7185.650,-0.45507,0.34549,-10.05457,-0.57068,-0.33264,-0.31433,*17
$GPGGA,234155.000,4910.36052,N,12304.22315,W,1,11,0.8,002.61,M,-16.8,M,,*58
$GPRMC,234155.000,A,4910.36052,N,12304.22315,W,0.0,0.0,230419,,,A*78
$GNGSA,A,3,19,12,06,24,17,14,02,,,,,,1.2,0.8,1.0*2C
$GNGSA,A,3,82,79,80,73,,,,,,,,,1.2,0.8,1.0*2E
$PSIWMPVT,7185.740,258133.000,3,49.1726753,-123.0703858,2.613,0.006,0.003,-0.020,6.819,4.359,22.719,0.707,0.000,0.000,35.472,0.137,11,*25
$PSIWMMPU,7185.850,-0.44741,0.35267,-10.04069,-0.50659,-0.33569,-0.28687,*16
$PSIWMMPU,7186.050,-0.43976,0.33879,-10.04739,-0.52795,-0.29907,-0.31738,*10
$PSIWMMPU,7186.250,-0.45507,0.33544,-10.05026,-0.59509,-0.35706,-0.32959,*11
$PSIWMPOS,015946.400,4910.36071,N,12304.22314,W,2.08,2.87,M,1.34,2,5,0,2,0,*66
$PSIWMATT,015946.400,261.5,T,-2.7,-2.0,99.1,*4A
$PSIWMVEL,015946.400,261.5,T,0.0,K,0.08,M,*5E
$PSIWMMPU,7186.450,-0.47804,0.33113,-10.01390,-0.61035,-0.36621,-0.32654,*13
$PSIWMMPU,7186.650,-0.47182,0.34788,-10.04739,-0.56152,-0.32349,-0.28687,*19
$GPGGA,234156.000,4910.36052,N,12304.22315,W,1,11,0.8,002.61,M,-16.8,M,,*5B
$GPRMC,234156.000,A,4910.36052,N,12304.22315,W,0.0,0.0,230419,,,A*7B
$GNGSA,A,3,19,12,06,24,17,14,02,,,,,,1.2,0.8,1.0*2C
$GNGSA,A,3,82,79,80,73,,,,,,,,,1.2,0.8,1.0*2E
$PSIWMPVT,7186.740,258133.999,3,49.1726753,-123.0703858,2.613,0.006,-0.001,-0.019,6.856,4.359,23.379,0.707,0.000,0.000,36.523,0.023,11,*00
$PSIWMMPU,7186.850,-0.45555,0.32348,-10.03926,-0.54016,-0.31738,-0.34180,*1D
$PSIWMMPU,7187.050,-0.45890,0.34836,-9.99715,-0.52795,-0.32349,-0.32043,*22
$PSIWMMPU,7187.250,-0.46225,0.34692,-10.03400,-0.54932,-0.40283,-0.28381,*1A
$PSIWMPOS,015947.400,4910.36065,N,12304.22314,W,1.94,2.51,M,1.28,2,5,0,2,0,*62
$PSIWMATT,015947.400,261.6,T,-2.7,-2.0,99.0,*49
$PSIWMVEL,015947.400,261.6,T,0.0,K,0.06,M,*52
$PSIWMMPU,7187.450,-0.45985,0.33161,-10.00624,-0.57373,-0.33875,-0.32349,*11
$PSIWMMPU,7187.650,-0.45937,0.34884,-10.04835,-0.59204,-0.31738,-0.29602,*1E
$GPGGA,234157.000,4910.36052,N,12304.22315,W,1,11,0.8,002.61,M,-16.8,M,,*5A
$GPRMC,234157.000,A,4910.36052,N,12304.22315,W,0.0,0.0,230419,,,A*7A
$GNGSA,A,3,19,12,06,24,17,14,02,,,,,,1.2,0.8,1.0*2C
$GNGSA,A,3,82,79,80,73,,,,,,,,,1.2,0.8,1.0*2E
$PSIWMPVT,7187.740,258134.999,3,49.1726753,-123.0703858,2.613,0.001,-0.003,-0.018,6.856,4.359,24.938,0.707,0.000,0.000,37.182,0.086,11,*0B
$PSIWMMPU,7187.850,-0.46129,0.35793,-10.01820,-0.54626,-0.36011,-0.30212,*12
$PSIWMMPU,7188.050,-0.47277,0.34022,-10.01342,-0.58594,-0.39673,-0.26855,*1A
$PSIWMMPU,7188.250,-0.45985,0.35458,-10.03208,-0.54626,-0.37231,-0.32349,*10
$PSIWMPOS,015948.400,4910.36061,N,12304.22314,W,1.91,2.69,M,1.26,2,5,0,2,0,*69
$PSIWMATT,015948.400,261.8,T,-2.7,-2.0,98.9,*40
$PSIWMVEL,015948.400,261.8,T,0.0,K,0.06,M,*53
$PSIWMMPU,7188.450,-0.46942,0.35793,-10.03256,-0.53711,-0.34790,-0.31433,*17
$PSIWMMPU,7188.650,-0.45985,0.34549,-10.05792,-0.53406,-0.37842,-0.29907,*17
$GPGGA,234158.000,4910.36052,N,12304.22315,W,1,11,0.8,002.61,M,-16.8,M,,*55
$GPRMC,234158.000,A,4910.36052,N,12304.22315,W,0.0,0.0,230419,,,A*75
$GNGSA,A,3,19,12,06,24,17,14,02,,,,,,1.2,0.8,1.0*2C
$GNGSA,A,3,82,79,80,73,,,,,,,,,1.2,0.8,1.0*2E
$PSIWMPVT,7188.740,258136.000,3,49.1726753,-123.0703858,2.613,0.012,-0.007,-0.017,6.856,4.416,28.512,0.707,0.000,0.000,38.687,0.023,11,*00
$PSIWMMPU,7188.850,-0.46990,0.34357,-10.03734,-0.59204,-0.33569,-0.27466,*17
$PSIWMMPU,7189.050,-0.46703,0.35075,-10.03399,-0.55237,-0.38147,-0.28992,*1D
$PSIWMMPU,7189.250,-0.45363,0.36224,-10.00289,-0.53711,-0.34180,-0.32043,*16
$PSIWMPOS,015949.400,4910.36058,N,12304.22313,W,1.89,2.93,M,1.26,2,5,0,2,0,*69
$PSIWMATT,015949.400,262.0,T,-2.7,-2.0,98.8,*4B
$PSIWMVEL,015949.400,262.0,T,0.0,K,0.06,M,*59
$PSIWMMPU,7189.450,-0.47373,0.33975,-10.06366,-0.61340,-0.33875,-0.35706,*1B
$PSIWMMPU,7189.650,-0.46368,0.34597,-10.05457,-0.61035,-0.44250,-0.26245,*1F
$GPGGA,234159.000,4910.36052,N,12304.22315,W,1,11,0.8,002.61,M,-16.8,M,,*54
$GPRMC,234159.000,A,4910.36052,N,12304.22315,W,0.0,0.0,230419,,,A*74
$GNGSA,A,3,19,12,06,24,17,14,02,,,,,,1.2,0.8,1.0*2C
$GNGSA,A,3,82,79,80,73,,,,,,,,,1.2,0.8,1.0*2E
$PSIWMPVT,7189.740,258137.000,3,49.1726753,-123.0703858,2.613,-0.004,-0.010,-0.019,6.856,4.416,29.219,0.707,0.000,0.000,38.768,0.020,11,*2C
$PSIWMMPU,7189.850,-0.46081,0.34836,-10.00193,-0.52490,-0.34790,-0.25024,*18
$PSIWMMPU,7190.050,-0.46129,0.37468,-10.02825,-0.52795,-0.32959,-0.32654,*15
$PSIWMMPU,7190.250,-0.47947,0.34645,-10.08950,-0.63782,-0.38757,-0.30823,*13
$PSIWMPOS,015950.400,4910.36056,N,12304.22314,W,1.88,2.66,M,1.25,2,5,0,2,0,*60
$PSIWMATT,015950.400,262.0,T,-2.7,-2.0,98.7,*4C
$PSIWMVEL,015950.400,262.0,T,0.0,K,0.06,M,*51
$PSIWMMPU,7190.450,-0.45411,0.35889,-10.02442,-0.62256,-0.39673,-0.25024,*12
$PSIWMMPU,7190.650,-0.46177,0.34501,-10.01677,-0.58899,-0.39978,-0.30823,*12
$GPGGA,234200.000,4910.36052,N,12304.22315,W,1,11,0.8,002.61,M,-16.8,M,,*5B
$GPRMC,234200.000,A,4910.36052,N,12304.22315,W,0.0,0.0,230419,,,A*7B
$GNGSA,A,3,19,12,06,24,17,14,02,,,,,,1.2,0.8,1.0*2C
$GNGSA,A,3,82,79,80,73,,,,,,,,,1.2,0.8,1.0*2E
$PSIWMPVT,7190.740,258138.000,3,49.1726753,-123.0703858,2.613,0.005,0.000,-0.020,6.856,4.416,29.316,0.707,0.000,0.000,38.826,0.023,11,*29
$PSIWMMPU,7190.850,-0.44358,0.33975,-10.03064,-0.51270,-0.34180,-0.30212,*11
$PSIWMMPU,7191.050,-0.48474,0.32970,-10.02586,-0.52185,-0.38147,-0.31128,*17
$PSIWMMPU,7191.250,-0.47134,0.34884,-10.03926,-0.54626,-0.33264,-0.34790,*11
$PSIWMPOS,015951.400,4910.36055,N,12304.22314,W,1.88,2.66,M,1.25,2,5,0,2,0,*62
$PSIWMATT,015951.400,262.1,T,-2.7,-2.0,98.7,*4C
$PSIWMVEL,015951.400,262.1,T,0.0,K,0.05,M,*52
$PSIWMMPU,7191.450,-0.49431,0.34549,-10.03974,-0.54016,-0.21973,-0.35095,*1A
$PSIWMMPU,7191.650,-0.44741,0.36511,-10.03256,-0.54016,-0.41504,-0.24719,*1C
$GPGGA,234201.000,4910.36052,N,12304.22315,W,1,11,0.8,002.61,M,-16.8,M,,*5A
$GPRMC,234201.000,A,4910.36052,N,12304.22315,W,0.0,0.0,230419,,,A*7A
$GNGSA,A,3,19,12,06,24,17,14,02,,,,,,1.2,0.8,1.0*2C
$GNGSA,A,3,82,79,80,73,,,,,,,,,1.2,0.8,1.0*2E
$PSIWMPVT,7191.740,258138.999,3,49.1726753,-123.0703858,2.613,-0.003,-0.008,-0.019,6.892,4.416,30.172,0.707,0.000,0.000,39.553,0.027,11,*2F
$PSIWMMPU,7191.850,-0.47038,0.34549,-10.00624,-0.62256,-0.46082,-0.27161,*10
$PSIWMMPU,7192.050,-0.43497,0.32587,-10.00146,-0.45471,-0.26245,-0.30518,*1C
$PSIWMMPU,7192.250,-0.51488,0.35123,-10.10194,-0.50964,-0.28992,-0.33569,*17
$PSIWMPOS,015952.400,4910.36054,N,12304.22314,W,1.88,2.82,M,1.25,2,5,0,2,0,*6A
$PSIWMATT,015952.400,262.0,T,-2.7,-2.0,98.7,*4E
$PSIWMVEL,015952.400,262.0,T,0.0,K,0.05,M,*50
$PSIWMMPU,7192.450,-0.42014,0.37276,-10.02442,-0.65308,-0.44861,-0.33875,*1F
$PSIWMMPU,7192.650,-0.51393,0.31917,-9.96365,-0.50659,-0.35400,-0.28076,*25
$GPGGA,234202.000,4910.36052,N,12304.22315,W,1,11,0.8,002.61,M,-16.8,M,,*59
$GPRMC,234202.000,A,4910.36052,N,12304.22315,W,0.0,0.0,230419,,,A*79
$GNGSA,A,3,19,12,06,24,17,29,02,,,,,,1.2,0.8,1.0*22
$GNGSA,A,3,82,79,80,73,,,,,,,,,1.2,0.8,1.0*2E
$PSIWMPVT,7192.740,258140.000,3,49.1726753,-123.0703858,2.613,-0.002,0.003,-0.021,6.892,4.416,29.965,0.707,0.000,0.000,39.342,0.043,11,*04
$PSIWMMPU,7192.850,-0.44646,0.35937,-10.08855,-0.49133,-0.18616,-0.30518,*1E
$PSIWMMPU,7193.050,-0.46081,0.34310,-10.04835,-0.55847,-0.35400,-0.29907,*1B
$PSIWMMPU,7193.250,-0.44837,0.35697,-10.01390,-0.54932,-0.38452,-0.25024,*18
$PSIWMPOS,015953.400,4910.36054,N,12304.22314,W,1.87,2.89,M,1.25,2,5,0,2,0,*6F
$PSIWMATT,015953.400,262.1,T,-2.7,-2.0,98.6,*4F
$PSIWMVEL,015953.400,262.1,T,0.1,K,0.06,M,*52
$PSIWMMPU,7193.450,-0.47564,0.33161,-10.03017,-0.53101,-0.24719,-0.24414,*18
$PSIWMMPU,7193.650,-0.47134,0.35171,-10.03256,-0.54321,-0.41504,-0.30212,*14
$GPGGA,234203.000,4910.36052,N,12304.22315,W,1,11,0.8,002.61,M,-16.8,M,,*58
$GPRMC,234203.000,A,4910.36052,N,12304.22315,W,0.0,0.0,230419,,,A*78
$GNGSA,A,3,19,12,06,24,17,29,02,,,,,,1.2,0.8,1.0*22
$GNGSA,A,3,82,79,80,73,,,,,,,,,1.2,0.8,1.0*2E
$PSIWMPVT,7193.740,258141.000,3,49.1726753,-123.0703858,2.613,0.007,-0.001,-0.019,6.892,4.472,30.441,0.707,0.000,0.000,40.095,0.023,11,*08
$PSIWMMPU,7193.850,-0.45937,0.34405,-9.97562,-0.54932,-0.35095,-0.31433,*23
$PSIWMMPU,7194.050,-0.45650,0.32156,-10.01150,-0.53406,-0.25940,-0.32043,*18
$PSIWMMPU,7194.250,-0.46464,0.34357,-10.02777,-0.52795,-0.41809,-0.23499,*1C
$PSIWMPOS,015954.400,4910.36053,N,12304.22314,W,1.87,2.46,M,1.25,2,5,0,2,0,*6C
$PSIWMATT,015954.400,262.2,T,-2.7,-1.9,98.5,*42
$PSIWMVEL,015954.400,262.2,T,0.0,K,0.05,M,*54
$PSIWMMPU,7194.450,-0.46129,0.33448,-10.02825,-0.54321,-0.38452,-0.25330,*13
$PSIWMMPU,7194.650,-0.47756,0.33018,-10.02969,-0.51270,-0.36316,-0.27161,*1B
$GPGGA,234204.000,4910.36052,N,12304.22315,W,1,11,0.8,002.61,M,-16.8,M,,*5F
$GPRMC,234204.000,A,4910.36052,N,12304.22315,W,0.0,0.0,230419,,,A*7F
$GNGSA,A,3,19,12,06,24,17,29,02,,,,,,1.2,0.8,1.0*22
$GNGSA,A,3,82,79,80,73,,,,,,,,,1.2,0.8,1.0*2E
$PSIWMPVT,7194.740,258142.000,3,49.1726753,-123.0703858,2.613,0.005,0.001,-0.018,6.892,4.472,31.051,0.707,0.000,0.000,40.867,0.020,11,*20
$PSIWMMPU,7194.850,-0.42109,0.35027,-9.99141,-0.55237,-0.39978,-0.34180,*29
$PSIWMMPU,7195.050,-0.48330,0.34166,-10.03064,-0.44250,-0.27161,-0.25940,*10
$PSIWMMPU,7195.250,-0.45794,0.36367,-10.03208,-0.53101,-0.35095,-0.31128,*17
$PSIWMPOS,015955.400,4910.36053,N,12304.22314,W,1.87,2.22,M,1.25,2,5,0,2,0,*6F
$PSIWMATT,015955.400,262.2,T,-2.7,-1.9,98.5,*43
$PSIWMVEL,015955.400,262.2,T,0.0,K,0.05,M,*55
$PSIWMMPU,7195.450,-0.46607,0.33879,-10.03017,-0.64087,-0.41199,-0.25635,*1F
$PSIWMMPU,7195.650,-0.47229,0.35889,-10.02060,-0.47607,-0.31128,-0.25024,*18
$GPGGA,234205.000,4910.36052,N,12304.22315,W,1,11,0.8,002.61,M,-16.8,M,,*5E
$GPRMC,234205.000,A,4910.36052,N,12304.22315,W,0.0,0.0,230419,,,A*7E
$GNGSA,A,3,19,12,06,24,17,29,02,,,,,,1.2,0.8,1.0*22
$GNGSA,A,3,82,79,80,73,,,,,,,,,1.2,0.8,1.0*2E
$PSIWMPVT,7195.740,258142.999,3,49.1726753,-123.0703858,2.613,-0.006,0.003,-0.019,6.892,4.472,31.074,0.707,0.000,0.000,40.746,0.062,11,*08
$PSIWMMPU,7195.850,-0.46942,0.35027,-10.04213,-0.56458,-0.31738,-0.31433,*15
$PSIWMMPU,7196.050,-0.46368,0.34932,-10.02299,-0.56763,-0.35095,-0.32349,*12
$PSIWMMPU,7196.250,-0.44263,0.36798,-10.01868,-0.55542,-0.34790,-0.33264,*1D
$PSIWMPOS,015956.400,4910.36053,N,12304.22314,W,1.87,2.74,M,1.24,2,5,0,2,0,*6E
$PSIWMATT,015956.400,262.3,T,-2.7,-1.9,98.4,*40
$PSIWMVEL,015956.400,262.3,T,0.0,K,0.05,M,*57
$PSIWMMPU,7196.450,-0.47134,0.35123,-10.03208,-0.58899,-0.36316,-0.29297,*1B
$PSIWMMPU,7196.650,-0.45650,0.33783,-10.03447,-0.59814,-0.28992,-0.32959,*17
$GPGGA,234206.000,4910.36052,N,12304.22315,W,1,11,0.8,002.61,M,-16.8,M,,*5D
$GPRMC,234206.000,A,4910.36052,N,12304.22315,W,0.0,0.0,230419,,,A*7D
$GNGSA,A,3,19,12,06,24,17,29,02,,,,,,1.2,0.8,1.0*22
$GNGSA,A,3,82,79,80,73,,,,,,,,,1.2,0.8,1.0*2E
$PSIWMPVT,7196.740,258144.000,3,49.1726753,-123.0703858,2.613,0.007,-0.003,-0.020,6.928,4.472,30.930,0.707,0.000,0.000,40.621,0.043,11,*04
$PSIWMMPU,7196.850,-0.46416,0.35075,-10.02108,-0.54932,-0.36316,-0.26550,*1C
$PSIWMMPU,7197.050,-0.45603,0.33448,-10.01055,-0.49744,-0.46997,-0.26245,*12
$PSIWMMPU,7197.250,-0.46464,0.34022,-10.03304,-0.55542,-0.33569,-0.32349,*14
$PSIWMPOS,015957.400,4910.36053,N,12304.22314,W,1.87,2.65,M,1.25,2,5,0,2,0,*6E
$PSIWMATT,015957.400,262.4,T,-2.7,-1.9,98.3,*41
$PSIWMVEL,015957.400,262.4,T,0.0,K,0.05,M,*51
$PSIWMMPU,7197.450,-0.48187,0.35123,-10.03112,-0.55542,-0.35400,-0.27771,*13
$PSIWMMPU,7197.650,-0.45842,0.33640,-10.01916,-0.59509,-0.37842,-0.30823,*13
$GPGGA,234207.000,4910.36052,N,12304.22315,W,1,11,0.8,002.61,M,-16.8,M,,*5C
$GPRMC,234207.000,A,4910.36052,N,12304.22315,W,0.0,0.0,230419,,,A*7C
$GNGSA,A,3,19,12,06,24,17,29,02,,,,,,1.2,0.8,1.0*22
$GNGSA,A,3,82,79,80,73,,,,,,,,,1.2,0.8,1.0*2E
$PSIWMPVT,7197.740,258145.000,3,49.1726753,-123.0703858,2.613,0.013,0.013,-0.016,6.928,4.472,30.688,0.707,0.000,0.000,40.057,0.016,11,*23
$PSIWMMPU,7197.850,-0.47086,0.35171,-10.02155,-0.59814,-0.32654,-0.29297,*10
$PSIWMMPU,7198.050,-0.45842,0.34262,-10.03639,-0.58594,-0.36316,-0.24719,*14
$PSIWMMPU,7198.250,-0.47325,0.36702,-10.02251,-0.54321,-0.35400,-0.27466,*1B
$PSIWMPOS,015958.400,4910.36053,N,12304.22313,W,1.87,2.98,M,1.25,2,5,0,2,0,*64
$PSIWMATT,015958.400,262.2,T,-2.7,-1.9,98.2,*49
$PSIWMVEL,015958.400,262.2,T,0.1,K,0.05,M,*59
$PSIWMMPU,7198.450,-0.45172,0.36511,-10.03208,-0.51880,-0.37537,-0.32959,*15
$PSIWMMPU,7198.650,-0.46368,0.35219,-10.02825,-0.57983,-0.30212,-0.34485,*1C
$GPGGA,234208.000,4910.36052,N,12304.22315,W,1,11,0.8,002.61,M,-16.8,M,,*53
$GPRMC,234208.000,A,4910.36052,N,12304.22315,W,0.0,0.0,230419,,,A*73
$GNGSA,A,3,19,12,06,24,17,29,02,,,,,,1.2,0.8,1.0*22
$GNGSA,A,3,82,79,80,73,,,,,,,,,1.2,0.8,1.0*2E
$PSIWMPVT,7198.740,258146.000,3,49.1726753,-123.0703858,2.613,0.003,0.000,-0.016,6.928,4.528,30.535,0.707,0.000,0.000,39.973,0.027,11,*24
$PSIWMMPU,7198.850,-0.45890,0.36176,-10.02682,-0.60120,-0.34485,-0.33875,*1A
$PSIWMMPU,7199.050,-0.46368,0.34262,-10.04787,-0.60425,-0.30518,-0.28076,*1A
$PSIWMMPU,7199.250,-0.48474,0.33927,-10.03543,-0.54321,-0.33875,-0.32349,*19
$PSIWMPOS,015959.400,4910.36053,N,12304.22313,W,1.87,2.96,M,1.25,2,5,0,2,0,*6B
$PSIWMATT,015959.400,262.5,T,-2.7,-2.0,98.0,*47
$PSIWMVEL,015959.400,262.5,T,0.0,K,0.04,M,*5F
$PSIWMMPU,7199.450,-0.45794,0.34836,-10.00193,-0.52185,-0.32043,-0.33569,*10
$PSIWMMPU,7199.650,-0.48521,0.36128,-10.05361,-0.53406,-0.37231,-0.28076,*11
$GPGGA,234209.000,4910.36052,N,12304.22315,W,1,11,0.8,002.61,M,-16.8,M,,*52
$GPRMC,234209.000,A,4910.36052,N,12304.22315,W,0.0,0.0,230419,,,A*72
$GNGSA,A,3,19,12,06,24,17,29,02,,,,,,1.2,0.8,1.0*22
$GNGSA,A,3,82,79,80,73,,,,,,,,,1.2,0.8,1.0*2E
$PSIWMPVT,7199.740,258147.000,3,49.1726753,-123.0703858,2.613,-0.001,0.007,-0.016,6.928,4.528,30.434,0.707,0.000,0.000,39.528,0.031,11,*09
$PSIWMMPU,7199.850,-0.46272,0.34884,-10.07180,-0.55847,-0.36621,-0.26550,*16
$PSIWMMPU,7200.050,-0.45890,0.34884,-10.05170,-0.48828,-0.34485,-0.26550,*1E
$PSIWMMPU,7200.250,-0.44837,0.36702,-10.05170,-0.54016,-0.35095,-0.26550,*1F
$PSIWMPOS,020000.400,4910.36053,N,12304.22314,W,1.87,3.03,M,1.25,2,5,0,2,0,*62
$PSIWMATT,020000.400,262.5,T,-2.7,-2.0,97.9,*42
$PSIWMVEL,020000.400,262.5,T,0.0,K,0.05,M,*5D
$PSIWMMPU,7200.450,-0.45268,0.34501,-10.02586,-0.52795,-0.34790,-0.26855,*10
$PSIWMMPU,7200.650,-0.45220,0.33592,-10.00433,-0.56152,-0.36011,-0.29602,*18
$GPGGA,234210.000,4910.36052,N,12304.22315,W,1,11,0.8,002.61,M,-16.8,M,,*5A
$GPRMC,234210.000,A,4910.36052,N,12304.22315,W,0.0,0.0,230419,,,A*7A
$GNGSA,A,3,19,12,06,24,17,29,02,,,,,,1.2,0.8,1.0*22
$GNGSA,A,3,82,79,80,73,,,,,,,,,1.2,0.8,1.0*2E
$PSIWMPVT,7200.740,258148.000,3,49.1726753,-123.0703858,2.613,-0.007,-0.008,-0.015,6.928,4.528,30.887,0.707,0.000,0.000,40.015,0.012,11,*22
$PSIWMMPU,7200.850,-0.47373,0.36128,-10.02921,-0.53406,-0.32959,-0.26550,*14
$PSIWMMPU,7201.050,-0.47373,0.34932,-10.04787,-0.55542,-0.38147,-0.30212,*14
$PSIWMMPU,7201.250,-0.45938,0.33305,-9.99332,-0.52185,-0.31433,-0.35400,*29
$PSIWMPOS,020001.400,4910.36052,N,12304.22314,W,1.87,2.60,M,1.25,2,5,0,2,0,*66
$PSIWMATT,020001.400,262.5,T,-2.7,-2.0,97.9,*43
$PSIWMVEL,020001.400,262.5,T,0.0,K,0.04,M,*5D
$PSIWMMPU,7201.450,-0.46512,0.33831,-10.04261,-0.50354,-0.34790,-0.29602,*11
$PSIWMMPU,7201.650,-0.45650,0.34214,-10.05696,-0.52490,-0.36621,-0.29602,*16
$GPGGA,234211.000,4910.36052,N,12304.22315,W,1,11,0.8,002.61,M,-16.8,M,,*5B
$GPRMC,234211.000,A,4910.36052,N,12304.22315,W,0.0,0.0,230419,,,A*7B
$GNGSA,A,3,19,12,06,24,17,29,02,,,,,,1.2,0.8,1.0*22
$GNGSA,A,3,82,79,80,73,,,,,,,,,1.2,0.8,1.0*2E
$PSIWMPVT,7201.740,258149.000,3,49.1726753,-123.0703858,2.613,0.006,0.016,-0.013,6.964,4.528,31.352,0.707,0.000,0.000,40.559,0.012,11,*2D
$PSIWMMPU,7201.850,-0.45937,0.37133,-10.04452,-0.53711,-0.40894,-0.30212,*1F
$PSIWMMPU,7202.050,-0.44693,0.35554,-10.04022,-0.57373,-0.37231,-0.29907,*16
$PSIWMMPU,7202.250,-0.45268,0.35602,-10.05840,-0.55542,-0.35706,-0.25940,*12
$PSIWMPOS,020002.400,4910.36053,N,12304.22314,W,1.87,3.09,M,1.25,2,5,0,2,0,*6A
$PSIWMATT,020002.400,262.5,T,-2.7,-2.0,97.7,*4E
$PSIWMVEL,020002.400,262.5,T,0.1,K,0.04,M,*5F
$PSIWMMPU,7202.450,-0.46320,0.34645,-10.05026,-0.55542,-0.37842,-0.23804,*1A
$PSIWMMPU,7202.650,-0.45650,0.33353,-10.01533,-0.55847,-0.40283,-0.30823,*11
$GPGGA,234212.000,4910.36052,N,12304.22315,W,1,11,0.8,002.61,M,-16.8,M,,*58
$GPRMC,234212.000,A,4910.36052,N,12304.22315,W,0.0,0.0,230419,,,A*78
$GNGSA,A,3,19,12,06,24,17,29,02,,,,,,1.2,0.8,1.0*22
$GNGSA,A,3,82,79,80,73,,,,,,,,,1.2,0.8,1.0*2E
$PSIWMPVT,7202.740,258150.000,3,49.1726753,-123.0703858,2.613,0.005,-0.001,-0.011,6.964,4.528,31.754,0.707,0.000,0.000,40.960,0.012,11,*08
$PSIWMMPU,7202.850,-0.47182,0.35697,-10.04404,-0.58594,-0.34790,-0.28992,*16
$PSIWMMPU,7203.050,-0.46464,0.32970,-10.03878,-0.50354,-0.41199,-0.30823,*1F
$PSIWMMPU,7203.250,-0.49622,0.35506,-10.04787,-0.51270,-0.32959,-0.32043,*1A
$PSIWMPOS,020003.400,4910.36053,N,12304.22313,W,1.87,2.83,M,1.25,2,5,0,2,0,*6F
$PSIWMATT,020003.400,262.5,T,-2.7,-2.0,97.7,*4F
$PSIWMVEL,020003.400,262.5,T,0.0,K,0.04,M,*5F
$PSIWMMPU,7203.450,-0.44550,0.36032,-10.02442,-0.55847,-0.36621,-0.28687,*11
$PSIWMMPU,7203.650,-0.46751,0.35171,-9.99954,-0.59509,-0.38757,-0.28992,*29
$GPGGA,234213.000,4910.36052,N,12304.22315,W,1,11,0.8,002.61,M,-16.8,M,,*59
$GPRMC,234213.000,A,4910.36052,N,12304.22315,W,0.0,0.0,230419,,,A*79
$GNGSA,A,3,19,12,06,24,17,29,02,,,,,,1.2,0.8,1.0*22
$GNGSA,A,3,82,79,80,73,,,,,,,,,1.2,0.8,1.0*2E
$PSIWMPVT,7203.740,258151.000,3,49.1726753,-123.0703858,2.613,-0.005,0.009,-0.014,6.964,4.583,31.570,0.707,0.000,0.000,40.695,0.023,11,*07
$PSIWMMPU,7203.850,-0.46512,0.33257,-10.05361,-0.51575,-0.32349,-0.26855,*14
$PSIWMMPU,7204.050,-0.47086,0.31821,-10.06127,-0.56152,-0.28687,-0.31433,*18
$PSIWMMPU,7204.250,-0.45746,0.34070,-10.02442,-0.57373,-0.32349,-0.26550,*16
$PSIWMPOS,020004.400,4910.36053,N,12304.22314,W,2.06,2.99,M,1.33,2,5,0,2,0,*69
$PSIWMATT,020004.400,262.6,T,-2.7,-2.0,97.6,*4A
$PSIWMVEL,020004.400,262.6,T,0.0,K,0.05,M,*5A
$PSIWMMPU,7204.450,-0.45268,0.35984,-10.01868,-0.53711,-0.31738,-0.37537,*19
$PSIWMMPU,7204.650,-0.44980,0.33209,-10.04165,-0.53711,-0.33569,-0.27771,*1B
$GPGGA,234214.000,4910.36052,N,12304.22315,W,1,11,0.8,002.61,M,-16.8,M,,*5E
$GPRMC,234214.000,A,4910.36052,N,12304.22315,W,0.0,0.0,230419,,,A*7E
$GNGSA,A,3,19,12,06,24,17,29,02,,,,,,1.2,0.8,1.0*22
$GNGSA,A,3,82,79,80,73,,,,,,,,,1.2,0.8,1.0*2E
$PSIWMPVT,7204.740,258152.000,3,49.1726753,-123.0703858,2.613,-0.003,0.011,-0.011,6.964,4.583,32.598,0.707,0.000,0.000,42.086,0.016,11,*0C
$PSIWMMPU,7204.850,-0.46990,0.34357,-10.03639,-0.54321,-0.36316,-0.36316,*1C
$PSIWMMPU,7205.050,-0.45985,0.32587,-9.98614,-0.54016,-0.39368,-0.30518,*25
$PSIWMMPU,7205.250,-0.46990,0.34357,-10.00720,-0.57373,-0.34180,-0.32043,*11
$PSIWMPOS,020005.400,4910.36053,N,12304.22314,W,2.19,2.91,M,1.40,2,5,0,2,0,*6A
$PSIWMATT,020005.400,262.6,T,-2.7,-2.0,97.6,*4B
$PSIWMVEL,020005.400,262.6,T,0.0,K,0.04,M,*5A
$PSIWMMPU,7205.450,-0.48474,0.36319,-10.06318,-0.54016,-0.33264,-0.29297,*13
$PSIWMMPU,7205.650,-0.46129,0.33975,-10.03400,-0.53711,-0.36621,-0.28687,*1F
$GPGGA,234215.000,4910.36052,N,12304.22315,W,1,11,0.8,002.61,M,-16.8,M,,*5F
$GPRMC,234215.000,A,4910.36052,N,12304.22315,W,0.0,0.0,230419,,,A*7F
$GNGSA,A,3,19,12,06,24,17,29,02,,,,,,1.2,0.8,1.0*22
$GNGSA,A,3,82,79,80,73,,,,,,,,,1.2,0.8,1.0*2E
$PSIWMPVT,7205.740,258153.000,3,49.1726753,-123.0703858,2.613,0.007,0.007,-0.011,6.964,4.583,33.184,0.707,0.000,0.000,42.923,0.012,11,*28
$PSIWMMPU,7205.850,-0.45172,0.35506,-10.03878,-0.56763,-0.36926,-0.28992,*12
$PSIWMMPU,7206.050,-0.45124,0.35937,-10.03112,-0.62561,-0.39673,-0.32654,*18
$PSIWMMPU,7206.250,-0.46655,0.33975,-10.05313,-0.59509,-0.36621,-0.32959,*11
$PSIWMPOS,020006.400,4910.36054,N,12304.22313,W,2.30,3.08,M,1.45,2,5,0,2,0,*66
$PSIWMATT,020006.400,262.5,T,-2.7,-2.0,97.6,*4B
$PSIWMVEL,020006.400,262.5,T,0.1,K,0.04,M,*5B
$PSIWMMPU,7206.450,-0.46272,0.34884,-10.03830,-0.53101,-0.31128,-0.29602,*16
$PSIWMMPU,7206.650,-0.47947,0.36224,-10.02825,-0.53101,-0.35095,-0.29602,*1C
$GPGGA,234216.000,4910.36052,N,12304.22315,W,1,11,0.8,002.61,M,-16.8,M,,*5C
$GPRMC,234216.000,A,4910.36052,N,12304.22315,W,0.0,0.0,230419,,,A*7C
$GNGSA,A,3,19,12,06,24,17,29,02,,,,,,1.2,0.8,1.0*22
$GNGSA,A,3,82,79,80,73,,,,,,,,,1.2,0.8,1.0*2E
$PSIWMPVT,7206.740,258153.999,3,49.1726753,-123.0703858,2.613,0.003,0.001,-0.011,7.000,4.583,33.930,0.707,0.000,0.000,43.992,0.031,11,*27
$PSIWMMPU,7206.850,-0.46081,0.34549,-10.03304,-0.54016,-0.37231,-0.32654,*10
$PSIWMMPU,7207.050,-0.46942,0.34214,-10.01103,-0.54626,-0.40283,-0.31128,*14
$PSIWMMPU,7207.250,-0.47373,0.35314,-10.04452,-0.53406,-0.31738,-0.30518,*19
$PSIWMPOS,020007.400,4910.36054,N,12304.22313,W,2.40,2.42,M,1.50,2,5,0,2,0,*6B
$PSIWMATT,020007.400,262.5,T,-2.7,-2.0,97.5,*49
$PSIWMVEL,020007.400,262.5,T,0.0,K,0.04,M,*5B
$PSIWMMPU,7207.450,-0.44598,0.34357,-10.03208,-0.54932,-0.33875,-0.30823,*1B
$PSIWMMPU,7207.650,-0.44885,0.34692,-10.04931,-0.58899,-0.38757,-0.27466,*11
$GPGGA,234217.000,4910.36052,N,12304.22315,W,1,11,0.8,002.61,M,-16.8,M,,*5D
$GPRMC,234217.000,A,4910.36052,N,12304.22315,W,0.0,0.0,230419,,,A*7D
$GNGSA,A,3,19,12,06,24,17,29,02,,,,,,1.2,0.8,1.0*22
$GNGSA,A,3,82,79,80,73,,,,,,,,,1.2,0.8,1.0*2E
$PSIWMPVT,7207.740,258154.999,3,49.1726753,-123.0703858,2.613,0.002,0.004,-0.008,7.000,4.583,33.777,0.707,0.000,0.000,44.200,0.023,11,*24
$PSIWMMPU,7207.850,-0.46416,0.35123,-10.02251,-0.55847,-0.32959,-0.30212,*1B
$PSIWMMPU,7208.050,-0.44598,0.37611,-9.99476,-0.54016,-0.38757,-0.24719,*28
$PSIWMMPU,7208.250,-0.44598,0.35649,-10.02921,-0.57678,-0.31128,-0.32654,*15
$PSIWMPOS,020008.400,4910.36054,N,12304.22313,W,2.48,2.33,M,1.54,2,5,0,2,0,*6E
$PSIWMATT,020008.400,262.6,T,-2.7,-2.0,97.5,*45
$PSIWMVEL,020008.400,262.6,T,0.0,K,0.03,M,*50
$PSIWMMPU,7208.450,-0.45220,0.33879,-10.01868,-0.50659,-0.32043,-0.30823,*15
$PSIWMMPU,7208.650,-0.46225,0.36463,-10.03112,-0.55542,-0.35400,-0.30823,*1D
$GPGGA,234218.000,4910.36052,N,12304.22315,W,1,11,0.8,002.61,M,-16.8,M,,*52
$GPRMC,234218.000,A,4910.36052,N,12304.22315,W,0.0,0.0,230419,,,A*72
$GNGSA,A,3,19,12,06,24,17,29,02,,,,,,1.2,0.8,1.0*22
$GNGSA,A,3,82,79,80,73,,,,,,,,,1.2,0.8,1.0*2E
$PSIWMPVT,7208.740,258155.999,3,49.1726753,-123.0703858,2.613,-0.002,0.008,-0.006,7.000,4.637,34.348,0.707,0.000,0.000,44.959,0.039,11,*0A
$PSIWMMPU,7208.850,-0.47660,0.36750,-10.03782,-0.54016,-0.34485,-0.28687,*1B
$PSIWMMPU,7209.050,-0.45363,0.34453,-10.04883,-0.58289,-0.38452,-0.28992,*18
$PSIWMMPU,7209.250,-0.49000,0.35410,-10.04357,-0.56458,-0.32654,-0.33569,*1C
$PSIWMPOS,020009.400,4910.36054,N,12304.22313,W,2.56,2.91,M,1.58,2,5,0,2,0,*64
$PSIWMATT,020009.400,262.6,T,-2.7,-2.0,97.5,*44
$PSIWMVEL,020009.400,262.6,T,0.0,K,0.03,M,*51
$PSIWMMPU,7209.450,-0.45650,0.34166,-10.02634,-0.53101,-0.35706,-0.24414,*16
$PSIWMMPU,7209.650,-0.46512,0.35075,-10.02586,-0.55542,-0.38452,-0.32043,*11
$GPGGA,234219.000,4910.36052,N,12304.22315,W,1,11,0.8,002.61,M,-16.8,M,,*53
$GPRMC,234219.000,A,4910.36052,N,12304.22315,W,0.0,0.0,230419,,,A*73
$GNGSA,A,3,19,12,06,24,17,29,02,,,,,,1.2,0.8,1.0*22
$GNGSA,A,3,82,79,80,73,,,,,,,,,1.2,0.8,1.0*2E
$PSIWMPVT,7209.740,258156.999,3,49.1726753,-123.0703858,2.613,-0.006,0.003,-0.008,7.000,4.637,35.117,0.707,0.000,0.000,46.016,0.023,11,*0B
$PSIWMMPU,7209.850,-0.45985,0.34692,-10.03687,-0.55237,-0.37537,-0.32043,*1B
$PSIWMMPU,7210.050,-0.46990,0.33640,-10.01629,-0.55847,-0.35400,-0.28687,*1D
$PSIWMMPU,7210.250,-0.46942,0.34453,-10.01150,-0.54016,-0.37537,-0.33264,*17
$PSIWMPOS,020010.400,4910.36054,N,12304.22314,W,2.62,2.75,M,1.62,2,5,0,2,0,*6F
$PSIWMATT,020010.400,262.7,T,-2.7,-2.0,97.4,*4C
$PSIWMVEL,020010.400,262.7,T,0.0,K,0.03,M,*58
$PSIWMMPU,7210.450,-0.44550,0.33161,-10.04165,-0.57983,-0.36926,-0.31433,*11
$PSIWMMPU,7210.650,-0.44215,0.33018,-10.04117,-0.53101,-0.35400,-0.30212,*17
$GPGGA,234220.000,4910.36052,N,12304.22315,W,1,11,0.8,002.61,M,-16.8,M,,*59
$GPRMC,234220.000,A,4910.36052,N,12304.22315,W,0.0,0.0,230419,,,A*79
$GNGSA,A,3,19,12,06,24,17,29,02,,,,,,1.2,0.8,1.0*22
$GNGSA,A,3,82,79,80,73,,,,,,,,,1.2,0.8,1.0*2E
$PSIWMPVT,7210.740,258157.999,3,49.1726753,-123.0703858,2.613,0.004,0.009,-0.008,7.000,4.637,36.203,0.707,0.000,0.000,48.010,0.027,11,*2E
$PSIWMMPU,7210.850,-0.46368,0.34836,-10.01725,-0.54321,-0.32043,-0.32654,*16
$PSIWMMPU,7211.050,-0.48952,0.35267,-10.05122,-0.51270,-0.39062,-0.32043,*10
$PSIWMMPU,7211.250,-0.46033,0.33879,-10.04500,-0.54626,-0.37842,-0.28687,*17
$PSIWMPOS,020011.400,4910.36054,N,12304.22313,W,2.68,2.58,M,1.65,2,5,0,2,0,*6B
$PSIWMATT,020011.400,262.6,T,-2.7,-2.0,97.4,*4C
$PSIWMVEL,020011.400,262.6,T,0.0,K,0.03,M,*58
$PSIWMMPU,7211.450,-0.48330,0.34692,-10.02969,-0.50049,-0.30518,-0.25330,*1C
$PSIWMMPU,7211.650,-0.46751,0.34118,-10.04931,-0.52490,-0.44861,-0.29907,*1D
$GPGGA,234221.000,4910.36052,N,12304.22315,W,1,11,0.8,002.61,M,-16.8,M,,*58
$GPRMC,234221.000,A,4910.36052,N,12304.22315,W,0.0,0.0,230419,,,A*78
$GNGSA,A,3,19,12,06,24,17,29,02,,,,,,1.2,0.8,1.0*22
$GNGSA,A,3,82,79,80,73,,,,,,,,,1.2,0.8,1.0*2E
$PSIWMPVT,7211.740,258159.000,3,49.1726753,-123.0703858,2.613,0.004,0.009,-0.008,7.036,4.637,37.367,0.707,0.000,0.000,49.573,0.078,11,*24
$PSIWMMPU,7211.850,-0.41966,0.32443,-10.01964,-0.54321,-0.34790,-0.30212,*1C
$PSIWMMPU,7212.050,-0.52158,0.35889,-10.03782,-0.63477,-0.43030,-0.33569,*1C
$PSIWMMPU,7212.250,-0.37994,0.31869,-10.04356,-0.55542,-0.27771,-0.26855,*11
$PSIWMPOS,020012.400,4910.36055,N,12304.22313,W,2.73,2.75,M,1.67,2,5,0,2,0,*6E
$PSIWMATT,020012.400,262.6,T,-2.7,-2.0,97.3,*48
$PSIWMVEL,020012.400,262.6,T,0.1,K,0.04,M,*5D
$PSIWMMPU,7212.450,-0.51488,0.35458,-9.96413,-0.48523,-0.34180,-0.32654,*23
$PSIWMMPU,7212.650,-0.42253,0.32778,-10.10290,-0.57068,-0.25940,-0.26855,*14
$GPGGA,234222.000,4910.36052,N,12304.22315,W,1,11,0.8,002.61,M,-16.8,M,,*5B
$GPRMC,234222.000,A,4910.36052,N,12304.22315,W,0.0,0.0,230419,,,A*7B
$GNGSA,A,3,19,12,06,24,17,29,02,,,,,,1.2,0.8,1.0*22
$GNGSA,A,3,82,79,80,73,,,,,,,,,1.2,0.8,1.0*2E
$PSIWMPVT,7212.740,258159.999,3,49.1726753,-123.0703858,2.613,-0.007,0.003,-0.007,7.036,4.637,37.746,0.707,0.000,0.000,50.180,0.012,11,*0E
$PSIWMMPU,7212.850,-0.46512,0.36463,-10.02060,-0.54016,-0.39673,-0.25940,*11
$PSIWMMPU,7213.050,-0.43354,0.32874,-10.06510,-0.53711,-0.36621,-0.26855,*18
$PSIWMMPU,7213.250,-0.47517,0.36032,-10.04165,-0.64087,-0.44556,-0.30212,*11
$PSIWMPOS,020013.400,4910.36055,N,12304.22314,W,2.78,2.91,M,1.70,2,5,0,2,0,*6F
$PSIWMATT,020013.400,262.6,T,-2.6,-2.0,97.3,*48
$PSIWMVEL,020013.400,262.6,T,0.0,K,0.03,M,*5A
$PSIWMMPU,7213.450,-0.43162,0.34836,-10.00098,-0.51880,-0.35706,-0.29297,*11
$PSIWMMPU,7213.650,-0.43066,0.35314,-10.04596,-0.54321,-0.32349,-0.27466,*18
$GPGGA,234223.000,4910.36052,N,12304.22315,W,1,11,0.8,002.61,M,-16.8,M,,*5A
$GPRMC,234223.000,A,4910.36052,N,12304.22315,W,0.0,0.0,230419,,,A*7A
$GNGSA,A,3,19,12,06,24,17,29,02,,,,,,1.2,0.8,1.0*22
$GNGSA,A,3,82,79,80,73,,,,,,,,,1.2,0.8,1.0*2E
$PSIWMPVT,7213.740,258160.999,3,49.1726753,-123.0703858,2.613,0.006,0.024,-0.004,7.036,4.690,39.078,0.707,0.000,0.000,51.961,0.031,11,*21
$PSIWMMPU,7213.850,-0.46703,0.33113,-10.03926,-0.57678,-0.52490,-0.30518,*15
$PSIWMMPU,7214.050,-0.51584,0.37468,-10.13688,-0.57373,-0.37842,-0.30518,*18
$PSIWMMPU,7214.250,-0.39812,0.33257,-9.98662,-0.58594,-0.38452,-0.29907,*2F
$PSIWMPOS,020014.400,4910.36056,N,12304.22313,W,2.82,2.75,M,1.72,2,5,0,2,0,*61
$PSIWMATT,020014.400,262.5,T,-2.7,-2.0,97.3,*4D
$PSIWMVEL,020014.400,262.5,T,0.1,K,0.03,M,*5F
$PSIWMMPU,7214.450,-0.48282,0.35123,-10.01150,-0.48218,-0.26245,-0.32959,*18
$PSIWMMPU,7214.650,-0.42540,0.35219,-10.04069,-0.58289,-0.29907,-0.32349,*1D
$GPGGA,234224.000,4910.36052,N,12304.22315,W,1,11,0.8,002.61,M,-16.8,M,,*5D
$GPRMC,234224.000,A,4910.36052,N,12304.22315,W,0.0,0.0,230419,,,A*7D
$GNGSA,A,3,19,12,06,24,17,29,02,,,,,,1.2,0.8,1.0*22
$GNGSA,A,3,82,79,80,73,,,,,,,,,1.2,0.8,1.0*2E
$PSIWMPVT,7214.740,258161.999,3,49.1726753,-123.0703858,2.613,-0.003,-0.001,-0.006,7.036,4.690,40.199,0.707,0.000,0.000,53.439,0.059,11,*2B
$PSIWMMPU,7214.850,-0.49431,0.32730,-10.04500,-0.62256,-0.40283,-0.29602,*1F
$PSIWMMPU,7215.050,-0.43832,0.35219,-9.98949,-0.50659,-0.31128,-0.31433,*21
$PSIWMMPU,7215.250,-0.47325,0.33496,-10.04931,-0.61646,-0.37231,-0.31433,*1E
$PSIWMPOS,020015.400,4910.36055,N,12304.22314,W,2.87,2.33,M,1.74,2,5,0,2,0,*65
$PSIWMATT,020015.400,262.5,T,-2.7,-2.0,97.3,*4C
$PSIWMVEL,020015.400,262.5,T,0.0,K,0.03,M,*5F
$PSIWMMPU,7215.450,-0.43401,0.36606,-10.05170,-0.59509,-0.43945,-0.26550,*15
$PSIWMMPU,7215.650,-0.48569,0.34166,-10.00863,-0.53711,-0.25940,-0.28076,*15
$GPGGA,234225.000,4910.36052,N,12304.22315,W,1,10,0.8,002.61,M,-16.8,M,,*5D
$GPRMC,234225.000,A,4910.36052,N,12304.22315,W,0.0,0.0,230419,,,A*7C
$GNGSA,A,3,19,12,06,24,17,29,02,,,,,,1.2,0.8,1.0*22
$GNGSA,A,3,82,79,80,,,,,,,,,,1.2,0.8,1.0*2A
$PSIWMPVT,7215.780,258163.000,3,49.1726753,-123.0703858,2.613,-0.018,-0.000,-0.008,7.036,4.690,40.445,0.707,0.000,0.000,54.760,0.090,10,*20
$PSIWMMPU,7215.850,-0.48617,0.35697,-10.03639,-0.58899,-0.46997,-0.25024,*1A
$PSIWMMPU,7216.050,-0.44023,0.34166,-9.98662,-0.52185,-0.28992,-0.25940,*28
$PSIWMMPU,7216.250,-0.46847,0.33879,-10.01103,-0.56458,-0.45471,-0.30823,*10
$PSIWMPOS,020016.400,4910.36055,N,12304.22315,W,2.91,2.75,M,1.77,2,5,0,2,0,*61
$PSIWMATT,020016.400,262.6,T,-2.7,-2.0,97.2,*4D
$PSIWMVEL,020016.400,262.6,T,0.1,K,0.03,M,*5E
$PSIWMMPU,7216.450,-0.47038,0.34118,-10.03208,-0.53406,-0.33875,-0.28992,*11
$PSIWMMPU,7216.650,-0.48713,0.34932,-10.02586,-0.54932,-0.34180,-0.29297,*14
$GPGGA,234226.000,4910.36052,N,12304.22315,W,1,10,0.8,002.61,M,-16.8,M,,*5E
$GPRMC,234226.000,A,4910.36052,N,12304.22315,W,0.0,0.0,230419,,,A*7F
$GNGSA,A,3,19,12,06,24,17,29,02,,,,,,1.2,0.8,1.0*22
$GNGSA,A,3,82,79,80,,,,,,,,,,1.2,0.8,1.0*2A
$PSIWMPVT,7216.780,258164.000,3,49.1726753,-123.0703858,2.613,0.000,0.003,-0.004,7.071,4.690,40.625,0.707,0.000,0.000,55.857,0.051,10,*22
$PSIWMMPU,7216.850,-0.43688,0.35027,-10.03208,-0.54932,-0.39062,-0.31433,*1F
$PSIWMMPU,7217.050,-0.46272,0.31391,-10.03543,-0.47607,-0.26245,-0.29297,*13
$PSIWMMPU,7217.250,-0.50962,0.36702,-10.05792,-0.54626,-0.41504,-0.27771,*1C
$PSIWMPOS,020017.400,4910.36055,N,12304.22315,W,2.95,2.66,M,1.79,2,5,0,2,0,*68
$PSIWMATT,020017.400,262.5,T,-2.7,-2.0,97.0,*4D
$PSIWMVEL,020017.400,262.5,T,0.0,K,0.03,M,*5D
$PSIWMMPU,7217.450,-0.43258,0.33496,-10.03160,-0.61035,-0.34180,-0.28381,*10
$PSIWMMPU,7217.650,-0.48904,0.33496,-9.98997,-0.50964,-0.32043,-0.32959,*22
$GPGGA,234227.000,4910.36052,N,12304.22315,W,1,10,0.8,002.61,M,-16.8,M,,*5F
$GPRMC,234227.000,A,4910.36052,N,12304.22315,W,0.0,0.0,230419,,,A*7E
$GNGSA,A,3,19,12,06,24,17,29,02,,,,,,1.2,0.8,1.0*22
$GNGSA,A,3,82,79,80,,,,,,,,,,1.2,0.8,1.0*2A
$PSIWMPVT,7217.740,258164.999,3,49.1726753,-123.0703858,2.613,-0.008,-0.005,0.000,7.071,4.690,41.465,0.707,0.000,0.000,56.985,0.070,10,*08
$PSIWMMPU,7217.850,-0.42971,0.34692,-10.02873,-0.57678,-0.38147,-0.25940,*11
$PSIWMMPU,7218.050,-0.45028,0.33448,-9.99236,-0.59509,-0.29602,-0.33569,*2A
$PSIWMMPU,7218.250,-0.49957,0.35554,-10.01581,-0.54321,-0.34180,-0.31128,*1E
$PSIWMPOS,020018.400,4910.36055,N,12304.22316,W,2.98,2.58,M,1.80,2,5,0,2,0,*62
$PSIWMATT,020018.400,262.5,T,-2.7,-2.0,97.0,*42
$PSIWMVEL,020018.400,262.5,T,0.0,K,0.02,M,*53
$PSIWMMPU,7218.450,-0.43593,0.36271,-10.04644,-0.54626,-0.30518,-0.26245,*17
$PSIWMMPU,7218.650,-0.44311,0.31917,-10.03926,-0.58594,-0.40588,-0.26855,*1D
$GPGGA,234228.000,4910.36052,N,12304.22315,W,1,10,0.8,002.61,M,-16.8,M,,*50
$GPRMC,234228.000,A,4910.36052,N,12304.22315,W,0.0,0.0,230419,,,A*71
$GNGSA,A,3,19,12,06,24,17,29,02,,,,,,1.2,0.8,1.0*22
$GNGSA,A,3,82,80,73,,,,,,,,,,1.2,0.8,1.0*20
$PSIWMPVT,7218.740,258165.999,3,49.1726753,-123.0703858,2.613,-0.011,-0.002,-0.003,7.071,4.743,42.363,0.707,0.000,0.000,58.823,0.227,10,*29
$PSIWMMPU,7218.850,-0.44406,0.33592,-9.99571,-0.49744,-0.29907,-0.33569,*29
$PSIWMMPU,7219.050,-0.46560,0.35171,-10.03256,-0.53711,-0.30518,-0.31738,*10
$PSIWMMPU,7219.250,-0.43688,0.33448,-10.02730,-0.52795,-0.34485,-0.29297,*1A
$PSIWMPOS,020019.400,4910.36055,N,12304.22317,W,3.02,2.42,M,1.82,2,5,0,2,0,*69
$PSIWMATT,020019.400,262.5,T,-2.6,-2.0,96.9,*4A
$PSIWMVEL,020019.400,262.5,T,0.0,K,0.03,M,*53
$PSIWMMPU,7219.450,-0.50579,0.36032,-10.03256,-0.44250,-0.30518,-0.27466,*17
$PSIWMMPU,7219.650,-0.46799,0.36224,-10.12109,-0.59509,-0.43945,-0.25940,*1E
$GPGGA,234229.000,4910.36052,N,12304.22315,W,1,10,0.8,002.61,M,-16.8,M,,*51
$GPRMC,234229.000,A,4910.36052,N,12304.22315,W,0.0,0.0,230419,,,A*70
$GNGSA,A,3,19,12,06,24,17,29,02,,,,,,1.2,0.8,1.0*22
$GNGSA,A,3,82,80,73,,,,,,,,,,1.2,0.8,1.0*20
$PSIWMPVT,7219.740,258167.000,3,49.1726753,-123.0703858,2.613,0.000,0.002,-0.005,7.071,4.743,41.582,0.707,0.000,0.000,60.651,0.121,10,*2A
$PSIWMMPU,7219.850,-0.46320,0.32730,-10.04404,-0.64697,-0.36316,-0.32043,*15
$PSIWMMPU,7220.050,-0.45842,0.33640,-9.99619,-0.61646,-0.45471,-0.28687,*20
$PSIWMMPU,7220.250,-0.49670,0.34357,-10.05936,-0.57983,-0.32043,-0.30823,*15
$PSIWMPOS,020020.400,4910.36055,N,12304.22316,W,3.05,2.17,M,1.84,2,5,0,2,0,*63
$PSIWMATT,020020.400,262.5,T,-2.6,-2.0,96.9,*40
$PSIWMVEL,020020.400,262.5,T,0.0,K,0.02,M,*58
$PSIWMMPU,7220.450,-0.45459,0.34884,-10.00959,-0.63477,-0.42725,-0.26245,*13
$PSIWMMPU,7220.650,-0.44023,0.34979,-10.01150,-0.54321,-0.32043,-0.31433,*1B
$GPGGA,234230.000,4910.36052,N,12304.22315,W,1,10,0.8,002.61,M,-16.8,M,,*59
$GPRMC,234230.000,A,4910.36052,N,12304.22315,W,0.0,0.0,230419,,,A*78
$GNGSA,A,3,19,12,06,24,17,29,02,,,,,,1.2,0.8,1.0*22
$GNGSA,A,3,82,80,73,,,,,,,,,,1.2,0.8,1.0*20
$PSIWMPVT,7220.740,258168.000,3,49.1726753,-123.0703858,2.613,-0.007,-0.005,-0.000,7.071,4.743,42.281,0.707,0.000,0.000,62.903,0.195,10,*28
$PSIWMMPU,7220.850,-0.45890,0.32874,-10.01390,-0.51575,-0.35706,-0.35400,*17
$PSIWMMPU,7221.050,-0.47947,0.35889,-10.06366,-0.54932,-0.27161,-0.30212,*12
$PSIWMMPU,7221.250,-0.48139,0.34884,-10.04739,-0.64392,-0.38757,-0.27771,*16
$PSIWMPOS,020021.400,4910.36054,N,12304.22317,W,3.07,2.99,M,1.85,2,5,0,2,0,*67
$PSIWMATT,020021.400,262.5,T,-2.6,-2.0,96.9,*41
$PSIWMVEL,020021.400,262.5,T,0.0,K,0.02,M,*59
$PSIWMMPU,7221.450,-0.47325,0.34118,-10.03830,-0.54932,-0.37231,-0.34180,*1E
$PSIWMMPU,7221.650,-0.46990,0.33879,-10.00480,-0.50659,-0.30823,-0.32959,*16
$GPGGA,234231.000,4910.36052,N,12304.22315,W,1,10,0.8,002.61,M,-16.8,M,,*58
$GPRMC,234231.000,A,4910.36052,N,12304.22315,W,0.0,0.0,230419,,,A*79
$GNGSA,A,3,19,12,06,24,17,29,02,,,,,,1.2,0.8,1.0*22
$GNGSA,A,3,82,79,80,,,,,,,,,,1.2,0.8,1.0*2A
$PSIWMPVT,7221.740,258168.999,3,49.1726753,-123.0703858,2.613,-0.021,0.001,-0.003,7.106,4.743,40.012,0.707,0.000,0.000,64.119,0.215,10,*0B
$PSIWMMPU,7221.850,-0.46799,0.33065,-10.06940,-0.57068,-0.32959,-0.31433,*12
$PSIWMMPU,7222.050,-0.45842,0.34645,-10.04213,-0.49438,-0.34180,-0.29602,*12
$PSIWMMPU,7222.250,-0.45507,0.34884,-10.00672,-0.58289,-0.37842,-0.31738,*11
$PSIWMPOS,020022.400,4910.36054,N,12304.22319,W,3.10,2.83,M,1.86,2,5,0,2,0,*64
$PSIWMATT,020022.400,262.6,T,-2.6,-2.0,96.7,*4F
$PSIWMVEL,020022.400,262.6,T,0.1,K,0.02,M,*58
$PSIWMMPU,7222.450,-0.45746,0.33209,-10.01581,-0.48218,-0.32959,-0.29297,*18
$PSIWMMPU,7222.650,-0.47086,0.34692,-10.05026,-0.53406,-0.37231,-0.32349,*15
$GPGGA,234232.000,4910.36052,N,12304.22315,W,1,10,0.8,002.61,M,-16.8,M,,*5B
$GPRMC,234232.000,A,4910.36052,N,12304.22315,W,0.0,0.0,230419,,,A*7A
$GNGSA,A,3,19,12,06,24,17,29,02,,,,,,1.2,0.8,1.0*22
$GNGSA,A,3,82,79,80,,,,,,,,,,1.2,0.8,1.0*2A
$PSIWMPVT,7222.770,258169.999,3,49.1726753,-123.0703858,2.613,0.008,-0.005,0.003,7.106,4.743,36.066,0.707,0.000,0.000,64.161,0.066,10,*23
$PSIWMMPU,7222.850,-0.46847,0.32922,-9.99763,-0.61035,-0.36011,-0.28381,*2D
$PSIWMMPU,7223.050,-0.43114,0.33783,-10.01055,-0.58594,-0.29907,-0.27771,*11
$PSIWMMPU,7223.250,-0.46225,0.33018,-10.00720,-0.58289,-0.32654,-0.37231,*1E
$PSIWMPOS,020023.400,4910.36054,N,12304.22318,W,3.12,2.75,M,1.88,2,5,0,2,0,*61
$PSIWMATT,020023.400,262.4,T,-2.6,-2.0,96.5,*4E
$PSIWMVEL,020023.400,262.4,T,0.0,K,0.02,M,*5A
$PSIWMMPU,7223.450,-0.48234,0.33592,-10.03352,-0.49438,-0.31128,-0.34180,*1A
$PSIWMMPU,7223.650,-0.50675,0.36319,-10.09524,-0.56458,-0.36621,-0.23804,*1F
$GPGGA,234233.000,4910.36052,N,12304.22315,W,1,10,0.8,002.61,M,-16.8,M,,*5A
$GPRMC,234233.000,A,4910.36052,N,12304.22315,W,0.0,0.0,230419,,,A*7B
$GNGSA,A,3,19,12,06,24,17,29,02,,,,,,1.2,0.8,1.0*22
$GNGSA,A,3,82,79,80,,,,,,,,,,1.2,0.8,1.0*2A
$PSIWMPVT,7223.770,258171.000,3,49.1726753,-123.0703858,2.613,0.006,0.000,0.001,7.106,4.796,36.594,0.707,0.000,0.000,64.764,0.129,10,*0F
$PSIWMMPU,7223.850,-0.44933,0.33879,-10.02490,-0.57068,-0.42419,-0.22278,*18
$PSIWMMPU,7224.050,-0.42923,0.35267,-10.02682,-0.63171,-0.40894,-0.33264,*1A
$PSIWMMPU,7224.250,-0.46320,0.33640,-9.99954,-0.47607,-0.31433,-0.31433,*2D
$PSIWMPOS,020024.400,4910.36054,N,12304.22317,W,3.14,2.83,M,1.89,2,5,0,2,0,*67
$PSIWMATT,020024.400,262.4,T,-2.7,-2.0,96.5,*48
$PSIWMVEL,020024.400,262.4,T,0.0,K,0.02,M,*5D
$PSIWMMPU,7224.450,-0.47804,0.33065,-10.03782,-0.53711,-0.32959,-0.30518,*10
$PSIWMMPU,7224.650,-0.48187,0.33927,-10.04261,-0.60730,-0.42114,-0.28992,*1D
$GPGGA,234234.000,4910.36052,N,12304.22315,W,1,10,0.8,002.61,M,-16.8,M,,*5D
$GPRMC,234234.000,A,4910.36052,N,12304.22315,W,0.0,0.0,230419,,,A*7C
$GNGSA,A,3,19,12,06,24,17,29,02,,,,,,1.2,0.8,1.0*22
$GNGSA,A,3,82,79,80,,,,,,,,,,1.2,0.8,1.0*2A
$PSIWMPVT,7224.780,258172.000,3,49.1726753,-123.0703858,2.613,-0.003,-0.006,-0.002,7.106,4.796,36.801,0.707,0.000,0.000,64.655,0.086,10,*2F
$PSIWMMPU,7224.850,-0.44502,0.34310,-10.00528,-0.61035,-0.36621,-0.33569,*12
$PSIWMMPU,7225.050,-0.44119,0.34740,-10.03208,-0.51270,-0.32959,-0.26550,*18
$PSIWMMPU,7225.250,-0.47756,0.33735,-10.03447,-0.56458,-0.30212,-0.34790,*1C
$PSIWMPOS,020025.400,4910.36053,N,12304.22317,W,3.15,2.83,M,1.90,2,5,0,2,0,*68
$PSIWMATT,020025.400,262.4,T,-2.6,-2.0,96.5,*48
$PSIWMVEL,020025.400,262.4,T,0.0,K,0.02,M,*5C
$PSIWMMPU,7225.450,-0.48617,0.33448,-10.03065,-0.57373,-0.34790,-0.28076,*1A
$PSIWMMPU,7225.650,-0.46129,0.34357,-10.01820,-0.53711,-0.35095,-0.27771,*11
$GPGGA,234235.000,4910.36069,N,12304.22323,W,1,10,0.8,002.82,M,-16.8,M,,*5C
$GPRMC,234235.000,A,4910.36069,N,12304.22323,W,0.0,0.0,230419,,,A*70
$GNGSA,A,3,19,12,06,24,17,29,02,,,,,,1.2,0.8,1.0*22
$GNGSA,A,3,82,79,80,,,,,,,,,,1.2,0.8,1.0*2A
$PSIWMPVT,7225.780,258173.000,3,49.1726781,-123.0703871,2.820,-0.000,-0.004,-0.004,6.928,4.359,36.539,0.707,0.000,0.000,65.690,0.102,10,*23
$PSIWMMPU,7225.850,-0.44502,0.35602,-10.05409,-0.50049,-0.38147,-0.26855,*15
$PSIWMMPU,7226.050,-0.44263,0.33305,-10.02012,-0.55237,-0.32349,-0.28076,*1C
$PSIWMMPU,7226.250,-0.46942,0.33257,-10.03017,-0.51575,-0.37537,-0.27771,*16
$PSIWMPOS,020026.400,4910.36053,N,12304.22318,W,3.39,2.25,M,1.97,2,5,0,2,0,*61
$PSIWMATT,020026.400,262.4,T,-2.7,-2.0,96.5,*4A
$PSIWMVEL,020026.400,262.4,T,0.0,K,0.03,M,*5E
$PSIWMMPU,7226.450,-0.46990,0.37276,-10.04356,-0.53406,-0.32959,-0.29297,*1C
$PSIWMMPU,7226.650,-0.45698,0.32300,-10.03064,-0.54321,-0.32654,-0.28687,*19
$GPGGA,234236.000,4910.36069,N,12304.22323,W,1,10,0.8,002.82,M,-16.8,M,,*5F
$GPRMC,234236.000,A,4910.36069,N,12304.22323,W,0.0,0.0,230419,,,A*73
$GNGSA,A,3,19,12,06,24,17,29,02,,,,,,1.2,0.8,1.0*22
$GNGSA,A,3,82,79,80,,,,,,,,,,1.2,0.8,1.0*2A
$PSIWMPVT,7226.770,258173.999,3,49.1726781,-123.0703871,2.820,-0.003,-0.010,-0.010,6.928,4.359,36.844,0.707,0.000,0.000,67.057,0.062,10,*2A
$PSIWMMPU,7226.850,-0.46368,0.32348,-10.06271,-0.53711,-0.35095,-0.30212,*1C
$PSIWMMPU,7227.050,-0.46368,0.36224,-9.98997,-0.57678,-0.41809,-0.32654,*26
$PSIWMMPU,7227.250,-0.45411,0.35123,-10.01342,-0.56152,-0.32959,-0.29602,*14
$PSIWMPOS,020027.400,4910.36054,N,12304.22318,W,3.29,2.83,M,1.96,2,5,0,2,0,*6B
$PSIWMATT,020027.400,262.4,T,-2.6,-2.0,96.5,*4A
$PSIWMVEL,020027.400,262.4,T,0.0,K,0.02,M,*5E
$PSIWMMPU,7227.450,-0.45172,0.35649,-10.04452,-0.58594,-0.40894,-0.28076,*1B
$PSIWMMPU,7227.650,-0.45985,0.34932,-10.00433,-0.54626,-0.34790,-0.30518,*12
$GPGGA,234237.000,4910.36069,N,12304.22323,W,1,10,0.8,002.82,M,-16.8,M,,*5E
$GPRMC,234237.000,A,4910.36069,N,12304.22323,W,0.0,0.0,230419,,,A*72
$GNGSA,A,3,19,12,06,24,17,29,02,,,,,,1.2,0.8,1.0*22
$GNGSA,A,3,82,79,80,,,,,,,,,,1.2,0.8,1.0*2A
$PSIWMPVT,7227.740,258175.000,3,49.1726781,-123.0703871,2.820,-0.008,-0.014,-0.008,6.964,4.416,35.781,0.707,0.000,0.000,68.817,0.133,10,*26
$PSIWMMPU,7227.850,-0.46512,0.33161,-10.02155,-0.55847,-0.33569,-0.29602,*18
$PSIWMMPU,7228.050,-0.46942,0.31869,-9.99476,-0.57068,-0.39673,-0.29297,*26
$PSIWMMPU,7228.250,-0.46703,0.35745,-10.05074,-0.52185,-0.39368,-0.31128,*17
$PSIWMPOS,020028.400,4910.36054,N,12304.22319,W,3.29,2.66,M,1.96,2,5,0,2,0,*6E
$PSIWMATT,020028.400,262.5,T,-2.6,-2.0,96.4,*45
$PSIWMVEL,020028.400,262.5,T,0.0,K,0.02,M,*50
$PSIWMMPU,7228.450,-0.46368,0.34740,-10.05936,-0.57373,-0.37537,-0.34180,*18
$PSIWMMPU,7228.650,-0.45650,0.35649,-10.04309,-0.58594,-0.33569,-0.28381,*18
$GPGGA,234238.000,4910.36069,N,12304.22323,W,1,10,0.8,002.82,M,-16.8,M,,*51
$GPRMC,234238.000,A,4910.36069,N,12304.22323,W,0.0,0.0,230419,,,A*7D
$GNGSA,A,3,19,12,06,24,17,29,02,,,,,,1.2,0.8,1.0*22
$GNGSA,A,3,82,79,80,,,,,,,,,,1.2,0.8,1.0*2A
$PSIWMPVT,7228.770,258176.000,3,49.1726781,-123.0703871,2.820,-0.004,-0.017,-0.008,6.964,4.416,36.527,0.707,0.000,0.000,69.562,0.164,10,*27
$PSIWMMPU,7228.850,-0.44598,0.33879,-10.01103,-0.55237,-0.37231,-0.24719,*12
$PSIWMMPU,7229.050,-0.47852,0.34788,-10.02251,-0.53101,-0.29907,-0.26550,*1E
$PSIWMMPU,7229.250,-0.45555,0.33209,-10.02634,-0.55542,-0.36316,-0.29297,*1A
$PSIWMPOS,020029.400,4910.36054,N,12304.22320,W,3.28,2.25,M,1.96,2,5,0,2,0,*63
$PSIWMATT,020029.400,262.4,T,-2.6,-2.0,96.4,*45
$PSIWMVEL,020029.400,262.4,T,0.0,K,0.02,M,*50
$PSIWMMPU,7229.450,-0.46464,0.33448,-10.03208,-0.57678,-0.38147,-0.26245,*15
$PSIWMMPU,7229.650,-0.46129,0.34118,-10.01438,-0.49744,-0.36316,-0.28687,*16
$GPGGA,234239.000,4910.36069,N,12304.22323,W,1,11,0.8,002.82,M,-16.8,M,,*51
$GPRMC,234239.000,A,4910.36069,N,12304.22323,W,0.0,0.0,230419,,,A*7C
$GNGSA,A,3,19,12,06,24,17,29,02,,,,,,1.2,0.8,1.0*22
$GNGSA,A,3,82,79,80,73,,,,,,,,,1.2,0.8,1.0*2E
$PSIWMPVT,7229.740,258177.000,3,49.1726781,-123.0703871,2.820,0.002,-0.011,-0.008,6.964,4.416,35.125,0.707,0.000,0.000,71.459,0.141,11,*0A
$PSIWMMPU,7229.850,-0.45890,0.34357,-10.01150,-0.54932,-0.33569,-0.28992,*11
$PSIWMMPU,7230.050,-0.47564,0.35458,-10.02586,-0.50354,-0.38757,-0.27466,*13
$PSIWMMPU,7230.250,-0.44263,0.33592,-10.05601,-0.55237,-0.37537,-0.30518,*1C
$PSIWMPOS,020030.400,4910.36054,N,12304.22320,W,3.27,2.33,M,1.96,2,5,0,2,0,*63
$PSIWMATT,020030.400,262.4,T,-2.6,-2.0,96.4,*4D
$PSIWMVEL,020030.400,262.4,T,0.0,K,0.02,M,*58
$PSIWMMPU,7230.450,-0.47086,0.34022,-10.00720,-0.55847,-0.37231,-0.32349,*12
$PSIWMMPU,7230.650,-0.43928,0.34788,-10.05074,-0.52490,-0.34790,-0.31738,*10
$GPGGA,234240.000,4910.36069,N,12304.22323,W,1,11,0.8,002.82,M,-16.8,M,,*5F
$GPRMC,234240.000,A,4910.36069,N,12304.22323,W,0.0,0.0,230419,,,A*72
$GNGSA,A,3,19,12,06,24,17,29,02,,,,,,1.2,0.8,1.0*22
$GNGSA,A,3,82,79,80,73,,,,,,,,,1.2,0.8,1.0*2E
$PSIWMPVT,7230.740,258177.999,3,49.1726781,-123.0703871,2.820,-0.002,-0.008,-0.012,6.964,4.416,34.816,0.707,0.000,0.000,71.625,0.148,11,*2D
$PSIWMMPU,7230.850,-0.46272,0.33783,-10.01629,-0.54321,-0.36926,-0.33875,*17
$PSIWMMPU,7231.050,-0.46129,0.35410,-10.04069,-0.51270,-0.31738,-0.23499,*12
$PSIWMMPU,7231.250,-0.46081,0.35697,-10.00576,-0.59204,-0.39978,-0.27771,*19
$PSIWMPOS,020031.400,4910.36055,N,12304.22320,W,3.27,2.58,M,1.96,2,5,0,2,0,*6E
$PSIWMATT,020031.400,262.5,T,-2.6,-2.0,96.4,*4D
$PSIWMVEL,020031.400,262.5,T,0.0,K,0.02,M,*58
$PSIWMMPU,7231.450,-0.45124,0.33209,-10.04500,-0.56152,-0.37231,-0.32349,*1E
$PSIWMMPU,7231.650,-0.48091,0.34932,-10.02395,-0.59204,-0.40588,-0.32959,*17
$GPGGA,234241.000,4910.36069,N,12304.22323,W,1,11,0.8,002.82,M,-16.8,M,,*5E
$GPRMC,234241.000,A,4910.36069,N,12304.22323,W,0.0,0.0,230419,,,A*73
$GNGSA,A,3,19,12,06,24,17,29,02,,,,,,1.2,0.8,1.0*22
$GNGSA,A,3,82,79,80,73,,,,,,,,,1.2,0.8,1.0*2E
$PSIWMPVT,7231.740,258179.000,3,49.1726781,-123.0703871,2.820,0.002,-0.001,-0.012,6.964,4.416,35.281,0.707,0.000,0.000,71.993,0.148,11,*08
$PSIWMMPU,7231.850,-0.46655,0.33879,-10.02155,-0.55237,-0.30212,-0.33569,*1F
$PSIWMMPU,7232.050,-0.48187,0.37181,-9.98949,-0.60120,-0.47607,-0.22583,*21
$PSIWMMPU,7232.250,-0.42731,0.33257,-10.02155,-0.55847,-0.31738,-0.34790,*15
$PSIWMPOS,020032.400,4910.36056,N,12304.22320,W,3.25,2.09,M,1.95,2,5,0,2,0,*6B
$PSIWMATT,020032.400,262.5,T,-2.6,-2.0,96.4,*4E
$PSIWMVEL,020032.400,262.5,T,0.0,K,0.02,M,*5B
$PSIWMMPU,7232.450,-0.49431,0.35602,-10.04069,-0.54016,-0.46387,-0.35706,*12
$PSIWMMPU,7232.650,-0.43449,0.35602,-10.04309,-0.58289,-0.29907,-0.28992,*1C
$GPGGA,234242.000,4910.36069,N,12304.22323,W,1,11,0.8,002.82,M,-16.8,M,,*5D
$GPRMC,234242.000,A,4910.36069,N,12304.22323,W,0.0,0.0,230419,,,A*70
$GNGSA,A,3,19,12,06,24,17,29,02,,,,,,1.2,0.8,1.0*22
$GNGSA,A,3,82,79,80,73,,,,,,,,,1.2,0.8,1.0*2E
$PSIWMPVT,7232.740,258180.000,3,49.1726781,-123.0703871,2.820,0.004,-0.007,-0.012,7.000,4.472,35.387,0.707,0.000,0.000,72.405,0.184,11,*03
$PSIWMMPU,7232.850,-0.50675,0.36128,-10.03208,-0.59204,-0.39978,-0.26855,*1F
$PSIWMMPU,7233.050,-0.42779,0.34836,-10.06510,-0.50964,-0.36926,-0.26245,*1C
$PSIWMMPU,7233.250,-0.49000,0.35171,-10.01629,-0.55847,-0.32959,-0.31433,*11
$PSIWMPOS,020033.400,4910.36056,N,12304.22320,W,3.23,2.66,M,1.94,2,5,0,2,0,*64
$PSIWMATT,020033.400,262.6,T,-2.6,-2.0,96.4,*4C
$PSIWMVEL,020033.400,262.6,T,0.0,K,0.03,M,*58
$PSIWMMPU,7233.450,-0.43210,0.33975,-10.04835,-0.57068,-0.41199,-0.27161,*10
$PSIWMMPU,7233.650,-0.45603,0.34740,-10.02490,-0.56152,-0.30212,-0.31433,*12
$GPGGA,234243.000,4910.36069,N,12304.22323,W,1,11,0.8,002.82,M,-16.8,M,,*5C
$GPRMC,234243.000,A,4910.36069,N,12304.22323,W,0.0,0.0,230419,,,A*71
$GNGSA,A,3,19,12,06,24,17,29,02,,,,,,1.2,0.8,1.0*22
$GNGSA,A,3,82,79,80,73,,,,,,,,,1.2,0.8,1.0*2E
$PSIWMPVT,7233.740,258181.000,3,49.1726781,-123.0703871,2.820,0.002,-0.013,-0.013,7.000,4.472,33.730,0.707,0.000,0.000,70.167,0.141,11,*05
$PSIWMMPU,7233.850,-0.46895,0.35458,-10.02108,-0.54321,-0.39368,-0.33875,*1C
$PSIWMMPU,7234.050,-0.44741,0.32730,-10.02299,-0.57068,-0.36621,-0.28687,*15
$PSIWMMPU,7234.250,-0.47995,0.33257,-10.02777,-0.54932,-0.37231,-0.31128,*18
$PSIWMPOS,020034.400,4910.36056,N,12304.22320,W,3.22,2.17,M,1.93,2,5,0,2,0,*63
$PSIWMATT,020034.400,262.7,T,-2.6,-2.0,96.4,*4A
$PSIWMVEL,020034.400,262.7,T,0.0,K,0.02,M,*5F
