$PSIWMMPU,51.650,-0.33544,-0.13494,-9.61434,-0.57983,0.63782,-0.28992,*2F
$PSIWMMPU,51.850,-0.48234,-0.11341,-10.03639,-0.31128,-1.12305,-0.21973,*3D
$PSIWMMPU,52.050,-0.47134,-0.10288,-10.13496,-0.41199,-1.00708,-0.36621,*30
$GPGGA,214239.000,4910.31616,N,12304.14230,W,1,09,0.8,074.72,M,-16.8,M,,*5B
$GPRMC,214239.000,A,4910.31616,N,12304.14230,W,0.0,0.0,230419,,,A*71
$GNGSA,A,3,19,12,06,15,17,28,,,,,,,1.4,0.8,1.1*24
$GNGSA,A,3,82,79,78,,,,,,,,,,1.4,0.8,1.1*2A
$PSIWMPVT,52.190,250977.000,3,49.1719361,-123.0690383,74.716,-0.004,0.023,-0.025,7.280,5.788,23.422,1.275,1.904,1.414,30.762,0.059,9,*02
$PSIWMMPU,52.250,-0.48713,-0.16892,-10.00241,-0.60120,0.23193,-0.26245,*18
$PSIWMMPU,52.450,-0.46081,-0.11149,-10.00528,-0.32349,-1.02234,-0.30823,*3A
$PSIWMMPU,52.650,-0.49813,-0.12106,-10.00050,-0.31128,-1.18713,-0.25330,*36
$PSIWMMPU,52.850,-0.56369,-0.16987,-10.06079,-0.34485,-0.81177,-0.27771,*39
$PSIWMMPU,53.050,-0.47134,-0.14547,-10.03352,-0.57983,-0.03967,-0.25330,*39
$GPGGA,214240.000,4910.31613,N,12304.14178,W,1,09,0.8,073.07,M,-16.8,M,,*5A
$GPRMC,214240.000,A,4910.31613,N,12304.14178,W,0.0,0.0,230419,,,A*75
$GNGSA,A,3,19,12,06,15,17,28,,,,,,,1.4,0.8,1.1*24
$GNGSA,A,3,82,79,78,,,,,,,,,,1.4,0.8,1.1*2A
$PSIWMPVT,53.190,250977.999,3,49.1719355,-123.0690296,73.069,-0.014,0.013,-0.024,7.246,5.788,24.133,1.275,1.871,1.369,31.528,0.070,9,*03
$PSIWMMPU,53.250,-0.41918,-0.45555,-10.29287,-0.29907,-1.62964,-0.40283,*37
$PSIWMMPU,53.450,-0.51680,-0.17705,-10.07993,-0.75073,0.94604,-0.26855,*12
$PSIWMMPU,53.650,-0.57039,-0.15839,-10.02203,-0.77515,1.17188,-0.26245,*12
$PSIWMPDR,0.000,0.0000000,0.0000000,0.000,-1010101.125000000,-1010101.125000000,0,0.000000000,0.000000000,0.000000000,0.00,0.000000000,0.000000000,0.000000000,0.000000000,-1010101.125000000,24,*15
$PSIWMMPU,53.850,-0.46990,-0.13542,-10.05601,-0.60730,-0.32043,-0.21362,*3D
$PSIWMMPU,54.050,-0.50148,-0.15504,-9.88087,-0.54016,-0.21057,-0.30212,*0C
$GPGGA,214241.000,4910.31597,N,12304.14156,W,1,09,0.8,071.53,M,-16.8,M,,*5B
$GPRMC,214241.000,A,4910.31597,N,12304.14156,W,0.0,0.0,230419,,,A*77
$GNGSA,A,3,19,12,06,15,17,28,,,,,,,1.4,0.8,1.1*24
$GNGSA,A,3,82,79,78,,,,,,,,,,1.4,0.8,1.1*2A
$PSIWMPVT,54.190,250978.999,3,49.1719328,-123.0690260,71.525,-0.012,0.011,-0.024,7.246,5.831,25.867,1.275,1.871,1.414,34.180,0.066,9,*0E
$PSIWMMPU,54.250,-0.45268,-0.13542,-10.05170,-0.53711,-0.47607,-0.25940,*37
$PSIWMMPU,54.450,-0.50531,-0.15265,-10.03974,-0.41809,-0.54932,-0.29907,*31
$PSIWMMPU,54.650,-0.45459,-0.15025,-9.98997,-0.30518,-1.45264,-0.29297,*09
$PSIWMMPU,54.850,-0.53737,-0.13733,-9.94451,-0.32959,-1.30310,-0.33264,*0A
$PSIWMMPU,55.050,-0.58905,-0.14882,-10.12922,-0.39978,-0.53101,-0.29907,*31
$GPGGA,214242.000,4910.31559,N,12304.14095,W,1,09,0.8,069.94,M,-16.8,M,,*56
$GPRMC,214242.000,A,4910.31559,N,12304.14095,W,0.0,0.0,230419,,,A*78
$GNGSA,A,3,19,12,06,15,17,28,,,,,,,1.4,0.8,1.1*24
$GNGSA,A,3,82,79,78,,,,,,,,,,1.4,0.8,1.1*2A
$PSIWMPVT,55.190,250979.999,3,49.1719266,-123.0690158,69.939,-0.001,0.006,-0.022,7.211,5.831,27.559,1.275,1.871,1.414,36.062,0.074,9,*0B
$PSIWMMPU,55.250,-0.54599,-0.15360,-10.04356,-1.04370,2.38647,-0.23499,*14
$PSIWMMPU,55.450,-0.48139,-0.29764,-10.07658,-1.15662,-0.21057,-0.26855,*39
$PSIWMMPU,55.650,-0.53067,-0.16222,-10.09955,-0.51880,-0.34485,-0.23499,*39
$PSIWMMPU,55.850,-0.50675,-0.49766,-9.73875,-0.55542,0.47913,-0.21973,*2F
$PSIWMMPU,56.050,-0.53594,-0.15695,-9.98136,-0.45776,-1.01013,-0.29907,*0C
$PSIWMPOS,000056.150,4910.31559,N,12304.14095,W,141.42,69.94,M,100.00,0,8,0,2,0,*52
$PSIWMATT,000056.150,360.0,T,-2.9,1.3,180.0,*58
$PSIWMVEL,000056.150,360.0,T,0.0,K,-0.00,M,*72
$GPGGA,214243.000,4910.31544,N,12304.14092,W,1,09,0.8,067.41,M,-16.8,M,,*5A
$GPRMC,214243.000,A,4910.31544,N,12304.14092,W,0.0,0.0,230419,,,A*72
$GNGSA,A,3,19,12,06,15,17,28,,,,,,,1.4,0.8,1.1*24
$GNGSA,A,3,82,79,78,,,,,,,,,,1.4,0.8,1.1*2A
$PSIWMPVT,56.220,250981.000,3,49.1719240,-123.0690154,67.406,0.001,-0.002,-0.019,7.211,5.788,26.773,1.275,1.871,1.414,34.897,0.133,9,*01
$PSIWMMPU,56.250,-0.52158,-0.16604,-10.04835,-0.44861,-0.57983,-0.24719,*31
$PSIWMMPU,56.450,-0.51345,-0.13781,-9.90384,-0.68970,0.40283,-0.22583,*2F
$PSIWMMPU,56.650,-0.59527,-0.18710,-10.15984,-0.31433,-0.72937,-0.28687,*38
$PSIWMMPU,56.850,-0.53163,-0.17466,-10.03591,-0.51880,-0.42114,-0.27771,*35
$PSIWMMPU,57.050,-0.49096,-0.16987,-9.98614,-0.61035,0.54016,-0.27771,*27
$PSIWMPOS,000057.150,4910.31544,N,12304.14092,W,10.20,67.41,M,7.21,0,8,0,2,0,*6A
$PSIWMATT,000057.150,360.0,T,-3.0,0.9,180.0,*5A
$PSIWMVEL,000057.150,360.0,T,0.0,K,0.02,M,*5C
$GPGGA,214244.000,4910.31542,N,12304.14100,W,1,09,0.8,064.79,M,-16.8,M,,*59
$GPRMC,214244.000,A,4910.31542,N,12304.14100,W,0.0,0.0,230419,,,A*79
$GNGSA,A,3,19,12,06,15,17,28,,,,,,,1.4,0.8,1.1*24
$GNGSA,A,3,82,79,78,,,,,,,,,,1.4,0.8,1.1*2A
$PSIWMPVT,57.230,250982.000,3,49.1719237,-123.0690166,64.787,-0.001,-0.013,-0.015,7.176,5.788,25.855,1.275,1.871,1.414,33.329,0.086,9,*27
$PSIWMMPU,57.250,-0.53115,-0.15169,-10.09094,-0.52795,-0.14648,-0.27161,*3F
$PSIWMMPU,57.450,-0.47038,-0.17083,-9.99715,-0.47302,-0.44250,-0.25024,*0E
$PSIWMMPU,57.650,-0.51728,-0.12298,-10.03352,-0.48218,0.26550,-0.25940,*1C
$PSIWMMPU,57.850,-0.44406,-0.15982,-10.01581,-0.54626,-0.24109,-0.24109,*33
$PSIWMMPU,58.050,-0.51010,-0.13351,-10.02395,-0.46692,-0.26245,-0.25330,*3D
$PSIWMPOS,000058.150,4910.31542,N,12304.14100,W,10.15,64.79,M,7.18,0,8,0,2,0,*6D
$PSIWMATT,000058.150,360.0,T,-3.2,1.0,180.0,*5F
$PSIWMVEL,000058.150,360.0,T,0.0,K,-0.00,M,*7C
$GPGGA,214245.000,4910.31538,N,12304.14097,W,1,09,0.8,062.20,M,-16.8,M,,*50
$GPRMC,214245.000,A,4910.31538,N,12304.14097,W,0.0,0.0,230419,,,A*7A
$GNGSA,A,3,19,12,06,15,17,28,,,,,,,1.4,0.8,1.1*24
$GNGSA,A,3,82,79,78,,,,,,,,,,1.4,0.8,1.1*2A
$PSIWMPVT,58.230,250982.999,3,49.1719229,-123.0690162,62.204,0.016,0.018,-0.016,7.176,5.874,25.312,1.275,1.904,1.414,32.513,0.082,9,*21
$PSIWMMPU,58.250,-0.55077,-0.16413,-10.01150,-0.07019,-2.77405,-0.37842,*3F
$PSIWMMPU,58.450,-0.55556,-0.18231,-9.94260,-0.50049,0.05798,-0.29907,*26
$PSIWMMPU,58.650,-0.54264,-0.15217,-10.04500,-0.77820,1.08948,-0.20752,*10
$PSIWMMPU,58.850,-0.49574,-0.15073,-10.04548,-0.58899,-0.29907,-0.27771,*35
$PSIWMMPU,59.050,-0.45937,-0.14021,-9.97227,-0.61951,0.18311,-0.26855,*24
$PSIWMPOS,000059.150,4910.31538,N,12304.14097,W,12.18,62.20,M,8.61,0,8,0,2,0,*6A
$PSIWMATT,000059.150,360.0,T,-3.1,1.0,180.0,*5D
$PSIWMVEL,000059.150,360.0,T,0.0,K,-0.00,M,*7D
$GPGGA,214246.000,4910.31506,N,12304.14032,W,1,09,0.8,059.41,M,-16.8,M,,*5E
$GPRMC,214246.000,A,4910.31506,N,12304.14032,W,0.0,0.0,230419,,,A*7B
$GNGSA,A,3,19,12,06,24,15,17,28,,,,,,1.4,0.8,1.1*22
$GNGSA,A,3,82,78,,,,,,,,,,,1.4,0.8,1.1*24
$PSIWMPVT,59.230,250983.999,3,49.1719176,-123.0690053,59.414,-0.002,-0.013,-0.014,7.141,5.568,26.707,1.061,0.707,0.791,34.423,0.078,9,*2A
$PSIWMMPU,59.250,-0.50675,-0.12250,-10.05601,-0.57373,0.28381,-0.31128,*1A
$PSIWMMPU,59.450,-0.45268,-0.14690,-10.02921,-0.52795,0.00610,-0.23193,*19
$PSIWMMPU,59.650,-0.47086,-0.12537,-10.09668,-0.41199,-0.84229,-0.23193,*3D
$PSIWMMPU,59.850,-0.28041,-0.19045,-10.04165,-0.54932,-0.51270,-0.32043,*38
$PSIWMMPU,60.050,-0.47277,-0.15887,-10.01677,-0.42419,-0.65002,-0.28687,*39
$PSIWMPOS,000100.150,4910.31506,N,12304.14032,W,12.12,59.41,M,8.57,0,8,0,2,0,*65
$PSIWMATT,000100.150,360.0,T,-3.0,0.8,180.0,*58
$PSIWMVEL,000100.150,360.0,T,0.0,K,-0.00,M,*70
$GPGGA,214247.000,4910.31468,N,12304.13950,W,1,09,0.8,057.15,M,-16.8,M,,*53
$GPRMC,214247.000,A,4910.31468,N,12304.13950,W,0.0,0.0,230419,,,A*79
$GNGSA,A,3,19,12,06,24,15,17,28,,,,,,1.4,0.8,1.1*22
$GNGSA,A,3,79,78,,,,,,,,,,,1.4,0.8,1.1*20
$PSIWMPVT,60.230,250985.000,3,49.1719114,-123.0689916,57.152,-0.011,-0.009,-0.015,7.071,5.339,25.488,1.000,0.707,0.791,33.393,0.102,9,*2D
$PSIWMMPU,60.250,-0.50866,-0.13781,-10.04165,-0.51270,-0.25024,-0.27161,*32
$PSIWMMPU,60.450,-0.49000,-0.15313,-9.99715,-0.62561,-0.43030,-0.27161,*02
$PSIWMMPU,60.650,-0.48234,-0.16078,-10.06462,-0.59204,0.00000,-0.25940,*18
$PSIWMMPU,60.850,-0.48569,-0.12729,-10.06653,-0.59509,0.02136,-0.25024,*19
$PSIWMMPU,61.050,-0.44406,-0.15600,-9.99811,-0.52185,-0.32043,-0.22583,*06
$PSIWMPOS,000101.150,4910.31468,N,12304.13950,W,12.00,57.15,M,8.49,0,8,0,2,0,*64
$PSIWMATT,000101.150,360.0,T,-3.0,0.9,180.0,*58
$PSIWMVEL,000101.150,360.0,T,0.0,K,-0.00,M,*71
$GPGGA,214248.000,4910.31427,N,12304.13846,W,1,08,0.8,055.17,M,-16.8,M,,*50
$GPRMC,214248.000,A,4910.31427,N,12304.13846,W,0.0,0.0,230419,,,A*7B
$GNGSA,A,3,19,12,06,24,15,17,28,,,,,,1.4,0.8,1.1*22
$GNGSA,A,3,78,,,,,,,,,,,,1.4,0.8,1.1*2E
$PSIWMPVT,61.230,250986.000,3,49.1719046,-123.0689744,55.168,-0.006,-0.009,-0.016,7.000,5.148,28.719,1.000,0.500,0.707,34.357,0.016,8,*2A
$PSIWMMPU,61.250,-0.49813,-0.13829,-10.04022,-0.21667,-0.70190,-0.34180,*30
$PSIWMMPU,61.450,-0.48617,-0.05886,-10.11008,-2.42920,0.43335,-0.06714,*12
$PSIWMMPU,61.650,-0.51919,-0.15791,-9.99045,-0.12817,-0.18311,-0.24719,*0A
$PSIWMMPU,61.850,-0.24500,-0.29237,-10.10290,-1.09253,0.04578,0.66528,*34
$PSIWMMPU,62.050,-0.44598,-0.14260,-9.92585,-0.37231,-0.32959,2.35596,*2B
$PSIWMPOS,000102.150,4910.31427,N,12304.13846,W,11.88,55.17,M,8.40,0,8,0,2,0,*60
$PSIWMATT,000102.150,360.0,T,-3.1,0.8,180.0,*5B
$PSIWMVEL,000102.150,360.0,T,0.0,K,-0.00,M,*72
$GPGGA,214249.000,4910.31386,N,12304.13754,W,1,08,0.8,053.26,M,-16.8,M,,*55
$GPRMC,214249.000,A,4910.31386,N,12304.13754,W,0.0,0.0,230419,,,A*7A
$GNGSA,A,3,19,12,06,24,15,17,28,,,,,,1.4,0.8,1.1*22
$GNGSA,A,3,78,,,,,,,,,,,,1.4,0.8,1.1*2E
$PSIWMPVT,62.230,250986.999,3,49.1718976,-123.0689589,53.256,0.004,-0.004,-0.016,6.928,5.000,29.523,0.935,0.500,0.707,35.319,0.016,8,*02
$PSIWMMPU,62.250,-0.45650,0.00670,-9.99523,-0.09460,-0.43335,0.06409,*09
$PSIWMMPU,62.450,-0.51058,-0.12154,-10.03830,-1.29395,0.59814,-0.08240,*17
$PSIWMMPU,62.650,-0.45650,-0.12298,-10.12252,-0.95215,1.26038,-0.12207,*1B
$PSIWMMPU,62.850,-0.40482,-0.14930,-9.81244,0.83923,-5.15137,-0.27771,*26
$PSIWMMPU,63.050,-0.58427,-0.13542,-9.99284,-0.33569,-0.46692,-0.39673,*01
$PSIWMPOS,000103.150,4910.31386,N,12304.13754,W,11.76,53.26,M,8.31,0,8,0,2,0,*62
$PSIWMATT,000103.150,360.0,T,-3.7,1.1,180.0,*54
$PSIWMVEL,000103.150,360.0,T,0.0,K,-0.00,M,*73
$GPGGA,214250.000,4910.31376,N,12304.13736,W,1,08,0.8,051.16,M,-16.8,M,,*57
$GPRMC,214250.000,A,4910.31376,N,12304.13736,W,0.0,0.0,230419,,,A*79
$GNGSA,A,3,19,12,06,24,15,17,28,,,,,,1.4,0.8,1.1*22
$GNGSA,A,3,78,,,,,,,,,,,,1.4,0.8,1.1*2E
$PSIWMPVT,63.230,250987.999,3,49.1718960,-123.0689560,51.162,0.013,-0.013,-0.012,6.819,4.848,30.336,0.935,0.500,0.707,36.292,0.016,8,*0D
$PSIWMMPU,63.250,-0.52254,-0.16604,-10.01772,-0.72937,0.63782,-0.20752,*18
$PSIWMMPU,63.450,-0.56561,-0.19141,-9.96987,-0.35095,-0.42419,-0.25940,*05
$PSIWMMPU,63.650,-0.51201,-0.12729,-10.07802,-0.73242,1.25427,-0.13428,*12
$PSIWMMPU,63.850,-0.34549,-0.13829,-10.21774,-0.89111,1.63269,-0.21667,*16
$PSIWMMPU,64.050,-0.41918,-0.12154,-10.12204,-0.52795,-1.16577,-0.32349,*33
$PSIWMPOS,000104.150,4910.31376,N,12304.13736,W,11.57,51.16,M,8.18,0,8,0,2,0,*67
$PSIWMATT,000104.150,360.0,T,-2.9,0.9,180.0,*55
$PSIWMVEL,000104.150,360.0,T,0.0,K,-0.00,M,*74
$GPGGA,214251.000,4910.31364,N,12304.13687,W,1,08,0.8,050.10,M,-16.8,M,,*59
$GPRMC,214251.000,A,4910.31364,N,12304.13687,W,0.0,0.0,230419,,,A*70
$GNGSA,A,3,19,12,06,24,15,17,28,,,,,,1.4,0.8,1.1*22
$GNGSA,A,3,78,,,,,,,,,,,,1.4,0.8,1.1*2E
$PSIWMPVT,64.240,250989.000,3,49.1718941,-123.0689479,50.099,-0.013,-0.010,-0.014,6.782,4.848,30.484,0.935,0.500,0.707,36.469,0.016,8,*2D
$PSIWMMPU,64.250,-0.41774,-0.13733,-9.95695,-0.50964,-0.53101,-0.27771,*04
$PSIWMMPU,64.450,-0.39143,-0.15456,-9.93111,-0.38147,-0.10376,-0.26245,*05
$PSIWMMPU,64.650,-0.37324,-0.10767,-10.01725,-0.53101,-0.04578,-0.27771,*3D
$PSIWMMPU,64.850,-0.42731,-0.12537,-10.08137,-0.53101,-0.26550,-0.25635,*31
$PSIWMMPU,65.050,-0.38951,-0.14212,-10.04309,-0.49438,-0.31433,-0.31128,*30
$PSIWMPOS,000105.150,4910.31364,N,12304.13687,W,11.51,50.10,M,8.14,0,8,0,2,0,*63
$PSIWMATT,000105.150,360.0,T,-2.9,0.8,180.0,*55
$PSIWMVEL,000105.150,360.0,T,0.0,K,-0.00,M,*75
$GPGGA,214252.000,4910.31358,N,12304.13660,W,1,07,0.8,049.12,M,-16.8,M,,*59
$GPRMC,214252.000,A,4910.31358,N,12304.13660,W,0.0,0.0,230419,,,A*75
$GNGSA,A,3,19,06,24,15,17,28,,,,,,,1.4,0.8,1.1*21
$GNGSA,A,3,78,,,,,,,,,,,,1.4,0.8,1.1*2E
$PSIWMPVT,65.240,250990.000,3,49.1718930,-123.0689433,49.118,-0.013,0.002,-0.016,6.745,4.848,30.160,0.935,0.707,0.791,36.080,0.016,7,*02
$PSIWMMPU,65.250,-0.43162,-0.14308,-10.04739,-0.49744,-0.35095,-0.28076,*3D
$PSIWMMPU,65.450,-0.39334,-0.13303,-10.02586,-0.25635,-0.19836,-0.28381,*32
$PSIWMMPU,65.650,-0.39956,-0.12394,-10.01868,-0.46997,-0.25330,-0.25635,*38
$PSIWMMPU,65.850,-0.41822,-0.12106,-10.02634,-0.52185,-0.31738,-0.23499,*33
$PSIWMMPU,66.050,-0.41822,-0.14164,-10.02251,-0.47913,-0.32654,-0.26855,*3F
$PSIWMPOS,000106.150,4910.31358,N,12304.13660,W,11.45,49.12,M,8.09,0,8,0,2,0,*65
$PSIWMATT,000106.150,360.0,T,-3.0,0.9,180.0,*5F
$PSIWMVEL,000106.150,360.0,T,0.0,K,-0.00,M,*76
$GPGGA,214253.000,4910.31336,N,12304.13635,W,1,08,0.8,048.24,M,-16.8,M,,*5B
$GPRMC,214253.000,A,4910.31336,N,12304.13635,W,0.0,0.0,230419,,,A*7C
$GNGSA,A,3,19,12,06,24,15,17,28,,,,,,1.4,0.8,1.1*22
$GNGSA,A,3,78,,,,,,,,,,,,1.4,0.8,1.1*2E
$PSIWMPVT,66.230,250991.000,3,49.1718893,-123.0689392,48.238,0.003,0.002,-0.015,6.708,4.848,28.754,0.866,0.707,0.791,34.401,0.008,8,*25
$PSIWMMPU,66.250,-0.41009,-0.11437,-10.02586,-0.48523,-0.30212,-0.24414,*38
$PSIWMMPU,66.450,-0.41057,-0.19715,-10.01485,-0.51880,-0.25940,-0.25940,*36
$PSIWMMPU,66.650,-0.39860,-0.12824,-10.06271,-0.45471,-0.32654,-0.29602,*35
$PSIWMMPU,66.850,-0.37994,-0.14212,-10.04069,-0.48523,-0.31738,-0.27771,*37
$PSIWMMPU,67.050,-0.40435,-0.11245,-10.03974,-0.44556,-0.38452,-0.28687,*32
$PSIWMPOS,000107.150,4910.31336,N,12304.13635,W,11.38,48.24,M,8.05,0,8,0,2,0,*6E
$PSIWMATT,000107.150,360.0,T,-3.0,0.9,180.0,*5E
$PSIWMVEL,000107.150,360.0,T,0.0,K,-0.00,M,*77
$GPGGA,214254.000,4910.31329,N,12304.13602,W,1,08,0.8,047.42,M,-16.8,M,,*59
$GPRMC,214254.000,A,4910.31329,N,12304.13602,W,0.1,0.0,230419,,,A*70
$GNGSA,A,3,19,12,06,24,15,17,28,,,,,,1.4,0.8,1.1*22
$GNGSA,A,3,78,,,,,,,,,,,,1.4,0.8,1.1*2E
$PSIWMPVT,67.230,250991.999,3,49.1718882,-123.0689336,47.419,-0.002,-0.030,-0.014,6.633,4.899,27.539,0.866,0.707,0.791,32.945,0.020,8,*2A
$PSIWMMPU,67.250,-0.38855,-0.15265,-10.02538,-0.47302,-0.25940,-0.23499,*36
$PSIWMMPU,67.450,-0.40387,-0.10049,-10.05744,-0.45471,-0.33569,-0.29297,*3F
$PSIWMMPU,67.650,-0.39190,-0.11963,-10.06271,-0.46997,-0.52795,-0.18311,*3A
$PSIWMMPU,67.850,-0.40913,-0.11389,-10.06127,-0.51270,-0.47913,-0.32043,*3B
$PSIWMMPU,68.050,-0.40770,-0.11676,-10.06175,-0.41809,-0.44556,-0.30212,*3A
$PSIWMPOS,000108.150,4910.31329,N,12304.13602,W,11.26,47.42,M,7.96,0,8,0,2,0,*6E
$PSIWMATT,000108.150,360.0,T,-3.0,0.9,180.0,*51
$PSIWMVEL,000108.150,360.0,T,0.0,K,-0.00,M,*78
$GPGGA,214255.000,4910.31326,N,12304.13574,W,1,08,0.8,047.03,M,-16.8,M,,*50
$GPRMC,214255.000,A,4910.31326,N,12304.13574,W,0.0,0.0,230419,,,A*7D
$GNGSA,A,3,19,12,06,24,15,17,28,,,,,,1.4,0.8,1.1*22
$GNGSA,A,3,78,,,,,,,,,,,,1.4,0.8,1.1*2E
$PSIWMPVT,68.230,250993.000,3,49.1718877,-123.0689289,47.028,0.008,-0.022,-0.010,6.557,4.899,27.070,0.866,0.707,0.791,32.388,0.023,8,*06
$PSIWMMPU,68.250,-0.43736,-0.14212,-10.00385,-0.54932,-0.30823,-0.27771,*36
$PSIWMMPU,68.450,-0.39238,-0.13063,-9.99667,-0.54626,-0.23804,-0.27466,*0C
$PSIWMMPU,68.650,-0.40578,-0.14068,-10.03782,-0.41199,-0.43640,-0.24109,*3E
$PSIWMMPU,68.850,-0.40435,-0.12011,-10.07323,-0.87585,0.00916,-0.24719,*19
$PSIWMMPU,69.050,-0.42444,-0.14308,-10.01964,-0.53711,-0.37537,-0.31433,*39
$PSIWMPOS,000109.150,4910.31326,N,12304.13574,W,11.13,47.03,M,7.87,0,8,0,2,0,*61
$PSIWMATT,000109.150,360.0,T,-3.1,0.9,180.0,*51
$PSIWMVEL,000109.150,360.0,T,0.0,K,-0.00,M,*79
$GPGGA,214256.000,4910.31317,N,12304.13562,W,1,08,0.8,047.51,M,-16.8,M,,*51
$GPRMC,214256.000,A,4910.31317,N,12304.13562,W,0.0,0.0,230419,,,A*7B
$GNGSA,A,3,19,12,06,24,15,17,28,,,,,,1.4,0.8,1.1*22
$GNGSA,A,3,78,,,,,,,,,,,,1.4,0.8,1.1*2E
$PSIWMPVT,69.240,250994.000,3,49.1718862,-123.0689269,47.512,0.006,0.008,-0.009,6.519,4.848,25.914,0.866,0.707,0.791,31.001,0.016,8,*2A
$PSIWMMPU,69.250,-0.37420,-0.11293,-9.99858,-0.49744,-0.39368,-0.23804,*08
$PSIWMMPU,69.450,-0.42109,-0.13398,-10.00815,-0.48828,-0.22583,-0.21973,*35
$PSIWMMPU,69.650,-0.38425,-0.11580,-10.08902,-0.52795,-0.34180,-0.28687,*3C
$PSIWMMPU,69.850,-0.39190,-0.12824,-10.00098,-0.51270,-0.28992,-0.25940,*38
$PSIWMMPU,70.050,-0.39860,-0.11532,-10.01533,-0.47913,-0.32654,-0.29297,*38
$PSIWMPOS,000110.150,4910.31317,N,12304.13562,W,11.06,47.51,M,7.82,0,8,0,2,0,*6A
$PSIWMATT,000110.150,360.0,T,-3.1,0.9,180.0,*59
$PSIWMVEL,000110.150,360.0,T,0.0,K,-0.00,M,*71
$GPGGA,214257.000,4910.31325,N,12304.13567,W,1,08,0.8,047.73,M,-16.8,M,,*54
$GPRMC,214257.000,A,4910.31325,N,12304.13567,W,0.1,0.0,230419,,,A*7F
$GNGSA,A,3,19,12,06,24,15,17,28,,,,,,1.4,0.8,1.1*22
$GNGSA,A,3,78,,,,,,,,,,,,1.4,0.8,1.1*2E
$PSIWMPVT,70.230,250995.000,3,49.1718875,-123.0689278,47.732,0.004,-0.027,-0.009,6.481,4.848,26.488,0.866,0.707,0.791,31.690,0.016,8,*05
$PSIWMMPU,70.250,-0.40291,-0.13159,-10.04644,-0.54626,-0.23193,-0.24109,*33
$PSIWMMPU,70.450,-0.42157,-0.12394,-10.02155,-0.46082,-0.35095,-0.34790,*31
$PSIWMMPU,70.650,-0.40817,-0.12298,-10.04117,-0.41504,-0.28992,-0.26855,*3A
$PSIWMMPU,70.850,-0.41057,-0.11341,-10.05122,-0.47302,-0.28076,-0.29907,*34
$PSIWMMPU,71.050,-0.40435,-0.11724,-10.06510,-0.37842,-0.23499,-0.25330,*39
$PSIWMPOS,000111.150,4910.31325,N,12304.13567,W,11.00,47.73,M,7.78,0,8,0,2,0,*6C
$PSIWMATT,000111.150,360.0,T,-3.1,0.9,180.0,*58
$PSIWMVEL,000111.150,360.0,T,0.0,K,-0.00,M,*70
$GPGGA,214258.000,4910.31344,N,12304.13589,W,1,08,0.8,047.74,M,-16.8,M,,*5B
$GPRMC,214258.000,A,4910.31344,N,12304.13589,W,0.1,0.0,230419,,,A*77
$GNGSA,A,3,19,12,06,24,15,17,28,,,,,,1.4,0.8,1.1*22
$GNGSA,A,3,78,,,,,,,,,,,,1.4,0.8,1.1*2E
$PSIWMPVT,71.230,250996.000,3,49.1718906,-123.0689315,47.742,0.019,-0.033,-0.006,6.442,4.743,25.246,0.866,0.707,0.791,30.206,0.020,8,*0A
$PSIWMMPU,71.250,-0.39573,-0.13207,-10.02155,-0.50964,-0.23804,-0.22583,*34
$PSIWMMPU,71.450,-0.37946,-0.11915,-10.01390,-0.47607,-0.30212,-0.22888,*31
$PSIWMMPU,71.650,-0.39238,-0.11580,-10.02251,-0.55542,-0.31738,-0.19531,*3A
$PSIWMMPU,71.850,-0.40626,-0.10671,-10.04548,-0.45471,-0.33264,-0.24109,*3B
$PSIWMMPU,72.050,-0.37851,-0.11915,-10.02012,-0.51270,-0.29907,-0.23499,*32
$PSIWMPOS,000112.150,4910.31344,N,12304.13589,W,10.93,47.74,M,7.73,0,8,0,2,0,*6F
$PSIWMATT,000112.150,360.0,T,-3.1,0.9,180.0,*5B
$PSIWMVEL,000112.150,360.0,T,0.0,K,-0.00,M,*73
$GPGGA,214259.000,4910.31367,N,12304.13613,W,1,08,0.8,048.14,M,-16.8,M,,*52
$GPRMC,214259.000,A,4910.31367,N,12304.13613,W,0.0,0.0,230419,,,A*76
$GNGSA,A,3,19,12,06,24,15,17,28,,,,,,1.4,0.8,1.1*22
$GNGSA,A,3,78,,,,,,,,,,,,1.4,0.8,1.1*2E
$PSIWMPVT,72.230,250997.000,3,49.1718945,-123.0689355,48.145,0.005,-0.009,-0.005,6.364,4.743,24.527,0.866,0.707,0.791,29.345,0.016,8,*0B
$PSIWMMPU,72.250,-0.40387,-0.11580,-10.02969,-0.50964,-0.35095,-0.23499,*35
$PSIWMMPU,72.450,-0.40291,-0.10097,-10.01390,-0.44556,-0.33264,-0.26550,*3B
$PSIWMMPU,72.650,-0.40674,-0.11006,-10.02395,-0.54321,-0.27771,-0.23193,*34
$PSIWMMPU,72.850,-0.39908,-0.11197,-10.04309,-0.45166,-0.32043,-0.28076,*38
$PSIWMMPU,73.050,-0.40339,-0.11532,-10.02730,-0.47913,-0.35400,-0.32654,*35
$PSIWMPOS,000113.150,4910.31367,N,12304.13613,W,10.80,48.14,M,7.64,0,8,0,2,0,*62
$PSIWMATT,000113.150,360.0,T,-3.2,0.9,180.0,*59
$PSIWMVEL,000113.150,360.0,T,0.0,K,-0.00,M,*72
$GPGGA,214300.000,4910.31385,N,12304.13611,W,1,08,0.8,048.61,M,-16.8,M,,*53
$GPRMC,214300.000,A,4910.31385,N,12304.13611,W,0.0,0.0,230419,,,A*75
$GNGSA,A,3,19,12,06,24,15,17,28,,,,,,1.4,0.8,1.1*22
$GNGSA,A,3,78,,,,,,,,,,,,1.4,0.8,1.1*2E
$PSIWMPVT,73.230,250998.000,3,49.1718974,-123.0689351,48.614,0.003,0.009,-0.007,6.364,4.690,24.426,0.866,0.707,0.791,29.222,0.012,8,*22
$PSIWMMPU,73.250,-0.38329,-0.10671,-10.04692,-0.57068,-0.26550,-0.27771,*33
$PSIWMMPU,73.450,-0.41727,-0.11628,-10.01150,-0.51270,-0.26550,-0.28687,*3A
$PSIWMMPU,73.650,-0.39956,-0.12011,-10.00815,-0.55847,-0.26855,-0.27771,*3C
$PSIWMMPU,73.850,-0.39573,-0.13446,-10.02203,-0.45166,-0.27161,-0.25940,*3B
$PSIWMMPU,74.050,-0.40052,-0.11724,-10.02442,-0.43030,-0.27466,-0.27466,*37
$PSIWMPOS,000114.150,4910.31385,N,12304.13611,W,10.80,48.61,M,7.64,0,8,0,2,0,*69
$PSIWMATT,000114.150,360.0,T,-3.2,0.9,180.0,*5E
$PSIWMVEL,000114.150,360.0,T,0.0,K,-0.00,M,*75
$GPGGA,214301.000,4910.31397,N,12304.13621,W,1,08,0.8,049.09,M,-16.8,M,,*5D
$GPRMC,214301.000,A,4910.31397,N,12304.13621,W,0.0,0.0,230419,,,A*74
$GNGSA,A,3,19,12,06,24,15,17,28,,,,,,1.4,0.8,1.1*22
$GNGSA,A,3,78,,,,,,,,,,,,1.4,0.8,1.1*2E
$PSIWMPVT,74.230,250999.000,3,49.1718995,-123.0689368,49.092,0.009,-0.011,-0.006,6.364,4.690,23.656,0.866,0.707,0.791,28.302,0.012,8,*07
$PSIWMMPU,74.250,-0.40626,-0.11102,-10.02155,-0.53406,-0.36926,-0.28687,*3A
$PSIWMMPU,74.450,-0.40339,-0.11676,-10.03782,-0.46997,-0.30212,-0.22583,*38
$PSIWMMPU,74.650,-0.39765,-0.12872,-10.02873,-0.48828,-0.32959,-0.29907,*36
$PSIWMMPU,74.850,-0.39813,-0.12106,-10.03926,-0.51270,-0.29602,-0.26550,*39
$PSIWMMPU,75.050,-0.40961,-0.13207,-10.03208,-0.55542,-0.30212,-0.23193,*3F
$PSIWMPOS,000115.150,4910.31397,N,12304.13621,W,10.80,49.09,M,7.64,0,8,0,2,0,*67
$PSIWMATT,000115.150,360.0,T,-3.1,0.9,180.0,*5C
$PSIWMVEL,000115.150,360.0,T,0.0,K,-0.00,M,*74
$GPGGA,214302.000,4910.31394,N,12304.13583,W,1,08,0.8,050.12,M,-16.8,M,,*54
$GPRMC,214302.000,A,4910.31394,N,12304.13583,W,0.0,0.0,230419,,,A*7F
$GNGSA,A,3,19,12,06,24,15,17,28,,,,,,1.4,0.8,1.1*22
$GNGSA,A,3,78,,,,,,,,,,,,1.4,0.8,1.1*2E
$PSIWMPVT,75.230,251000.000,3,49.1718990,-123.0689305,50.119,0.007,-0.014,-0.006,6.364,4.690,22.602,0.866,0.707,0.791,27.039,0.027,8,*03
$PSIWMMPU,75.250,-0.41296,-0.12729,-10.04117,-0.54626,-0.31433,-0.31128,*3A
$PSIWMMPU,75.450,-0.41152,-0.11437,-10.06127,-0.49744,-0.34180,-0.25940,*3B
$PSIWMMPU,75.650,-0.41392,-0.13207,-10.01246,-0.54626,-0.30212,-0.31738,*32
$PSIWMMPU,75.850,-0.40195,-0.12489,-10.03208,-0.50049,-0.24719,-0.35400,*3D
$PSIWMMPU,76.050,-0.41104,-0.13063,-10.03543,-0.47607,-0.29297,-0.21667,*34
$PSIWMPOS,000116.150,4910.31394,N,12304.13583,W,10.80,50.12,M,7.64,0,8,0,2,0,*6E
$PSIWMATT,000116.150,360.0,T,-3.1,0.9,180.0,*5F
$PSIWMVEL,000116.150,360.0,T,0.0,K,-0.00,M,*77
$GPGGA,214303.000,4910.31402,N,12304.13557,W,1,08,0.8,050.98,M,-16.8,M,,*56
$GPRMC,214303.000,A,4910.31402,N,12304.13557,W,0.0,0.0,230419,,,A*7F
$GNGSA,A,3,19,12,06,24,15,17,28,,,,,,1.4,0.8,1.1*22
$GNGSA,A,3,78,,,,,,,,,,,,1.4,0.8,1.1*2E
$PSIWMPVT,76.230,251001.000,3,49.1719004,-123.0689261,50.982,0.009,-0.023,-0.005,6.364,4.743,23.723,0.866,0.707,0.791,28.381,0.012,8,*01
$PSIWMMPU,76.250,-0.40147,-0.11389,-10.05840,-0.52185,-0.28381,-0.25330,*30
$PSIWMMPU,76.450,-0.40100,-0.11771,-10.03352,-0.50049,-0.28076,-0.27161,*34
$PSIWMMPU,76.650,-0.39765,-0.11819,-10.02730,-0.47913,-0.28076,-0.30212,*3C
$PSIWMMPU,76.850,-0.40339,-0.11676,-10.00863,-0.54626,-0.36621,-0.25330,*38
$PSIWMMPU,77.050,-0.37229,-0.12824,-10.02730,-0.39368,-0.33264,-0.26245,*34
$PSIWMPOS,000117.150,4910.31402,N,12304.13557,W,10.80,50.98,M,7.64,0,8,0,2,0,*6C
$PSIWMATT,000117.150,360.0,T,-3.1,0.9,180.0,*5E
$PSIWMVEL,000117.150,360.0,T,0.0,K,-0.00,M,*76
$GPGGA,214304.000,4910.31403,N,12304.13535,W,1,08,0.8,051.60,M,-16.8,M,,*52
$GPRMC,214304.000,A,4910.31403,N,12304.13535,W,0.1,0.0,230419,,,A*7C
$GNGSA,A,3,19,12,06,24,15,17,28,,,,,,1.4,0.8,1.1*22
$GNGSA,A,3,78,,,,,,,,,,,,1.4,0.8,1.1*2E
$PSIWMPVT,77.230,251002.000,3,49.1719005,-123.0689224,51.599,0.011,-0.031,-0.004,6.364,4.743,24.008,0.866,0.707,0.791,28.724,0.023,8,*0F
$PSIWMMPU,77.250,-0.39525,-0.12394,-10.03782,-0.44250,-0.29907,-0.24109,*37
$PSIWMMPU,77.450,-0.39908,-0.12920,-10.00433,-0.39368,-0.31128,-0.26855,*33
$PSIWMMPU,77.650,-0.39573,-0.12585,-10.02634,-0.61035,-0.30518,-0.28076,*32
$PSIWMMPU,77.850,-0.41057,-0.11484,-10.02347,-0.54932,-0.29602,-0.25330,*36
$PSIWMMPU,78.050,-0.39382,-0.12059,-10.01916,-0.54932,-0.30518,-0.25940,*32
$PSIWMPOS,000118.150,4910.31403,N,12304.13535,W,10.80,51.60,M,7.64,0,8,0,2,0,*60
$PSIWMATT,000118.150,360.0,T,-3.1,0.9,180.0,*51
$PSIWMVEL,000118.150,360.0,T,0.0,K,-0.00,M,*79
$GPGGA,214305.000,4910.31396,N,12304.13544,W,1,08,0.8,053.25,M,-16.8,M,,*5D
$GPRMC,214305.000,A,4910.31396,N,12304.13544,W,0.0,0.0,230419,,,A*71
$GNGSA,A,3,19,12,06,24,15,17,28,,,,,,1.4,0.8,1.1*22
$GNGSA,A,3,78,,,,,,,,,,,,1.4,0.8,1.1*2E
$PSIWMPVT,78.230,251002.999,3,49.1718993,-123.0689239,53.252,0.017,-0.017,-0.001,6.364,4.743,24.090,0.866,0.707,0.791,28.821,0.012,8,*0E
$PSIWMMPU,78.250,-0.39382,-0.12776,-10.03639,-0.41199,-0.28687,-0.24109,*3F
$PSIWMMPU,78.450,-0.38951,-0.13351,-10.05122,-0.40894,-0.25635,-0.22583,*36
$PSIWMMPU,78.650,-0.37851,-0.13638,-10.02347,-0.48218,-0.25940,-0.29602,*3C
$PSIWMMPU,78.850,-0.40961,-0.11149,-9.99428,-0.57983,-0.25940,-0.27466,*0E
$PSIWMMPU,79.050,-0.39573,-0.12776,-10.03065,-0.50049,-0.27771,-0.25024,*3F
$PSIWMPOS,000119.150,4910.31396,N,12304.13544,W,10.80,53.25,M,7.64,0,8,0,2,0,*6F
$PSIWMATT,000119.150,360.0,T,-3.0,0.9,180.0,*51
$PSIWMVEL,000119.150,360.0,T,0.0,K,-0.00,M,*78
$GPGGA,214306.000,4910.31399,N,12304.13567,W,1,08,0.8,055.19,M,-16.8,M,,*59
$GPRMC,214306.000,A,4910.31399,N,12304.13567,W,0.0,0.0,230419,,,A*7C
$GNGSA,A,3,19,12,06,24,15,17,28,,,,,,1.4,0.8,1.1*22
$GNGSA,A,3,78,,,,,,,,,,,,1.4,0.8,1.1*2E
$PSIWMPVT,79.230,251003.999,3,49.1718998,-123.0689278,55.191,0.003,-0.013,-0.002,6.364,4.796,22.297,0.866,0.707,0.791,26.675,0.031,8,*03
$PSIWMMPU,79.250,-0.41104,-0.14068,-10.04309,-0.45776,-0.39673,-0.28992,*3C
$PSIWMMPU,79.450,-0.37946,-0.10862,-10.03352,-0.54626,-0.29907,-0.26245,*3C
$PSIWMMPU,79.650,-0.39765,-0.11819,-10.02730,-0.51270,-0.22583,-0.26245,*3A
$PSIWMMPU,79.850,-0.38664,-0.14978,-10.04022,-0.51575,-0.35095,-0.29297,*32
$PSIWMMPU,80.050,-0.38329,-0.10527,-10.00720,-0.52185,-0.37231,-0.22278,*3F
$PSIWMPOS,000120.150,4910.31399,N,12304.13567,W,10.80,55.19,M,7.64,0,8,0,2,0,*62
$PSIWMATT,000120.150,360.0,T,-3.0,0.9,180.0,*5B
$PSIWMVEL,000120.150,360.0,T,0.0,K,-0.00,M,*72
$GPGGA,214307.000,4910.31408,N,12304.13582,W,1,08,0.8,057.32,M,-16.8,M,,*57
$GPRMC,214307.000,A,4910.31408,N,12304.13582,W,0.0,0.0,230419,,,A*79
$GNGSA,A,3,19,12,06,24,15,17,28,,,,,,1.4,0.8,1.1*22
$GNGSA,A,3,78,,,,,,,,,,,,1.4,0.8,1.1*2E
$PSIWMPVT,80.230,251004.999,3,49.1719013,-123.0689303,57.315,-0.005,-0.020,-0.004,6.325,4.848,21.195,0.866,0.866,0.866,25.356,0.016,8,*23
$PSIWMMPU,80.250,-0.40530,-0.12298,-10.03256,-0.53101,-0.35095,-0.24414,*33
$PSIWMMPU,80.450,-0.38186,-0.14068,-10.01246,-0.52185,-0.28992,-0.34180,*3D
$PSIWMMPU,80.650,-0.39143,-0.11245,-10.02921,-0.54626,-0.27161,-0.31433,*3D
$PSIWMMPU,80.850,-0.41296,-0.13016,-10.01820,-0.47913,-0.28687,-0.31128,*36
$PSIWMMPU,81.050,-0.41822,-0.12106,-10.04022,-0.47302,-0.31433,-0.25330,*35
$PSIWMPOS,000121.150,4910.31408,N,12304.13582,W,10.73,57.32,M,7.59,0,8,0,2,0,*6E
$PSIWMATT,000121.150,360.0,T,-3.0,0.8,180.0,*5B
$PSIWMVEL,000121.150,360.0,T,0.0,K,-0.00,M,*73
$GPGGA,214308.000,4910.31398,N,12304.13586,W,1,08,0.8,058.66,M,-16.8,M,,*5C
$GPRMC,214308.000,A,4910.31398,N,12304.13586,W,0.0,0.0,230419,,,A*7C
$GNGSA,A,3,19,12,06,24,15,17,28,,,,,,1.4,0.8,1.1*22
$GNGSA,A,3,78,,,,,,,,,,,,1.4,0.8,1.1*2E
$PSIWMPVT,81.230,251005.999,3,49.1718997,-123.0689311,58.658,-0.007,-0.023,-0.005,6.325,4.848,23.133,0.866,0.866,0.866,27.677,0.016,8,*2D
$PSIWMMPU,81.250,-0.41104,-0.12729,-10.03352,-0.50049,-0.35706,-0.27771,*3A
$PSIWMMPU,81.450,-0.40291,-0.12250,-10.00050,-0.51575,-0.36316,-0.29297,*35
$PSIWMMPU,81.650,-0.38568,-0.11580,-10.01055,-0.52490,-0.33569,-0.28687,*32
$PSIWMMPU,81.850,-0.39095,-0.12729,-10.01055,-0.50964,-0.29907,-0.26245,*37
$PSIWMMPU,82.050,-0.40052,-0.12872,-10.03543,-0.53406,-0.30823,-0.21362,*3E
$PSIWMPOS,000122.150,4910.31398,N,12304.13586,W,10.73,58.66,M,7.59,0,8,0,2,0,*69
$PSIWMATT,000122.150,360.0,T,-3.0,0.8,180.0,*58
$PSIWMVEL,000122.150,360.0,T,0.0,K,-0.00,M,*70
$GPGGA,214309.000,4910.31415,N,12304.13630,W,1,08,0.8,060.06,M,-16.8,M,,*5C
$GPRMC,214309.000,A,4910.31415,N,12304.13630,W,0.0,0.0,230419,,,A*71
$GNGSA,A,3,19,12,06,15,17,28,,,,,,,1.4,0.8,1.1*24
$GNGSA,A,3,79,78,,,,,,,,,,,1.4,0.8,1.1*20
$PSIWMPVT,82.230,251006.999,3,49.1719026,-123.0689384,60.061,0.001,-0.019,-0.004,6.364,5.099,25.000,0.935,1.696,1.323,29.908,0.020,8,*00
$PSIWMMPU,82.250,-0.41344,-0.10240,-10.02682,-0.47913,-0.28076,-0.27466,*37
$PSIWMMPU,82.450,-0.42062,-0.09618,-9.99715,-0.45166,-0.33875,-0.24719,*00
$PSIWMMPU,82.650,-0.38664,-0.14690,-10.02969,-0.53101,-0.27466,-0.25940,*32
$PSIWMMPU,82.850,-0.37898,-0.13781,-10.04404,-0.52795,-0.27771,-0.25635,*3A
$PSIWMMPU,83.050,-0.41487,-0.12585,-10.03160,-0.50964,-0.29297,-0.26550,*35
$PSIWMPOS,000123.150,4910.31415,N,12304.13630,W,10.80,60.06,M,7.64,0,8,0,2,0,*6B
$PSIWMATT,000123.150,360.0,T,-3.0,0.8,180.0,*59
$PSIWMVEL,000123.150,360.0,T,0.0,K,-0.00,M,*71
$GPGGA,214310.000,4910.31399,N,12304.13639,W,1,08,0.8,061.62,M,-16.8,M,,*5D
$GPRMC,214310.000,A,4910.31399,N,12304.13639,W,0.1,0.0,230419,,,A*72
$GNGSA,A,3,19,12,06,24,15,17,28,,,,,,1.4,0.8,1.1*22
$GNGSA,A,3,78,,,,,,,,,,,,1.4,0.8,1.1*2E
$PSIWMPVT,83.230,251008.000,3,49.1718998,-123.0689399,61.622,0.020,-0.019,-0.002,6.364,5.050,24.410,0.866,0.866,0.866,29.202,0.020,8,*0E
$PSIWMMPU,83.250,-0.38855,-0.13255,-10.02442,-0.50659,-0.27466,-0.26855,*3A
$PSIWMMPU,83.450,-0.39813,-0.13063,-10.00959,-0.44556,-0.40894,-0.25635,*3F
$PSIWMMPU,83.650,-0.39095,-0.10910,-10.03447,-0.53406,-0.34790,-0.25635,*3E
$PSIWMMPU,83.850,-0.41344,-0.11102,-10.05266,-0.55542,-0.40588,-0.28687,*32
$PSIWMMPU,84.050,-0.42923,-0.09714,-10.02490,-0.42114,-0.29907,-0.25635,*34
$PSIWMPOS,000124.150,4910.31399,N,12304.13639,W,10.80,61.62,M,7.64,0,8,0,2,0,*65
$PSIWMATT,000124.150,360.0,T,-2.9,0.8,180.0,*56
$PSIWMVEL,000124.150,360.0,T,0.0,K,-0.00,M,*76
$GPGGA,214311.000,4910.31419,N,12304.13683,W,1,08,0.8,063.28,M,-16.8,M,,*5E
$GPRMC,214311.000,A,4910.31419,N,12304.13683,W,0.0,0.0,230419,,,A*7C
$GNGSA,A,3,19,12,06,15,17,28,,,,,,,1.4,0.8,1.1*24
$GNGSA,A,3,79,78,,,,,,,,,,,1.4,0.8,1.1*20
$PSIWMPVT,84.230,251008.999,3,49.1719031,-123.0689471,63.280,0.012,-0.013,-0.002,6.403,5.244,25.059,0.935,1.696,1.323,29.978,0.016,8,*09
$PSIWMMPU,84.250,-0.42779,-0.09666,-10.06223,-0.53101,-0.23193,-0.23193,*3F
$PSIWMMPU,84.450,-0.38186,-0.11867,-10.05074,-0.51880,-0.27466,-0.23499,*31
$PSIWMMPU,84.650,-0.44311,-0.08422,-10.02442,-0.52795,-0.28687,-0.28992,*30
$PSIWMMPU,84.850,-0.39860,-0.11532,-10.04309,-0.56458,-0.28076,-0.24719,*30
$PSIWMMPU,85.050,-0.45076,-0.09283,-10.03304,-0.57373,-0.36621,-0.24109,*30
$PSIWMPOS,000125.150,4910.31419,N,12304.13683,W,10.87,63.28,M,7.68,0,8,0,2,0,*6D
$PSIWMATT,000125.150,360.0,T,-2.9,0.8,180.0,*57
$PSIWMVEL,000125.150,360.0,T,0.0,K,-0.00,M,*77
$GPGGA,214312.000,4910.31388,N,12304.13675,W,1,08,0.8,065.58,M,-16.8,M,,*5A
$GPRMC,214312.000,A,4910.31388,N,12304.13675,W,0.0,0.0,230419,,,A*79
$GNGSA,A,3,19,12,06,24,15,17,28,,,,,,1.4,0.8,1.1*22
$GNGSA,A,3,78,,,,,,,,,,,,1.4,0.8,1.1*2E
$PSIWMPVT,85.230,251009.999,3,49.1718980,-123.0689458,65.577,0.007,-0.017,-0.002,6.442,5.196,23.727,0.866,0.866,0.866,28.387,0.031,8,*0A
$PSIWMMPU,85.250,-0.36750,-0.13063,-9.99906,-0.48828,-0.31433,-0.25330,*05
$PSIWMMPU,85.450,-0.42396,-0.15313,-10.04309,-0.46692,-0.34180,-0.21667,*3F
$PSIWMMPU,85.650,-0.35602,-0.14164,-10.01820,-0.52490,-0.33875,-0.23193,*3C
$PSIWMMPU,85.850,-0.43688,-0.12920,-10.04021,-0.51575,-0.15564,-0.25635,*3E
$PSIWMMPU,86.050,-0.36941,-0.11676,-9.98471,-0.43945,-0.35706,-0.29907,*04
$PSIWMPOS,000126.150,4910.31388,N,12304.13675,W,10.93,65.58,M,7.73,0,8,0,2,0,*66
$PSIWMATT,000126.150,360.0,T,-2.9,0.8,180.0,*54
$PSIWMVEL,000126.150,360.0,T,0.0,K,-0.00,M,*74
$GPGGA,214313.000,4910.31383,N,12304.13752,W,1,08,0.8,067.63,M,-16.8,M,,*5E
$GPRMC,214313.000,A,4910.31383,N,12304.13752,W,0.1,0.0,230419,,,A*76
$GNGSA,A,3,19,12,06,15,17,28,,,,,,,1.4,0.8,1.1*24
$GNGSA,A,3,79,78,,,,,,,,,,,1.4,0.8,1.1*20
$PSIWMPVT,86.230,251010.999,3,49.1718971,-123.0689586,67.635,-0.017,-0.042,-0.003,6.481,5.385,23.586,1.000,1.696,1.369,28.216,0.020,8,*24
$PSIWMMPU,86.250,-0.42588,-0.10384,-10.00768,-0.55542,-0.34180,-0.25330,*30
$PSIWMMPU,86.450,-0.40243,-0.10814,-10.05361,-0.42419,-0.39062,-0.27771,*34
$PSIWMMPU,86.650,-0.35506,-0.13542,-10.08232,-0.51880,-0.29602,-0.30823,*34
$PSIWMMPU,86.850,-0.43306,-0.14260,-9.99858,-0.46082,-0.42725,-0.24109,*0A
$PSIWMMPU,87.050,-0.38090,-0.12681,-10.06127,-0.47913,-0.30823,-0.27771,*37
$PSIWMPOS,000127.150,4910.31383,N,12304.13752,W,11.00,67.63,M,7.78,0,8,0,2,0,*62
$PSIWMATT,000127.150,360.0,T,-2.9,0.8,180.0,*55
$PSIWMVEL,000127.150,360.0,T,0.0,K,-0.00,M,*75
$GPGGA,214314.000,4910.31343,N,12304.13783,W,1,08,0.8,069.35,M,-16.8,M,,*54
$GPRMC,214314.000,A,4910.31343,N,12304.13783,W,0.1,0.0,230419,,,A*71
$GNGSA,A,3,19,12,06,24,15,17,28,,,,,,1.4,0.8,1.1*22
$GNGSA,A,3,78,,,,,,,,,,,,1.4,0.8,1.1*2E
$PSIWMPVT,87.230,251012.000,3,49.1718906,-123.0689638,69.346,0.022,-0.057,0.003,6.481,5.292,22.488,0.935,0.866,0.866,26.903,0.027,8,*21
$PSIWMMPU,87.250,-0.42205,-0.14738,-9.99906,-0.50354,-0.30212,-0.23804,*08
$PSIWMMPU,87.450,-0.36798,-0.13877,-10.00624,-0.50049,-0.29602,-0.25330,*30
$PSIWMMPU,87.650,-0.39956,-0.10862,-10.03256,-0.52185,-0.36316,-0.31433,*38
$PSIWMMPU,87.850,-0.39238,-0.12250,-10.04022,-0.42419,-0.37231,-0.29602,*37
$PSIWMMPU,88.050,-0.39621,-0.10958,-10.03399,-0.46082,-0.31128,-0.24109,*37
$PSIWMPOS,000128.150,4910.31343,N,12304.13783,W,11.00,69.35,M,7.78,0,8,0,2,0,*60
$PSIWMATT,000128.150,360.0,T,-2.8,0.8,180.0,*5B
$PSIWMVEL,000128.150,360.0,T,0.0,K,-0.00,M,*7A
$GPGGA,214315.000,4910.31340,N,12304.13888,W,1,08,0.8,071.08,M,-16.8,M,,*55
$GPRMC,214315.000,A,4910.31340,N,12304.13888,W,0.1,0.0,230419,,,A*77
$GNGSA,A,3,19,12,06,15,17,28,,,,,,,1.4,0.8,1.1*24
$GNGSA,A,3,79,78,,,,,,,,,,,1.4,0.8,1.1*20
$PSIWMPVT,88.230,251012.999,3,49.1718900,-123.0689814,71.075,0.012,-0.029,0.003,6.519,5.431,20.551,1.000,1.696,1.369,24.585,0.023,8,*26
$PSIWMMPU,88.250,-0.41152,-0.12729,-10.01150,-0.52185,-0.31738,-0.25330,*3B
$PSIWMMPU,88.450,-0.39956,-0.13207,-10.01150,-0.48218,-0.29602,-0.25635,*3B
$PSIWMMPU,88.650,-0.39525,-0.12250,-10.03687,-0.52490,-0.31128,-0.24109,*3F
$PSIWMMPU,88.850,-0.40530,-0.14978,-10.11821,-0.29602,-1.00403,-0.32654,*3F
$PSIWMMPU,89.050,-0.47660,-0.10336,-10.47088,-0.96130,-0.65002,-0.28381,*38
$PSIWMPOS,000129.150,4910.31340,N,12304.13888,W,11.06,71.08,M,7.82,0,8,0,2,0,*62
$PSIWMATT,000129.150,360.0,T,-3.2,1.0,180.0,*58
$PSIWMVEL,000129.150,360.0,T,0.0,K,-0.00,M,*7B
$GPGGA,214316.000,4910.31291,N,12304.13901,W,1,08,0.8,072.46,M,-16.8,M,,*52
$GPRMC,214316.000,A,4910.31291,N,12304.13901,W,0.0,0.0,230419,,,A*78
$GNGSA,A,3,19,12,06,24,15,17,28,,,,,,1.4,0.8,1.1*22
$GNGSA,A,3,78,,,,,,,,,,,,1.4,0.8,1.1*2E
$PSIWMPVT,89.230,251013.999,3,49.1718819,-123.0689834,72.456,0.017,-0.018,0.003,6.557,5.339,19.129,0.866,0.707,0.791,22.885,0.023,8,*20
$PSIWMMPU,89.250,-0.44885,-0.16604,-10.06749,-0.20142,-1.02539,-0.25330,*33
$PSIWMMPU,89.450,-0.47947,-0.17514,-9.98375,-0.70801,-0.24109,-0.25940,*0A
$PSIWMMPU,89.650,-0.43401,-0.15217,-10.11391,-0.31738,-0.40894,-0.29602,*3C
$PSIWMMPU,89.850,-0.45220,-0.18136,-10.25076,-0.79346,-0.14954,-0.27771,*37
$PSIWMMPU,90.050,-0.44789,-0.17418,-10.05983,-0.51575,-0.27466,-0.34790,*3A
$PSIWMPOS,000130.150,4910.31291,N,12304.13901,W,11.13,72.46,M,7.87,0,8,0,2,0,*6F
$PSIWMATT,000130.150,360.0,T,-3.3,1.0,180.0,*51
$PSIWMVEL,000130.150,360.0,T,0.0,K,-0.00,M,*73
$GPGGA,214317.000,4910.31230,N,12304.13934,W,1,08,0.8,073.91,M,-16.8,M,,*55
$GPRMC,214317.000,A,4910.31230,N,12304.13934,W,0.0,0.0,230419,,,A*74
$GNGSA,A,3,19,12,06,24,15,17,28,,,,,,1.4,0.8,1.1*22
$GNGSA,A,3,78,,,,,,,,,,,,1.4,0.8,1.1*2E
$PSIWMPVT,90.230,251014.999,3,49.1718717,-123.0689890,73.913,0.014,0.021,0.001,6.595,5.292,18.828,0.866,0.707,0.791,22.524,0.012,8,*08
$PSIWMMPU,90.250,-0.47517,-0.17131,-10.04261,-0.44556,-0.41809,-0.23804,*32
$PSIWMMPU,90.450,-0.43497,-0.19571,-10.05266,-0.56458,-0.01526,0.07324,*1B
$PSIWMMPU,90.650,-0.47229,-0.16030,-10.00050,-0.06714,-0.89417,-0.33264,*31
$PSIWMMPU,90.850,-0.49000,-0.15408,-10.04356,-0.50049,-0.39673,-0.28076,*39
$PSIWMMPU,91.050,-0.46177,-0.20576,-9.95791,0.09155,-0.81482,-0.05798,*25
$PSIWMPOS,000131.150,4910.31230,N,12304.13934,W,11.19,73.91,M,7.91,0,8,0,2,0,*65
$PSIWMATT,000131.150,360.0,T,-3.4,1.2,180.0,*55
$PSIWMVEL,000131.150,360.0,T,0.0,K,-0.00,M,*72
$GPGGA,214318.000,4910.31175,N,12304.13973,W,1,08,0.8,075.54,M,-16.8,M,,*54
$GPRMC,214318.000,A,4910.31175,N,12304.13973,W,0.1,0.0,230419,,,A*7B
$GNGSA,A,3,19,12,06,24,15,17,28,,,,,,1.4,0.8,1.1*22
$GNGSA,A,3,78,,,,,,,,,,,,1.4,0.8,1.1*2E
$PSIWMPVT,91.230,251016.000,3,49.1718625,-123.0689954,75.539,0.046,-0.054,0.007,6.633,5.196,19.555,0.866,0.707,0.791,23.393,0.027,8,*24
$PSIWMMPU,91.250,-0.51871,-0.17418,-10.06653,-0.48523,-0.25635,-0.01221,*30
$PSIWMMPU,91.450,-0.50436,-0.15743,-9.98566,-0.68359,-0.24414,-0.28687,*07
$PSIWMMPU,91.650,-0.48378,-0.18136,-10.02395,-1.13525,0.15259,0.02441,*34
$PSIWMMPU,91.850,-0.46895,-0.15600,-10.00911,-0.72021,0.31433,-0.41504,*16
$PSIWMMPU,92.050,-0.36702,-0.06221,-9.92537,-2.04163,3.79028,-0.13123,*26
$PSIWMPOS,000132.150,4910.31175,N,12304.13973,W,11.26,75.54,M,7.96,0,8,0,2,0,*63
$PSIWMATT,000132.150,360.0,T,-2.8,0.8,180.0,*50
$PSIWMVEL,000132.150,360.0,T,0.0,K,-0.00,M,*71
$GPGGA,214319.000,4910.31142,N,12304.14108,W,1,08,0.8,077.50,M,-16.8,M,,*54
$GPRMC,214319.000,A,4910.31142,N,12304.14108,W,0.1,0.0,230419,,,A*7D
$GNGSA,A,3,19,12,06,15,17,28,,,,,,,1.4,0.8,1.1*24
$GNGSA,A,3,79,78,,,,,,,,,,,1.4,0.8,1.1*20
$PSIWMPVT,92.230,251017.000,3,49.1718570,-123.0690180,77.496,0.031,-0.008,0.009,6.708,5.385,19.199,0.935,1.696,1.323,22.972,0.027,8,*27
$PSIWMMPU,92.250,-0.42349,-0.14164,-10.16654,-0.65002,-0.35706,-0.30518,*3C
$PSIWMMPU,92.450,-0.39238,-0.16126,-10.01964,-0.53101,-0.74463,-0.32959,*36
$PSIWMMPU,92.650,-0.44167,-0.13829,-9.99045,-0.47913,-0.31433,-0.29602,*06
$PSIWMMPU,92.850,-0.46990,-0.14260,-10.03160,-0.26550,-1.19629,-0.36011,*33
$PSIWMMPU,93.050,-0.49239,-0.12537,-10.03208,-0.37842,-0.91858,-0.34790,*38
$PSIWMPOS,000133.150,4910.31142,N,12304.14108,W,11.38,77.50,M,8.05,0,8,0,2,0,*69
$PSIWMATT,000133.150,360.0,T,-3.4,0.8,180.0,*5C
$PSIWMVEL,000133.150,360.0,T,0.0,K,-0.00,M,*70
$GPGGA,214320.000,4910.31114,N,12304.14240,W,1,08,0.8,078.91,M,-16.8,M,,*50
$GPRMC,214320.000,A,4910.31114,N,12304.14240,W,0.0,0.0,230419,,,A*7A
$GNGSA,A,3,19,12,06,15,17,28,,,,,,,1.4,0.8,1.1*24
$GNGSA,A,3,79,78,,,,,,,,,,,1.4,0.8,1.1*20
$PSIWMPVT,93.230,251017.999,3,49.1718523,-123.0690400,78.907,0.017,0.006,0.007,6.745,5.523,21.820,1.000,1.837,1.414,26.106,0.031,8,*04
$PSIWMMPU,93.250,-0.49909,-0.17705,-10.06031,-0.36926,-0.81482,-0.32654,*3E
$PSIWMMPU,93.450,-0.44358,-0.13925,-10.04883,-0.51270,-0.20752,-0.36621,*3A
$PSIWMMPU,93.650,-0.45507,-0.15121,-9.92729,-0.51575,-0.40894,-0.30518,*09
$PSIWMMPU,93.850,-0.50196,-0.17896,-10.12970,-0.67749,-0.28687,-0.28076,*34
$PSIWMMPU,94.050,-0.51632,-0.15360,-10.02155,-0.63171,0.00916,-0.32043,*19
$PSIWMPOS,000134.150,4910.31114,N,12304.14240,W,11.45,78.91,M,8.09,0,8,0,2,0,*66
$PSIWMATT,000134.150,360.0,T,-3.3,0.8,180.0,*5C
$PSIWMVEL,000134.150,360.0,T,0.0,K,-0.00,M,*77
$GPGGA,214321.000,4910.31082,N,12304.14351,W,1,08,0.8,080.02,M,-16.8,M,,*53
$GPRMC,214321.000,A,4910.31082,N,12304.14351,W,0.0,0.0,230419,,,A*74
$GNGSA,A,3,19,12,06,15,17,28,,,,,,,1.4,0.8,1.1*24
$GNGSA,A,3,79,78,,,,,,,,,,,1.4,0.8,1.1*20
$PSIWMPVT,94.230,251018.999,3,49.1718469,-123.0690585,80.018,0.002,-0.012,0.006,6.819,5.612,21.777,1.061,1.871,1.414,26.054,0.020,8,*2B
$PSIWMMPU,94.250,-0.41583,-0.16270,-10.07084,-1.11389,1.07422,-0.30518,*1C
$PSIWMMPU,94.450,-0.41009,-0.16030,-9.92920,-0.55847,-0.49744,-0.35706,*0D
$PSIWMMPU,94.650,-0.35649,-0.13351,-9.96509,-0.51575,-0.03967,-0.32349,*0D
$PSIWMMPU,94.850,-0.42731,-0.13351,-10.03447,-0.55542,-0.08850,-0.25330,*34
$PSIWMMPU,95.050,-0.38473,-0.13063,-10.05888,-0.49438,-0.23804,-0.32654,*36
$PSIWMPOS,000135.150,4910.31082,N,12304.14351,W,11.57,80.02,M,8.18,0,8,0,2,0,*66
$PSIWMATT,000135.150,360.0,T,-2.8,0.7,180.0,*58
$PSIWMVEL,000135.150,360.0,T,0.0,K,-0.00,M,*76
$GPGGA,214322.000,4910.31041,N,12304.14443,W,1,08,0.8,080.49,M,-16.8,M,,*54
$GPRMC,214322.000,A,4910.31041,N,12304.14443,W,0.0,0.0,230419,,,A*7C
$GNGSA,A,3,19,12,06,15,17,28,,,,,,,1.4,0.8,1.1*24
$GNGSA,A,3,79,78,,,,,,,,,,,1.4,0.8,1.1*20
$PSIWMPVT,95.230,251020.000,3,49.1718401,-123.0690738,80.493,0.009,0.003,0.004,6.856,5.701,21.824,1.061,1.904,1.458,26.110,0.020,8,*0A
$PSIWMMPU,95.250,-0.41152,-0.12346,-10.05266,-0.57983,-0.31433,-0.27466,*3D
$PSIWMMPU,95.450,-0.41918,-0.14068,-10.02873,-0.54016,-0.46692,-0.36011,*36
$PSIWMMPU,95.650,-0.40722,-0.12346,-10.02777,-0.49438,-0.21973,-0.30518,*3F
$PSIWMMPU,95.850,-0.37707,-0.13398,-10.04978,-0.64392,-0.26550,-0.33264,*3E
$PSIWMMPU,96.050,-0.39286,-0.12394,-10.04022,-0.57373,-0.23499,-0.30823,*38
$PSIWMPOS,000136.150,4910.31041,N,12304.14443,W,11.63,80.49,M,8.23,0,8,0,2,0,*6E
$PSIWMATT,000136.150,360.0,T,-2.8,0.7,180.0,*5B
$PSIWMVEL,000136.150,360.0,T,0.0,K,-0.00,M,*75
$GPGGA,214323.000,4910.31003,N,12304.14494,W,1,08,0.8,080.48,M,-16.8,M,,*58
$GPRMC,214323.000,A,4910.31003,N,12304.14494,W,0.0,0.0,230419,,,A*71
$GNGSA,A,3,19,12,06,15,17,28,,,,,,,1.4,0.8,1.1*24
$GNGSA,A,3,79,78,,,,,,,,,,,1.4,0.8,1.1*20
$PSIWMPVT,96.230,251021.000,3,49.1718338,-123.0690823,80.479,0.001,-0.007,0.004,6.892,5.745,19.770,1.118,1.904,1.458,23.652,0.008,8,*29
$PSIWMMPU,96.250,-0.42827,-0.11532,-10.09237,-0.50049,-0.39062,-0.24109,*37
$PSIWMMPU,96.450,-0.36702,-0.13303,-10.01438,-0.53711,-0.07935,-0.36621,*3C
$PSIWMMPU,96.650,-0.38473,-0.12441,-10.04787,-0.46997,-0.30212,-0.34180,*37
$PSIWMMPU,96.850,-0.42253,-0.13733,-10.03304,-0.51575,-0.42419,-0.34180,*31
$PSIWMMPU,97.050,-0.40578,-0.14021,-9.98997,-0.44250,-0.43640,-0.30212,*0A
$PSIWMPOS,000137.150,4910.31003,N,12304.14494,W,11.70,80.48,M,8.27,0,8,0,2,0,*64
$PSIWMATT,000137.150,360.0,T,-2.7,0.7,180.0,*55
$PSIWMVEL,000137.150,360.0,T,0.0,K,-0.00,M,*74
$GPGGA,214324.000,4910.30971,N,12304.14562,W,1,08,0.8,080.66,M,-16.8,M,,*56
$GPRMC,214324.000,A,4910.30971,N,12304.14562,W,0.0,0.0,230419,,,A*73
$GNGSA,A,3,19,12,06,15,17,28,,,,,,,1.4,0.8,1.1*24
$GNGSA,A,3,79,78,,,,,,,,,,,1.4,0.8,1.1*20
$PSIWMPVT,97.230,251021.999,3,49.1718285,-123.0690937,80.656,0.015,0.020,0.003,6.928,5.788,21.074,1.118,1.904,1.458,25.212,0.020,8,*02
$PSIWMMPU,97.250,-0.38903,-0.11580,-10.02969,-0.46082,-0.32654,-0.31128,*31
$PSIWMMPU,97.450,-0.34405,-0.17801,-9.99332,-0.55237,-0.24719,-0.32043,*02
$PSIWMMPU,97.650,-0.42875,-0.14643,-10.01916,-0.44250,-0.04578,-0.28992,*3C
$PSIWMMPU,97.850,-0.40052,-0.12633,-10.05696,-0.57373,-0.25940,-0.29907,*34
$PSIWMMPU,98.050,-0.41104,-0.12729,-10.02730,-0.47302,-0.40894,-0.30518,*36
$PSIWMPOS,000138.150,4910.30971,N,12304.14562,W,11.76,80.66,M,8.31,0,8,0,2,0,*63
$PSIWMATT,000138.150,360.0,T,-2.7,0.7,180.0,*5A
$PSIWMVEL,000138.150,360.0,T,0.0,K,-0.00,M,*7B
$GPGGA,214325.000,4910.30964,N,12304.14632,W,1,08,0.8,080.03,M,-16.8,M,,*56
$GPRMC,214325.000,A,4910.30964,N,12304.14632,W,0.0,0.0,230419,,,A*70
$GNGSA,A,3,19,12,06,15,17,28,,,,,,,1.4,0.8,1.1*24
$GNGSA,A,3,79,78,,,,,,,,,,,1.4,0.8,1.1*20
$PSIWMPVT,98.230,251023.000,3,49.1718274,-123.0691054,80.028,0.005,-0.013,0.002,6.964,5.745,21.379,1.118,1.904,1.458,25.578,0.008,8,*21
$PSIWMMPU,98.250,-0.39813,-0.14547,-10.01055,-0.53101,-0.34485,-0.27161,*38
$PSIWMMPU,98.450,-0.39956,-0.12441,-10.01342,-0.54016,-0.32959,-0.29297,*34
$PSIWMMPU,98.650,-0.39813,-0.13255,-10.00050,-0.50964,-0.20142,-0.35400,*39
$PSIWMMPU,98.850,-0.33927,-0.11628,-9.78038,-3.83911,-2.69165,-0.16174,*0C
$PSIWMMPU,99.050,-0.37898,0.06508,-9.51145,-0.11597,1.69373,-3.00903,*03
$PSIWMPOS,000139.150,4910.30964,N,12304.14632,W,11.82,80.03,M,8.36,0,8,0,2,0,*6F
$PSIWMATT,000139.150,360.0,T,-2.8,0.4,180.0,*57
$PSIWMVEL,000139.150,360.0,T,0.0,K,-0.00,M,*7A
$GPGGA,214326.000,4910.30924,N,12304.14677,W,1,08,0.8,079.30,M,-16.8,M,,*56
$GPRMC,214326.000,A,4910.30924,N,12304.14677,W,0.1,0.0,230419,,,A*77
$GNGSA,A,3,19,12,06,15,17,28,,,,,,,1.4,0.8,1.1*24
$GNGSA,A,3,79,78,,,,,,,,,,,1.4,0.8,1.1*20
$PSIWMPVT,99.230,251024.000,3,49.1718207,-123.0691129,79.299,0.027,0.017,0.001,6.964,5.745,22.539,1.118,1.904,1.458,26.966,0.016,8,*02
$PSIWMMPU,99.250,-0.47708,0.07178,-10.07132,-0.49744,0.77820,-2.60620,*32
$PSIWMMPU,99.450,-0.30529,-0.92210,-10.27229,-0.78125,0.32349,18.35938,*04
$PSIWMMPU,99.650,-0.40770,-0.10527,-10.07467,-0.62866,-0.56458,-0.36011,*30
$PSIWMMPU,99.850,-0.42540,-0.06508,-10.03256,-0.52795,-0.52795,-0.29602,*3B
$PSIWMMPU,100.050,-0.42396,-0.08039,-9.99189,-0.57678,-0.38147,-0.31433,*37
$PSIWMPOS,000140.150,4910.30924,N,12304.14677,W,11.82,79.30,M,8.36,0,8,0,2,0,*62
$PSIWMATT,000140.150,360.0,T,-2.8,0.3,180.0,*5E
$PSIWMVEL,000140.150,360.0,T,0.0,K,-0.00,M,*74
$GPGGA,214327.000,4910.30907,N,12304.14681,W,1,08,0.8,077.90,M,-16.8,M,,*5B
$GPRMC,214327.000,A,4910.30907,N,12304.14681,W,0.0,0.0,230419,,,A*7F
$GNGSA,A,3,19,12,06,15,17,28,,,,,,,1.4,0.8,1.1*24
$GNGSA,A,3,79,78,,,,,,,,,,,1.4,0.8,1.1*20
$PSIWMPVT,100.230,251025.000,3,49.1718179,-123.0691135,77.903,-0.001,-0.006,0.001,7.000,5.745,23.094,1.173,1.904,1.458,27.628,0.012,8,*33
$PSIWMMPU,100.250,-0.42636,-0.07704,-9.98519,-0.50354,0.14648,-0.32959,*15
$PSIWMMPU,100.450,-0.80104,-0.41727,-10.07945,-0.85144,-0.54321,2.12402,*25
$PSIWMMPU,100.650,-0.48139,-0.03972,-9.98854,-0.44556,0.07324,-0.45166,*14
$PSIWMMPU,100.850,-0.40291,-0.06460,-10.05840,-0.51270,-0.08240,-0.39978,*0B
$PSIWMMPU,101.050,-0.41487,-0.04546,-10.09429,-0.43945,-0.36926,-0.29602,*01
$PSIWMPOS,000141.150,4910.30907,N,12304.14681,W,11.88,77.90,M,8.40,0,8,0,2,0,*64
$PSIWMATT,000141.150,360.0,T,-2.7,0.2,180.0,*51
$PSIWMVEL,000141.150,360.0,T,0.0,K,-0.00,M,*75
$GPGGA,214328.000,4910.30885,N,12304.14642,W,1,08,0.8,076.14,M,-16.8,M,,*5D
$GPRMC,214328.000,A,4910.30885,N,12304.14642,W,0.0,0.0,230419,,,A*74
$GNGSA,A,3,19,12,06,15,17,28,,,,,,,1.4,0.8,1.1*24
$GNGSA,A,3,79,78,,,,,,,,,,,1.4,0.8,1.1*20
$PSIWMPVT,101.230,251026.000,3,49.1718142,-123.0691070,76.142,0.009,0.004,-0.001,7.036,5.788,23.254,1.173,1.936,1.458,27.822,0.012,8,*1D
$PSIWMMPU,101.250,-0.38951,-0.05407,-9.99763,-0.62866,-0.50964,-0.29907,*3D
$PSIWMMPU,101.450,-0.45268,-0.02297,-10.10482,-0.62256,-0.56763,-0.37537,*0B
$PSIWMMPU,101.650,-0.50962,-0.04785,-10.12874,-0.24109,-0.38757,-2.40173,*09
$PSIWMMPU,101.850,-0.63834,-0.19811,-9.97896,-0.62866,-0.77209,-9.69238,*39
$PSIWMMPU,102.050,-0.42062,-0.04211,-9.97370,-0.33569,0.46387,-0.25024,*1F
$PSIWMPOS,000142.150,4910.30885,N,12304.14642,W,11.94,76.14,M,8.44,0,8,0,2,0,*67
$PSIWMATT,000142.150,360.0,T,-2.9,0.1,180.0,*5F
$PSIWMVEL,000142.150,360.0,T,0.0,K,-0.00,M,*76
$GPGGA,214329.000,4910.30874,N,12304.14604,W,1,08,0.8,074.16,M,-16.8,M,,*50
$GPRMC,214329.000,A,4910.30874,N,12304.14604,W,0.0,0.0,230419,,,A*79
$GNGSA,A,3,19,12,06,15,17,28,,,,,,,1.4,0.8,1.1*24
$GNGSA,A,3,79,78,,,,,,,,,,,1.4,0.8,1.1*20
$PSIWMPVT,102.230,251027.000,3,49.1718123,-123.0691007,74.159,0.016,0.019,-0.002,7.036,5.831,24.184,1.173,1.936,1.458,28.933,0.016,8,*1F
$PSIWMMPU,102.250,-0.42301,-0.07656,-10.03687,-0.61035,-0.12512,-0.32959,*0F
$PSIWMMPU,102.450,-0.45650,-0.05072,-10.10051,-0.80566,-0.58899,-0.30823,*00
$PSIWMMPU,102.650,-0.39669,-0.03828,-10.01485,-0.28687,0.01831,-0.35400,*2A
$PSIWMMPU,102.850,-0.42923,-0.08613,-9.98519,-0.80566,-0.35400,-0.29907,*35
$PSIWMMPU,103.050,-0.45411,-0.07561,-10.05601,-0.61951,-0.31738,-0.29907,*03
$PSIWMPOS,000143.150,4910.30874,N,12304.14604,W,11.94,74.16,M,8.44,0,8,0,2,0,*6A
$PSIWMATT,000143.150,360.0,T,-2.9,0.2,180.0,*5D
$PSIWMVEL,000143.150,360.0,T,0.0,K,-0.00,M,*77
$GPGGA,214330.000,4910.30851,N,12304.14559,W,1,08,0.8,071.93,M,-16.8,M,,*5C
$GPRMC,214330.000,A,4910.30851,N,12304.14559,W,0.0,0.0,230419,,,A*7D
$GNGSA,A,3,19,12,06,15,17,28,,,,,,,1.4,0.8,1.1*24
$GNGSA,A,3,79,78,,,,,,,,,,,1.4,0.8,1.1*20
$PSIWMPVT,103.230,251028.000,3,49.1718085,-123.0690932,71.933,0.009,0.004,-0.003,7.071,5.831,25.094,1.173,1.936,1.458,30.020,0.016,8,*10
$PSIWMMPU,103.250,-0.40961,-0.03350,-10.14070,-0.65002,-0.26245,-0.30823,*03
$PSIWMMPU,103.450,-0.45411,-0.06747,-10.13113,-0.33875,-1.14746,-0.32654,*0F
$PSIWMMPU,103.650,-0.41009,-0.06938,-10.02634,-0.54321,-0.89111,-0.32654,*0A
$PSIWMMPU,103.850,-0.39047,-0.06125,-9.94882,-0.44556,-0.09460,-0.29297,*3C
$PSIWMMPU,104.050,-0.57565,0.27228,-10.71588,-1.16577,0.22278,-0.15564,*00
$PSIWMPOS,000144.150,4910.30851,N,12304.14559,W,12.00,71.93,M,8.49,0,8,0,2,0,*6A
$PSIWMATT,000144.150,360.0,T,-2.8,0.1,180.0,*58
$PSIWMVEL,000144.150,360.0,T,0.0,K,-0.00,M,*70
$GPGGA,214331.000,4910.30835,N,12304.14486,W,1,08,0.8,069.69,M,-16.8,M,,*50
$GPRMC,214331.000,A,4910.30835,N,12304.14486,W,0.0,0.0,230419,,,A*7D
$GNGSA,A,3,19,12,06,15,17,28,,,,,,,1.4,0.8,1.1*24
$GNGSA,A,3,79,78,,,,,,,,,,,1.4,0.8,1.1*20
$PSIWMPVT,104.230,251029.000,3,49.1718058,-123.0690810,69.693,0.001,0.005,-0.004,7.036,5.831,26.480,1.173,1.936,1.458,31.678,0.012,8,*1A
$PSIWMMPU,104.250,-0.39908,-0.04115,-10.11821,-0.70801,-0.20752,0.62866,*29
$PSIWMMPU,104.450,-0.45842,-0.13303,-10.01677,-0.83618,-0.15259,0.84229,*2F
$PSIWMMPU,104.650,-0.44215,-0.02393,-10.10769,-0.49438,0.43030,-0.34790,*27
$PSIWMMPU,104.850,-0.42923,-0.05407,-10.05888,-0.61035,-0.21362,-0.28687,*0C
$PSIWMMPU,105.050,-0.40291,-0.05599,-10.10194,-0.42114,-0.37231,-0.33264,*03
$PSIWMPOS,000145.150,4910.30835,N,12304.14486,W,11.94,69.69,M,8.44,0,8,0,2,0,*65
$PSIWMATT,000145.150,360.0,T,-2.7,-0.0,180.0,*7A
$PSIWMVEL,000145.150,360.0,T,0.0,K,-0.00,M,*71
$GPGGA,214332.000,4910.30835,N,12304.14486,W,1,08,0.8,069.69,M,-16.8,M,,*53
$GPRMC,214332.000,A,4910.30835,N,12304.14486,W,0.0,0.0,230419,,,A*7E
$GNGSA,A,3,19,12,06,15,17,28,,,,,,,1.4,0.8,1.1*24
$GNGSA,A,3,79,78,,,,,,,,,,,1.4,0.8,1.1*20
$PSIWMPVT,105.230,251030.000,3,49.1718058,-123.0690810,69.693,0.001,0.002,-0.004,7.071,5.874,28.941,1.225,1.936,1.458,34.623,0.016,8,*17
$PSIWMMPU,105.250,-0.38855,-0.06029,-9.89331,-0.69885,-0.32654,-0.28992,*36
$PSIWMMPU,105.450,-0.40339,-0.06221,-10.03399,-0.50964,-0.06714,-0.29297,*05
$PSIWMMPU,105.650,-0.42014,-0.04929,-10.04117,-0.69275,-0.39062,-0.29297,*00
$PSIWMMPU,105.850,-0.42301,-0.04785,-10.06893,-0.42114,-0.34790,-0.32654,*0D
$PSIWMMPU,106.050,-0.42875,-0.06316,-9.98566,-0.47607,-0.10986,-0.36316,*32
$PSIWMPOS,000146.150,4910.30835,N,12304.14486,W,12.00,69.69,M,8.49,0,8,0,2,0,*65
$PSIWMATT,000146.150,360.0,T,-2.6,0.0,180.0,*55
$PSIWMVEL,000146.150,360.0,T,0.0,K,-0.00,M,*72
$GPGGA,214333.000,4910.30835,N,12304.14486,W,1,08,0.8,069.69,M,-16.8,M,,*52
$GPRMC,214333.000,A,4910.30835,N,12304.14486,W,0.0,0.0,230419,,,A*7F
$GNGSA,A,3,19,12,06,15,17,28,,,,,,,1.4,0.8,1.1*24
$GNGSA,A,3,79,78,,,,,,,,,,,1.4,0.8,1.1*20
$PSIWMPVT,106.230,251031.000,3,49.1718058,-123.0690810,69.693,-0.000,0.000,-0.004,7.071,5.874,27.809,1.225,1.936,1.458,33.268,0.016,8,*35
$PSIWMMPU,106.250,-0.39908,-0.04307,-10.02730,-0.63171,-0.31433,-0.33264,*0E
$PSIWMMPU,106.450,-0.44646,-0.02249,-10.06797,-0.47913,-0.27466,-0.28687,*0D
$PSIWMMPU,106.650,-0.42109,-0.07178,-10.19047,-0.32959,-1.80969,-0.41199,*00
$PSIWMMPU,106.850,-0.45555,-0.09857,-10.08185,0.43640,0.13733,-0.38452,*06
$PSIWMMPU,107.050,-0.53977,-0.11149,-10.52734,0.04883,-0.86060,-0.33875,*28
$PSIWMPOS,000147.150,4910.30835,N,12304.14486,W,12.00,69.69,M,8.49,0,8,0,2,0,*64
$PSIWMATT,000147.150,360.0,T,-2.5,0.3,180.0,*54
$PSIWMVEL,000147.150,360.0,T,0.0,K,-0.00,M,*73
$GPGGA,214334.000,4910.30835,N,12304.14486,W,1,08,0.8,069.69,M,-16.8,M,,*55
$GPRMC,214334.000,A,4910.30835,N,12304.14486,W,0.1,0.0,230419,,,A*79
$GNGSA,A,3,19,12,06,15,17,28,,,,,,,1.4,0.8,1.1*24
$GNGSA,A,3,79,78,,,,,,,,,,,1.4,0.8,1.1*20
$PSIWMPVT,107.230,251032.000,3,49.1718058,-123.0690810,69.693,0.022,0.021,-0.004,7.071,5.874,27.762,1.225,1.936,1.458,33.213,0.020,8,*12
$PSIWMMPU,107.250,-0.44167,-0.31821,-9.95313,-1.02539,-0.91248,1.04980,*19
$PSIWMMPU,107.450,-0.40674,-0.06460,-10.03830,-0.35706,0.61951,-0.35095,*27
$PSIWMMPU,107.650,-0.37133,-0.18901,-9.85359,-1.13525,-1.98975,-0.36011,*33
$PSIWMMPU,107.850,-0.47182,0.25074,-10.34838,-0.83313,1.49536,-0.33569,*08
$PSIWMMPU,108.050,-0.53546,0.66466,-11.28196,-1.51367,-1.98975,0.33875,*0D
$PSIWMPOS,000148.150,4910.30835,N,12304.14486,W,12.00,69.69,M,8.49,0,8,0,2,0,*6B
$PSIWMATT,000148.150,360.0,T,-2.4,0.3,180.0,*5A
$PSIWMVEL,000148.150,360.0,T,0.0,K,-0.00,M,*7C
$GPGGA,214335.000,4910.30835,N,12304.14486,W,1,08,0.8,069.69,M,-16.8,M,,*54
$GPRMC,214335.000,A,4910.30835,N,12304.14486,W,0.0,0.0,230419,,,A*79
$GNGSA,A,3,19,12,06,15,17,28,,,,,,,1.4,0.8,1.1*24
$GNGSA,A,3,79,78,,,,,,,,,,,1.4,0.8,1.1*20
$PSIWMPVT,108.230,251033.000,3,49.1718058,-123.0690810,69.693,0.008,0.016,-0.004,7.071,5.874,27.883,1.225,1.936,1.458,33.359,0.020,8,*1F
$PSIWMMPU,108.250,-0.27658,-0.53689,-9.84020,0.40283,1.54419,-0.42114,*33
$PSIWMMPU,108.450,-0.58475,0.87903,-9.72152,-1.51978,-0.78430,-3.86963,*1D
$PSIWMMPU,108.650,-0.03350,-0.47373,-9.71052,2.13623,1.86462,-4.70886,*38
$PSIWMMPU,108.850,-0.30386,-0.15600,-10.13735,-1.33057,-0.08545,-0.25330,*04
$PSIWMMPU,109.050,-0.37516,0.06556,-10.02251,-0.84229,-0.72021,-0.30518,*29
$PSIWMPOS,000149.150,4910.30835,N,12304.14486,W,12.00,69.69,M,8.49,0,8,0,2,0,*6A
$PSIWMATT,000149.150,360.0,T,-2.3,-0.2,180.0,*70
$PSIWMVEL,000149.150,360.0,T,0.0,K,-0.00,M,*7D
$GPGGA,214336.000,4910.30835,N,12304.14486,W,1,08,0.8,069.69,M,-16.8,M,,*57
$GPRMC,214336.000,A,4910.30835,N,12304.14486,W,0.0,0.0,230419,,,A*7A
$GNGSA,A,3,19,12,06,15,17,28,,,,,,,1.4,0.8,1.1*24
$GNGSA,A,3,79,78,,,,,,,,,,,1.4,0.8,1.1*20
$PSIWMPVT,109.230,251034.000,3,49.1718058,-123.0690810,69.693,0.011,0.018,-0.005,7.071,5.874,27.176,1.225,1.936,1.458,32.512,0.012,8,*14
$PSIWMMPU,109.250,-0.54407,-0.69815,-9.91006,-15.68604,-5.20325,5.27649,*22
$PSIWMMPU,109.450,-0.43784,0.11724,-10.00337,-0.87585,-0.75378,-0.25330,*27
$PSIWMMPU,109.650,-0.42157,0.15408,-10.05409,-0.62561,-0.26550,-0.51880,*22
$PSIWMMPU,109.850,-0.50196,0.25936,-9.89092,-0.74158,0.07629,-0.28687,*36
$PSIWMMPU,110.050,-0.42396,0.27897,-10.20770,2.21558,1.90735,-0.38452,*2C
$PSIWMPOS,000150.150,4910.30835,N,12304.14486,W,12.00,69.69,M,8.49,0,8,0,2,0,*62
$PSIWMATT,000150.150,360.0,T,-2.7,-1.4,180.0,*7B
$PSIWMVEL,000150.150,360.0,T,0.0,K,-0.00,M,*75
$GPGGA,214337.000,4910.30835,N,12304.14486,W,1,08,0.8,069.69,M,-16.8,M,,*56
$GPRMC,214337.000,A,4910.30835,N,12304.14486,W,0.0,0.0,230419,,,A*7B
$GNGSA,A,3,19,12,06,15,17,28,,,,,,,1.4,0.8,1.1*24
$GNGSA,A,3,79,78,,,,,,,,,,,1.4,0.8,1.1*20
$PSIWMPVT,110.230,251035.000,3,49.1718058,-123.0690810,69.693,0.016,0.003,-0.005,7.106,5.916,27.957,1.225,1.936,1.458,33.447,0.020,8,*1E
$PSIWMMPU,110.250,-0.30003,0.60580,-9.84163,1.64185,2.15454,-1.46484,*11
$PSIWMMPU,110.450,-0.41104,0.18279,-10.02538,-1.14136,-0.60120,-0.04578,*29
$PSIWMMPU,110.650,-0.43736,0.15504,-9.97562,-0.52490,-0.16174,-0.34180,*1F
$PSIWMMPU,110.850,-0.47564,0.21390,-10.07180,-0.66223,-0.57678,-0.18921,*2F
$PSIWMMPU,111.050,-0.40961,0.19619,-9.94451,-0.10071,0.25940,-0.43640,*32
$PSIWMPOS,000151.150,4910.30835,N,12304.14486,W,12.06,69.69,M,8.53,0,8,0,2,0,*6E
$PSIWMATT,000151.150,360.0,T,-2.7,-1.2,180.0,*7C
$PSIWMVEL,000151.150,360.0,T,0.0,K,-0.00,M,*74
$GPGGA,214338.000,4910.30835,N,12304.14486,W,1,08,0.8,069.69,M,-16.8,M,,*59
$GPRMC,214338.000,A,4910.30835,N,12304.14486,W,0.0,0.0,230419,,,A*74
$GNGSA,A,3,19,12,06,15,17,28,,,,,,,1.4,0.8,1.1*24
$GNGSA,A,3,79,78,,,,,,,,,,,1.4,0.8,1.1*20
$PSIWMPVT,111.230,251035.999,3,49.1718058,-123.0690810,69.693,0.018,0.009,-0.006,7.106,5.916,28.102,1.225,1.936,1.458,33.618,0.008,8,*14
$PSIWMMPU,111.250,-0.45890,0.25170,-10.09381,-0.99487,-0.24414,-0.33264,*22
$PSIWMMPU,111.450,-0.45507,0.26031,-10.13161,-3.31116,-2.22168,0.05798,*0F
$PSIWMMPU,111.650,-0.50101,0.24931,-10.05266,0.94910,1.06201,-0.40588,*27
$PSIWMMPU,111.850,-0.47947,0.17849,-9.97896,-1.72119,-1.66016,-0.05798,*15
$PSIWMMPU,112.050,-0.47756,0.26271,-10.23832,-1.29395,-1.20544,-0.06409,*2A
$PSIWMPOS,000152.150,4910.30835,N,12304.14486,W,12.06,69.69,M,8.53,0,8,0,2,0,*6D
$PSIWMATT,000152.150,360.0,T,-2.9,-1.5,180.0,*76
$PSIWMVEL,000152.150,360.0,T,0.0,K,-0.00,M,*77
$GPGGA,214339.000,4910.30835,N,12304.14486,W,1,08,0.8,069.69,M,-16.8,M,,*58
$GPRMC,214339.000,A,4910.30835,N,12304.14486,W,0.0,0.0,230419,,,A*75
$GNGSA,A,3,19,12,06,15,17,28,,,,,,,1.4,0.8,1.1*24
$GNGSA,A,3,79,78,,,,,,,,,,,1.4,0.8,1.1*20
$PSIWMPVT,112.230,251036.999,3,49.1718058,-123.0690810,69.693,0.005,0.002,-0.006,7.106,5.916,28.391,1.225,1.936,1.458,33.965,0.012,8,*15
$PSIWMMPU,112.250,-0.45794,0.26701,-9.95121,-0.63782,-0.36621,-0.32043,*1E
$PSIWMMPU,112.450,-0.44789,0.21246,-10.11343,-1.53198,-1.34583,-0.16174,*22
$PSIWMMPU,112.650,-0.53546,0.24883,-10.26177,1.48315,1.91956,-0.53101,*25
$PSIWMMPU,112.850,-0.44741,0.21438,-9.75933,-1.34888,-2.63672,-0.02441,*11
$PSIWMMPU,113.050,-0.46512,0.30816,-9.87943,1.87073,2.98767,-0.79651,*1E
$PSIWMPOS,000153.150,4910.30835,N,12304.14486,W,12.06,69.69,M,8.53,0,8,0,2,0,*6C
$PSIWMATT,000153.150,360.0,T,-2.5,-1.1,180.0,*7F
$PSIWMVEL,000153.150,360.0,T,0.0,K,-0.00,M,*76
$GPGGA,214340.000,4910.30835,N,12304.14486,W,1,08,0.8,069.69,M,-16.8,M,,*56
$GPRMC,214340.000,A,4910.30835,N,12304.14486,W,0.0,0.0,230419,,,A*7B
$GNGSA,A,3,19,12,06,15,17,28,,,,,,,1.4,0.8,1.1*24
$GNGSA,A,3,79,78,,,,,,,,,,,1.4,0.8,1.1*20
$PSIWMPVT,113.230,251037.999,3,49.1718058,-123.0690810,69.693,0.001,-0.012,-0.005,7.106,5.916,28.723,1.225,1.936,1.458,34.363,0.020,8,*39
$PSIWMMPU,113.250,-0.67471,0.24691,-10.30770,2.36511,1.74866,-0.44250,*29
$PSIWMMPU,113.450,-0.37994,0.28663,-10.09524,-3.54614,-2.95715,-0.05188,*23
$PSIWMMPU,113.650,-0.40674,0.23064,-10.01677,0.26550,0.02441,-0.06104,*2B
$PSIWMMPU,113.850,-0.41727,0.17801,-10.05218,-1.25122,-1.27563,-0.34485,*2F
$PSIWMMPU,114.050,-0.41870,-0.04067,-10.25938,-1.54724,-1.22070,-0.46387,*05
$PSIWMPOS,000154.150,4910.30835,N,12304.14486,W,12.06,69.69,M,8.53,0,8,0,2,0,*6B
$PSIWMATT,000154.150,360.0,T,-2.7,-1.2,180.0,*79
$PSIWMVEL,000154.150,360.0,T,0.0,K,-0.00,M,*71
$GPGGA,214341.000,4910.30835,N,12304.14486,W,1,08,0.8,069.69,M,-16.8,M,,*57
$GPRMC,214341.000,A,4910.30835,N,12304.14486,W,0.0,0.0,230419,,,A*7A
$GNGSA,A,3,19,12,06,15,17,28,,,,,,,1.4,0.8,1.1*24
$GNGSA,A,3,79,78,,,,,,,,,,,1.4,0.8,1.1*20
$PSIWMPVT,114.230,251038.999,3,49.1718058,-123.0690810,69.693,0.002,-0.019,-0.004,7.106,5.916,31.285,1.225,1.936,1.458,37.428,0.016,8,*37
$PSIWMMPU,114.250,-0.56991,0.33305,-10.15984,-0.04272,0.07629,-0.54321,*09
$PSIWMMPU,114.450,-0.42779,0.65892,-10.15554,-2.54822,-1.75476,0.99182,*0B
$PSIWMMPU,114.650,-0.31295,0.07800,-10.24885,-0.93384,-2.27966,0.05493,*00
$PSIWMMPU,114.850,-0.53115,0.26940,-10.17037,1.13831,0.21667,-0.57068,*2A
$PSIWMMPU,115.050,-0.42684,0.18279,-10.06175,-0.63477,-0.47607,-0.36316,*24
$PSIWMPOS,000155.150,4910.30835,N,12304.14486,W,12.06,69.69,M,8.53,0,8,0,2,0,*6A
$PSIWMATT,000155.150,360.0,T,-2.7,-1.2,180.0,*78
$PSIWMVEL,000155.150,360.0,T,0.0,K,-0.00,M,*70
$GPGGA,214342.000,4910.30835,N,12304.14486,W,1,08,0.8,069.69,M,-16.8,M,,*54
$GPRMC,214342.000,A,4910.30835,N,12304.14486,W,0.0,0.0,230419,,,A*79
$GNGSA,A,3,19,12,06,15,17,28,,,,,,,1.4,0.8,1.1*24
$GNGSA,A,3,79,78,,,,,,,,,,,1.4,0.8,1.1*20
$PSIWMPVT,115.240,251039.999,3,49.1718058,-123.0690810,69.693,0.012,0.003,-0.004,7.141,5.958,29.277,1.225,1.936,1.458,35.024,0.012,8,*14
$PSIWMMPU,115.250,-0.46177,0.41822,-10.03734,-2.25220,-1.77612,-0.10071,*23
$PSIWMMPU,115.450,-0.40530,0.21916,-9.99476,0.19836,0.74158,-0.48523,*1E
$PSIWMMPU,115.650,-0.50005,0.20624,-10.00146,-0.23499,-0.50354,-0.19836,*2A
$PSIWMMPU,115.850,-0.37851,0.22155,-10.01103,-1.67847,-1.82800,-0.28381,*20
$PSIWMMPU,116.050,-0.40387,0.15265,-10.08280,0.41199,0.72021,-0.45776,*23
$PSIWMPOS,000156.150,4910.30835,N,12304.14486,W,12.12,69.69,M,8.57,0,8,0,2,0,*68
$PSIWMATT,000156.150,360.0,T,-2.6,-1.1,180.0,*79
$PSIWMVEL,000156.150,360.0,T,0.0,K,-0.00,M,*73
$GPGGA,214343.000,4910.30835,N,12304.14486,W,1,08,0.8,069.69,M,-16.8,M,,*55
$GPRMC,214343.000,A,4910.30835,N,12304.14486,W,0.0,0.0,230419,,,A*78
$GNGSA,A,3,19,12,06,15,17,28,,,,,,,1.4,0.8,1.1*24
$GNGSA,A,3,79,78,,,,,,,,,,,1.4,0.8,1.1*20
$PSIWMPVT,116.230,251040.999,3,49.1718058,-123.0690810,69.693,0.006,-0.003,-0.005,7.141,5.958,31.008,1.225,1.936,1.458,37.098,0.012,8,*31
$PSIWMMPU,116.250,-0.37085,0.16652,-10.15745,-1.33057,-1.26648,-0.32654,*2C
$PSIWMMPU,116.450,-0.39047,0.19141,-9.81483,-1.40076,-0.97961,-0.18005,*1E
$PSIWMMPU,116.650,-0.48282,0.24356,-10.33929,3.27759,3.70178,-1.21765,*2E
$PSIWMMPU,116.850,-0.24165,0.06891,-9.60812,-1.30310,0.59509,-0.53711,*3A
