$PSIWMMPU,6930.850,-0.44215,0.33975,-10.02347,-0.53711,-0.39673,-0.29907,*18
$GPGGA,233734.000,4910.36050,N,12304.22314,W,1,11,0.8,001.22,M,-16.8,M,,*59
$GPRMC,233734.000,A,4910.36050,N,12304.22314,W,0.0,0.0,230419,,,A*7D
$GNGSA,A,3,19,12,06,24,32,17,02,,,,,,1.4,0.8,1.1*2F
$GNGSA,A,3,82,79,80,73,,,,,,,,,1.4,0.8,1.1*29
$PSIWMMPU,6931.050,-0.44071,0.35075,-10.02825,-0.52490,-0.34180,-0.25940,*13
$PSIWMPVT,6931.070,257871.999,3,49.1726750,-123.0703857,1.221,0.006,0.003,-0.016,6.964,4.528,31.484,0.612,0.000,0.000,38.144,0.035,11,*24
$PSIWMMPU,6931.250,-0.43641,0.32491,-10.00289,-0.59814,-0.29907,-0.32349,*11
$PSIWMMPU,6931.450,-0.43162,0.32922,-10.02634,-0.57678,-0.32654,-0.30518,*1D
$PSIWMMPU,6931.650,-0.44071,0.33783,-10.02873,-0.56152,-0.36316,-0.29907,*11
$PSIWMPOS,015531.650,4910.36050,N,12304.22314,W,7.68,1.22,M,5.43,0,8,0,2,0,*6A
$PSIWMATT,015531.650,261.5,T,-1.5,-6.4,180.0,*78
$PSIWMVEL,015531.650,261.5,T,0.0,K,-0.00,M,*70
$PSIWMMPU,6931.850,-0.45890,0.34692,-10.02921,-0.56458,-0.35095,-0.24719,*11
$GPGGA,233735.000,4910.36050,N,12304.22314,W,1,11,0.8,001.22,M,-16.8,M,,*58
$GPRMC,233735.000,A,4910.36050,N,12304.22314,W,0.0,0.0,230419,,,A*7C
$GNGSA,A,3,19,12,06,24,32,17,02,,,,,,1.4,0.8,1.1*2F
$GNGSA,A,3,82,79,80,73,,,,,,,,,1.4,0.8,1.1*29
$PSIWMMPU,6932.050,-0.44454,0.32874,-10.01772,-0.54626,-0.34485,-0.27161,*13
$PSIWMPVT,6932.070,257872.999,3,49.1726750,-123.0703857,1.221,0.001,0.002,-0.011,6.964,4.528,32.062,0.612,0.000,0.000,38.807,0.039,11,*28
$PSIWMMPU,6932.250,-0.43736,0.35027,-10.01150,-0.57373,-0.32349,-0.29297,*1D
$PSIWMMPU,6932.450,-0.42971,0.33209,-9.99523,-0.57373,-0.36316,-0.28076,*24
$PSIWMMPU,6932.650,-0.44358,0.33353,-10.01342,-0.56763,-0.35706,-0.33875,*14
$PSIWMPOS,015532.650,4910.36050,N,12304.22314,W,7.68,1.22,M,5.43,0,8,0,2,0,*69
$PSIWMATT,015532.650,261.5,T,-1.5,-6.4,180.0,*7B
$PSIWMVEL,015532.650,261.5,T,0.0,K,-0.00,M,*73
$PSIWMMPU,6932.850,-0.43354,0.34070,-10.02634,-0.57678,-0.33264,-0.25940,*1E
$GPGGA,233736.000,4910.36050,N,12304.22314,W,1,11,0.8,001.22,M,-16.8,M,,*5B
$GPRMC,233736.000,A,4910.36050,N,12304.22314,W,0.0,0.0,230419,,,A*7F
$GNGSA,A,3,19,12,06,24,32,17,02,,,,,,1.4,0.8,1.1*2F
$GNGSA,A,3,82,79,80,73,,,,,,,,,1.4,0.8,1.1*29
$PSIWMMPU,6933.050,-0.43545,0.33975,-9.99141,-0.56763,-0.36316,-0.27161,*27
$PSIWMPVT,6933.070,257874.000,3,49.1726750,-123.0703857,1.221,0.003,0.001,-0.011,6.964,4.583,32.367,0.612,0.000,0.000,39.164,0.043,11,*20
$PSIWMMPU,6933.250,-0.44358,0.33592,-10.02442,-0.56458,-0.35400,-0.31738,*14
$PSIWMMPU,6933.450,-0.43688,0.33400,-10.02490,-0.57068,-0.34180,-0.32654,*1A
$PSIWMMPU,6933.650,-0.43976,0.33400,-10.05553,-0.51270,-0.38452,-0.29602,*1D
$PSIWMPOS,015533.650,4910.36050,N,12304.22314,W,7.78,1.22,M,5.50,0,8,0,2,0,*6B
$PSIWMATT,015533.650,261.5,T,-1.5,-6.4,180.0,*7A
$PSIWMVEL,015533.650,261.5,T,0.0,K,-0.00,M,*72
$PSIWMMPU,6933.850,-0.44933,0.32922,-10.01677,-0.55542,-0.32654,-0.29907,*1E
$GPGGA,233737.000,4910.36050,N,12304.22314,W,1,11,0.8,001.22,M,-16.8,M,,*5A
$GPRMC,233737.000,A,4910.36050,N,12304.22314,W,0.0,0.0,230419,,,A*7E
$GNGSA,A,3,19,12,06,24,32,17,02,,,,,,1.4,0.8,1.1*2F
$GNGSA,A,3,82,79,80,73,,,,,,,,,1.4,0.8,1.1*29
$PSIWMMPU,6934.050,-0.44693,0.34214,-9.99954,-0.61035,-0.38147,-0.25024,*22
$PSIWMPVT,6934.070,257875.000,3,49.1726750,-123.0703857,1.221,0.010,0.006,-0.009,6.964,4.583,32.031,0.612,0.000,0.000,38.772,0.117,11,*2A
$PSIWMMPU,6934.250,-0.46560,0.33257,-10.03782,-0.58594,-0.41504,-0.29602,*14
$PSIWMMPU,6934.450,-0.46560,0.33735,-10.03878,-0.57983,-0.39673,-0.26855,*13
$PSIWMMPU,6934.650,-0.44263,0.33305,-10.02969,-0.55237,-0.34790,-0.26245,*1C
$PSIWMPOS,015534.650,4910.36050,N,12304.22314,W,7.78,1.22,M,5.50,0,8,0,2,0,*6C
$PSIWMATT,015534.650,261.5,T,-1.5,-6.4,180.0,*7D
$PSIWMVEL,015534.650,261.5,T,0.0,K,-0.00,M,*75
$PSIWMMPU,6934.850,-0.43449,0.33927,-10.02203,-0.58594,-0.37842,-0.29297,*16
$GPGGA,233738.000,4910.36050,N,12304.22314,W,1,11,0.8,001.22,M,-16.8,M,,*55
$GPRMC,233738.000,A,4910.36050,N,12304.22314,W,0.0,0.0,230419,,,A*71
$GNGSA,A,3,19,12,06,24,32,17,02,,,,,,1.4,0.8,1.1*2F
$GNGSA,A,3,82,79,80,73,,,,,,,,,1.4,0.8,1.1*29
$PSIWMMPU,6935.050,-0.42492,0.33735,-10.02442,-0.55237,-0.37842,-0.29907,*17
$PSIWMPVT,6935.070,257876.000,3,49.1726750,-123.0703857,1.221,-0.002,-0.007,-0.018,6.964,4.583,31.605,0.612,0.000,0.000,38.254,0.043,11,*29
$PSIWMMPU,6935.250,-0.45124,0.34262,-10.02251,-0.59509,-0.38147,-0.33264,*1E
$PSIWMMPU,6935.450,-0.43593,0.32587,-10.04692,-0.52795,-0.38147,-0.27161,*1E
$PSIWMMPU,6935.650,-0.44263,0.32874,-10.02012,-0.54321,-0.38452,-0.25635,*12
$PSIWMPOS,015535.650,4910.36050,N,12304.22314,W,7.78,1.22,M,5.50,0,8,0,2,0,*6D
$PSIWMATT,015535.650,261.5,T,-1.5,-6.4,180.0,*7C
$PSIWMVEL,015535.650,261.5,T,0.0,K,-0.00,M,*74
$PSIWMMPU,6935.850,-0.43784,0.32539,-10.03304,-0.54321,-0.39368,-0.25330,*19
$GPGGA,233739.000,4910.36050,N,12304.22314,W,1,11,0.8,001.22,M,-16.8,M,,*54
$PSIWMMPU,6936.050,-0.45315,0.31917,-10.03543,-0.57983,-0.31433,-0.30518,*16
$GPRMC,233739.000,A,4910.36050,N,12304.22314,W,0.0,0.0,230419,,,A*70
$GNGSA,A,3,19,12,06,24,17,14,02,,,,,,1.4,0.8,1.1*2B
$GNGSA,A,3,82,79,80,73,,,,,,,,,1.4,0.8,1.1*29
$PSIWMPVT,6936.080,257876.999,3,49.1726750,-123.0703857,1.221,0.001,0.001,-0.017,7.000,4.583,31.344,0.612,0.000,0.000,37.929,0.027,11,*20
$PSIWMMPU,6936.250,-0.45555,0.34597,-10.04165,-0.54016,-0.37231,-0.32043,*1D
$PSIWMMPU,6936.450,-0.44167,0.32108,-10.01820,-0.58289,-0.37231,-0.32043,*1E
$PSIWMMPU,6936.650,-0.44646,0.31965,-10.01868,-0.56152,-0.33264,-0.29297,*1A
$PSIWMPOS,015536.650,4910.36050,N,12304.22314,W,7.78,1.22,M,5.50,0,8,0,2,0,*6E
$PSIWMATT,015536.650,261.5,T,-1.5,-6.4,180.0,*7F
$PSIWMVEL,015536.650,261.5,T,0.0,K,-0.00,M,*77
$PSIWMMPU,6936.850,-0.44837,0.33783,-10.04692,-0.55237,-0.31433,-0.28076,*1F
$GPGGA,233740.000,4910.36050,N,12304.22314,W,1,11,0.8,001.22,M,-16.8,M,,*5A
$GPRMC,233740.000,A,4910.36050,N,12304.22314,W,0.0,0.0,230419,,,A*7E
$PSIWMMPU,6937.050,-0.44598,0.32252,-10.01198,-0.53101,-0.39978,-0.32959,*1B
$GNGSA,A,3,19,12,06,24,17,14,02,,,,,,1.4,0.8,1.1*2B
$GNGSA,A,3,82,79,80,73,,,,,,,,,1.4,0.8,1.1*29
$PSIWMPVT,6937.080,257878.000,3,49.1726750,-123.0703857,1.221,0.002,-0.015,-0.016,7.000,4.583,30.242,0.612,0.000,0.000,36.640,0.059,11,*02
$PSIWMMPU,6937.250,-0.45698,0.33400,-10.03112,-0.54626,-0.34180,-0.29907,*1D
$PSIWMMPU,6937.450,-0.45363,0.33448,-10.02442,-0.54016,-0.39673,-0.22278,*1C
$PSIWMMPU,6937.650,-0.45076,0.33879,-10.02777,-0.53711,-0.30212,-0.28381,*12
$PSIWMPOS,015537.650,4910.36050,N,12304.22314,W,7.78,1.22,M,5.50,0,8,0,2,0,*6F
$PSIWMATT,015537.650,261.5,T,-1.5,-6.4,180.0,*7E
$PSIWMVEL,015537.650,261.5,T,0.0,K,-0.00,M,*76
$PSIWMMPU,6937.850,-0.46416,0.32491,-10.03352,-0.51880,-0.34180,-0.27161,*1E
$GPGGA,233741.000,4910.36050,N,12304.22314,W,1,11,0.8,001.22,M,-16.8,M,,*5B
$GPRMC,233741.000,A,4910.36050,N,12304.22314,W,0.0,0.0,230419,,,A*7F
$PSIWMMPU,6938.050,-0.44789,0.33496,-10.05601,-0.51575,-0.36621,-0.30518,*18
$GNGSA,A,3,19,12,06,24,17,14,02,,,,,,1.4,0.8,1.1*2B
$GNGSA,A,3,82,79,80,73,,,,,,,,,1.4,0.8,1.1*29
$PSIWMPVT,6938.080,257879.000,3,49.1726750,-123.0703857,1.221,0.002,0.001,-0.023,7.000,4.637,29.941,0.612,0.000,0.000,36.363,0.074,11,*25
$PSIWMMPU,6938.250,-0.44311,0.31151,-10.03017,-0.49133,-0.33875,-0.35400,*1C
$PSIWMMPU,6938.450,-0.45459,0.33113,-10.02921,-0.54626,-0.31738,-0.28992,*18
$PSIWMMPU,6938.650,-0.44933,0.33927,-10.03495,-0.58594,-0.35095,-0.28687,*1F
$PSIWMPOS,015538.650,4910.36050,N,12304.22314,W,7.87,1.22,M,5.56,0,8,0,2,0,*66
$PSIWMATT,015538.650,261.5,T,-1.5,-6.4,180.0,*71
$PSIWMVEL,015538.650,261.5,T,0.0,K,-0.00,M,*79
$PSIWMMPU,6938.850,-0.44837,0.33161,-10.01198,-0.54321,-0.30823,-0.25330,*14
$PSIWMMPU,6939.050,-0.44311,0.33640,-10.00241,-0.56152,-0.37842,-0.28381,*13
$GPGGA,233742.000,4910.36050,N,12304.22314,W,1,11,0.8,001.22,M,-16.8,M,,*58
$GPRMC,233742.000,A,4910.36050,N,12304.22314,W,0.0,0.0,230419,,,A*7C
$GNGSA,A,3,19,12,06,24,17,02,25,,,,,,1.4,0.8,1.1*29
$GNGSA,A,3,82,79,80,73,,,,,,,,,1.4,0.8,1.1*29
$PSIWMPVT,6939.080,257880.000,3,49.1726750,-123.0703857,1.221,0.006,0.008,-0.013,7.000,4.637,28.621,0.612,0.000,0.000,35.497,0.043,11,*2F
$PSIWMMPU,6939.250,-0.43497,0.32539,-10.01390,-0.55237,-0.37231,-0.28381,*12
$PSIWMMPU,6939.450,-0.43880,0.32061,-10.04978,-0.56458,-0.35400,-0.30823,*1F
$PSIWMMPU,6939.650,-0.42636,0.33975,-10.01390,-0.56763,-0.35706,-0.32349,*10
$PSIWMPOS,015539.650,4910.36050,N,12304.22314,W,7.87,1.22,M,5.56,0,8,0,2,0,*67
$PSIWMATT,015539.650,261.5,T,-1.5,-6.4,180.0,*70
$PSIWMVEL,015539.650,261.5,T,0.0,K,-0.00,M,*78
$PSIWMMPU,6939.850,-0.43688,0.32108,-10.02108,-0.53101,-0.40894,-0.29907,*12
$GPGGA,233743.000,4910.36050,N,12304.22314,W,1,10,0.9,001.22,M,-16.8,M,,*59
$GPRMC,233743.000,A,4910.36050,N,12304.22314,W,0.0,0.0,230419,,,A*7D
$GNGSA,A,3,19,12,06,24,17,02,,,,,,,1.4,0.9,1.1*2F
$PSIWMMPU,6940.050,-0.43019,0.32778,-10.03926,-0.55542,-0.36621,-0.28687,*1C
$GNGSA,A,3,82,79,80,73,,,,,,,,,1.4,0.9,1.1*28
$PSIWMPVT,6940.070,257881.000,3,49.1726750,-123.0703857,1.221,-0.003,-0.010,-0.019,7.000,4.637,30.543,0.612,0.000,0.000,35.784,0.074,10,*23
$PSIWMMPU,6940.250,-0.43641,0.32874,-10.03782,-0.51270,-0.34790,-0.25024,*1F
$PSIWMMPU,6940.450,-0.45507,0.33448,-10.03782,-0.54626,-0.32654,-0.29297,*17
$PSIWMMPU,6940.650,-0.44358,0.35697,-10.00241,-0.59204,-0.34790,-0.23193,*1C
$PSIWMPOS,015540.650,4910.36050,N,12304.22314,W,7.87,1.22,M,5.56,0,8,0,2,0,*69
$PSIWMATT,015540.650,261.5,T,-1.5,-6.4,180.0,*7E
$PSIWMVEL,015540.650,261.5,T,0.0,K,-0.00,M,*76
$PSIWMMPU,6940.850,-0.44071,0.34214,-10.01868,-0.54626,-0.34180,-0.32654,*16
$GPGGA,233744.000,4910.36050,N,12304.22314,W,1,11,0.8,001.22,M,-16.8,M,,*5E
$PSIWMMPU,6941.050,-0.45076,0.32539,-10.04883,-0.53711,-0.35400,-0.28687,*1C
$GPRMC,233744.000,A,4910.36050,N,12304.22314,W,0.0,0.0,230419,,,A*7A
$GNGSA,A,3,19,12,06,24,17,02,25,,,,,,1.4,0.8,1.1*29
$GNGSA,A,3,82,79,80,73,,,,,,,,,1.4,0.8,1.1*29
$PSIWMPVT,6941.080,257882.000,3,49.1726750,-123.0703857,1.221,0.010,-0.001,-0.020,7.036,4.637,28.355,0.612,0.000,0.000,34.511,0.086,11,*05
$PSIWMMPU,6941.250,-0.43880,0.31295,-10.00911,-0.53406,-0.34485,-0.31433,*19
$PSIWMMPU,6941.450,-0.44885,0.33018,-10.04404,-0.52795,-0.40588,-0.30212,*16
$PSIWMMPU,6941.650,-0.44550,0.34788,-10.00768,-0.55847,-0.39368,-0.30212,*14
$PSIWMPOS,015541.650,4910.36050,N,12304.22314,W,7.87,1.22,M,5.56,0,8,0,2,0,*68
$PSIWMATT,015541.650,261.5,T,-1.5,-6.4,180.0,*7F
$PSIWMVEL,015541.650,261.5,T,0.0,K,-0.00,M,*77
$PSIWMMPU,6941.850,-0.45411,0.32252,-10.02682,-0.58899,-0.33569,-0.30212,*1F
$GPGGA,233745.000,4910.36050,N,12304.22314,W,1,11,0.8,001.22,M,-16.8,M,,*5F
$PSIWMMPU,6942.050,-0.43354,0.33879,-10.05696,-0.52185,-0.27161,-0.29602,*1E
$GPRMC,233745.000,A,4910.36050,N,12304.22314,W,0.0,0.0,230419,,,A*7B
$GNGSA,A,3,19,12,06,24,17,02,25,,,,,,1.4,0.8,1.1*29
$GNGSA,A,3,82,79,80,73,,,,,,,,,1.4,0.8,1.1*29
$PSIWMPVT,6942.080,257883.000,3,49.1726750,-123.0703857,1.221,0.001,0.004,-0.020,7.036,4.637,28.543,0.612,0.000,0.000,34.747,0.066,11,*21
$PSIWMMPU,6942.250,-0.44215,0.32922,-10.03065,-0.57068,-0.35400,-0.32654,*12
$PSIWMMPU,6942.450,-0.44837,0.32683,-10.05170,-0.57678,-0.40283,-0.30823,*1D
$PSIWMMPU,6942.650,-0.45650,0.33113,-10.04069,-0.55237,-0.35095,-0.34180,*18
$PSIWMPOS,015542.650,4910.36050,N,12304.22314,W,7.87,1.22,M,5.56,0,8,0,2,0,*6B
$PSIWMATT,015542.650,261.5,T,-1.5,-6.4,180.0,*7C
$PSIWMVEL,015542.650,261.5,T,0.0,K,-0.00,M,*74
$PSIWMMPU,6942.850,-0.45076,0.33065,-10.03639,-0.54932,-0.36621,-0.28992,*13
$GPGGA,233746.000,4910.36050,N,12304.22314,W,1,11,0.8,001.22,M,-16.8,M,,*5C
$PSIWMMPU,6943.050,-0.44837,0.34166,-10.04644,-0.50659,-0.35095,-0.28687,*19
$GPRMC,233746.000,A,4910.36050,N,12304.22314,W,0.0,0.0,230419,,,A*78
$GNGSA,A,3,19,12,06,24,17,02,25,,,,,,1.4,0.8,1.1*29
$GNGSA,A,3,82,79,80,73,,,,,,,,,1.4,0.8,1.1*29
$PSIWMPVT,6943.080,257884.000,3,49.1726750,-123.0703857,1.221,-0.001,0.005,-0.021,7.036,4.690,29.184,0.612,0.000,0.000,35.609,0.082,11,*09
$PSIWMMPU,6943.250,-0.43354,0.34501,-10.04835,-0.54321,-0.36926,-0.27161,*13
$PSIWMMPU,6943.450,-0.43736,0.32635,-10.03974,-0.54932,-0.34485,-0.29907,*1C
$PSIWMMPU,6943.650,-0.45315,0.33161,-10.01820,-0.52795,-0.38452,-0.30518,*11
$PSIWMPOS,015543.650,4910.36050,N,12304.22314,W,7.96,1.22,M,5.63,0,8,0,2,0,*6C
$PSIWMATT,015543.650,261.5,T,-1.5,-6.4,180.0,*7D
$PSIWMVEL,015543.650,261.5,T,0.0,K,-0.00,M,*75
$PSIWMMPU,6943.850,-0.43019,0.34070,-10.03543,-0.53711,-0.32959,-0.25024,*15
$PSIWMMPU,6944.050,-0.43354,0.32300,-10.03974,-0.53711,-0.27161,-0.32043,*1A
$GPGGA,233747.000,4910.36050,N,12304.22314,W,1,11,0.8,001.22,M,-16.8,M,,*5D
$GPRMC,233747.000,A,4910.36050,N,12304.22314,W,0.0,0.0,230419,,,A*79
$GNGSA,A,3,19,12,06,24,17,14,02,,,,,,1.4,0.8,1.1*2B
$GNGSA,A,3,82,79,80,73,,,,,,,,,1.4,0.8,1.1*29
$PSIWMPVT,6944.080,257885.000,3,49.1726750,-123.0703857,1.221,0.004,-0.001,-0.018,7.036,4.690,29.957,0.612,0.000,0.000,36.525,0.062,11,*02
$PSIWMMPU,6944.250,-0.43784,0.32300,-10.01964,-0.56763,-0.35706,-0.29602,*1F
$PSIWMMPU,6944.450,-0.44550,0.33496,-9.97657,-0.53406,-0.31433,-0.26245,*28
$PSIWMMPU,6944.650,-0.45459,0.34214,-10.03639,-0.53711,-0.37537,-0.27161,*17
$PSIWMPOS,015544.650,4910.36050,N,12304.22314,W,7.96,1.22,M,5.63,0,8,0,2,0,*6B
$PSIWMATT,015544.650,261.5,T,-1.5,-6.4,180.0,*7A
$PSIWMVEL,015544.650,261.5,T,0.0,K,-0.00,M,*72
$PSIWMMPU,6944.850,-0.45794,0.33640,-10.03208,-0.53101,-0.36621,-0.25940,*14
$PSIWMMPU,6945.050,-0.43497,0.34262,-10.03734,-0.50964,-0.35095,-0.22888,*12
$GPGGA,233748.000,4910.36050,N,12304.22314,W,1,11,0.8,001.22,M,-16.8,M,,*52
$GPRMC,233748.000,A,4910.36050,N,12304.22314,W,0.0,0.0,230419,,,A*76
$GNGSA,A,3,19,12,06,24,17,14,02,,,,,,1.4,0.8,1.1*2B
$GNGSA,A,3,82,79,80,73,,,,,,,,,1.4,0.8,1.1*29
$PSIWMPVT,6945.080,257886.000,3,49.1726750,-123.0703857,1.221,0.001,0.004,-0.015,7.036,4.690,30.270,0.612,0.000,0.000,36.857,0.055,11,*2A
$PSIWMMPU,6945.250,-0.44263,0.33640,-10.04309,-0.56152,-0.39062,-0.27771,*17
$PSIWMMPU,6945.450,-0.42205,0.33113,-10.02825,-0.54932,-0.35400,-0.31738,*1F
$PSIWMMPU,6945.650,-0.44071,0.34453,-10.02108,-0.51270,-0.31738,-0.26855,*1C
$PSIWMPOS,015545.650,4910.36050,N,12304.22314,W,7.96,1.22,M,5.63,0,8,0,2,0,*6A
$PSIWMATT,015545.650,261.5,T,-1.5,-6.4,180.0,*7B
$PSIWMVEL,015545.650,261.5,T,0.0,K,-0.00,M,*73
$PSIWMMPU,6945.850,-0.43688,0.32061,-10.00624,-0.58594,-0.33569,-0.28076,*1A
$PSIWMMPU,6946.050,-0.44837,0.33113,-10.00528,-0.56458,-0.34790,-0.29602,*1E
$GPGGA,233749.000,4910.36050,N,12304.22314,W,1,11,0.8,001.22,M,-16.8,M,,*53
$GPRMC,233749.000,A,4910.36050,N,12304.22314,W,0.0,0.0,230419,,,A*77
$GNGSA,A,3,19,12,06,24,17,14,02,,,,,,1.4,0.8,1.1*2B
$GNGSA,A,3,82,79,80,73,,,,,,,,,1.4,0.8,1.1*29
$PSIWMPVT,6946.080,257887.000,3,49.1726750,-123.0703857,1.221,-0.000,-0.007,-0.012,7.071,4.690,30.418,0.612,0.000,0.000,37.088,0.062,11,*29
$PSIWMMPU,6946.250,-0.44454,0.33975,-10.02155,-0.55847,-0.41809,-0.32959,*16
$PSIWMMPU,6946.450,-0.45268,0.34501,-10.02538,-0.57068,-0.32959,-0.27161,*1F
$PSIWMMPU,6946.650,-0.45555,0.34214,-10.02251,-0.55847,-0.32959,-0.30823,*11
$PSIWMPOS,015546.650,4910.36050,N,12304.22314,W,7.96,1.22,M,5.63,0,8,0,2,0,*69
$PSIWMATT,015546.650,261.5,T,-1.5,-6.4,180.0,*78
$PSIWMVEL,015546.650,261.5,T,0.0,K,-0.00,M,*70
$PSIWMMPU,6946.850,-0.44023,0.32156,-10.02538,-0.54016,-0.34790,-0.26550,*1F
$PSIWMMPU,6947.050,-0.45555,0.33975,-9.99428,-0.61340,-0.31433,-0.29907,*29
$GPGGA,233750.000,4910.36050,N,12304.22314,W,1,11,0.8,001.22,M,-16.8,M,,*5B
$GPRMC,233750.000,A,4910.36050,N,12304.22314,W,0.0,0.0,230419,,,A*7F
$GNGSA,A,3,19,12,06,24,17,14,02,,,,,,1.4,0.8,1.1*2B
$GNGSA,A,3,82,79,80,73,,,,,,,,,1.4,0.8,1.1*29
$PSIWMPVT,6947.080,257887.999,3,49.1726750,-123.0703857,1.221,0.007,0.015,-0.009,7.071,4.690,31.500,0.612,0.000,0.000,38.247,0.074,11,*2F
$PSIWMMPU,6947.250,-0.45220,0.33975,-10.01916,-0.57068,-0.35706,-0.32043,*19
$PSIWMMPU,6947.450,-0.45172,0.34262,-10.03399,-0.54016,-0.42114,-0.34485,*19
$PSIWMMPU,6947.650,-0.43019,0.34740,-10.02203,-0.56152,-0.36011,-0.32349,*12
$PSIWMPOS,015547.650,4910.36050,N,12304.22314,W,7.96,1.22,M,5.63,0,8,0,2,0,*68
$PSIWMATT,015547.650,261.5,T,-1.5,-6.4,180.0,*79
$PSIWMVEL,015547.650,261.5,T,0.0,K,-0.00,M,*71
$PSIWMMPU,6947.850,-0.43976,0.33783,-10.05170,-0.54626,-0.35706,-0.28381,*1F
$PSIWMMPU,6948.050,-0.45076,0.34836,-10.04069,-0.58899,-0.38757,-0.35095,*1C
$GPGGA,233751.000,4910.36050,N,12304.22314,W,1,11,0.8,001.22,M,-16.8,M,,*5A
$GPRMC,233751.000,A,4910.36050,N,12304.22314,W,0.0,0.0,230419,,,A*7E
$GNGSA,A,3,19,12,06,24,17,14,02,,,,,,1.4,0.8,1.1*2B
$GNGSA,A,3,82,79,80,73,,,,,,,,,1.4,0.8,1.1*29
$PSIWMPVT,6948.080,257888.999,3,49.1726750,-123.0703857,1.221,-0.003,-0.002,-0.010,7.071,4.743,31.977,0.612,0.000,0.000,38.765,0.020,11,*22
$PSIWMMPU,6948.250,-0.43114,0.33687,-10.02873,-0.55847,-0.35400,-0.29602,*1C
$PSIWMMPU,6948.450,-0.44885,0.32348,-10.02825,-0.55847,-0.33264,-0.27161,*16
$PSIWMMPU,6948.650,-0.46177,0.33257,-10.02730,-0.57373,-0.36011,-0.29297,*18
$PSIWMPOS,015548.650,4910.36050,N,12304.22314,W,8.05,1.22,M,5.69,0,8,0,2,0,*68
$PSIWMATT,015548.650,261.5,T,-1.5,-6.4,180.0,*76
$PSIWMVEL,015548.650,261.5,T,0.0,K,-0.00,M,*7E
$PSIWMMPU,6948.850,-0.43736,0.33735,-10.04261,-0.57983,-0.36316,-0.28076,*1B
$PSIWMMPU,6949.050,-0.44980,0.33065,-10.01485,-0.58289,-0.33264,-0.30518,*16
$GPGGA,233752.000,4910.36050,N,12304.22314,W,1,11,0.8,001.22,M,-16.8,M,,*59
$GPRMC,233752.000,A,4910.36050,N,12304.22314,W,0.0,0.0,230419,,,A*7D
$GNGSA,A,3,19,12,06,24,17,14,02,,,,,,1.4,0.8,1.1*2B
$GNGSA,A,3,82,79,80,73,,,,,,,,,1.4,0.8,1.1*29
$PSIWMPVT,6949.080,257889.999,3,49.1726750,-123.0703857,1.221,0.000,0.001,-0.005,7.071,4.743,32.039,0.612,0.000,0.000,38.755,0.035,11,*21
$PSIWMMPU,6949.250,-0.43066,0.31630,-10.03017,-0.57678,-0.38452,-0.32349,*16
$PSIWMMPU,6949.450,-0.44789,0.31773,-10.02299,-0.54321,-0.31128,-0.35706,*11
$PSIWMMPU,6949.650,-0.43688,0.33783,-10.02012,-0.56152,-0.37231,-0.28381,*16
$PSIWMPOS,015549.650,4910.36050,N,12304.22314,W,8.05,1.22,M,5.69,0,8,0,2,0,*69
$PSIWMATT,015549.650,261.5,T,-1.5,-6.4,180.0,*77
$PSIWMVEL,015549.650,261.5,T,0.0,K,-0.00,M,*7F
$PSIWMMPU,6949.850,-0.43928,0.33831,-10.04261,-0.57983,-0.35400,-0.35706,*1F
$PSIWMMPU,6950.050,-0.44358,0.32970,-10.01677,-0.58289,-0.39673,-0.34790,*1C
$GPGGA,233753.000,4910.36050,N,12304.22314,W,1,11,0.8,001.22,M,-16.8,M,,*58
$GPRMC,233753.000,A,4910.36050,N,12304.22314,W,0.0,0.0,230419,,,A*7C
$GNGSA,A,3,19,12,06,24,17,14,02,,,,,,1.4,0.8,1.1*2B
$GNGSA,A,3,82,79,80,73,,,,,,,,,1.4,0.8,1.1*29
$PSIWMPVT,6950.080,257890.999,3,49.1726750,-123.0703857,1.221,0.012,0.003,0.001,7.071,4.743,32.383,0.612,0.000,0.000,39.185,0.090,11,*0E
$PSIWMMPU,6950.250,-0.44167,0.33544,-9.99571,-0.57068,-0.35400,-0.23499,*22
$PSIWMMPU,6950.450,-0.47038,0.33927,-10.01581,-0.50049,-0.37231,-0.28992,*1C
$PSIWMMPU,6950.650,-0.44071,0.33975,-10.02155,-0.53406,-0.35706,-0.24719,*17
$PSIWMPOS,015550.650,4910.36050,N,12304.22314,W,8.05,1.22,M,5.69,0,8,0,2,0,*61
$PSIWMATT,015550.650,261.5,T,-1.5,-6.4,180.0,*7F
$PSIWMVEL,015550.650,261.5,T,0.0,K,-0.00,M,*77
$PSIWMMPU,6950.850,-0.44693,0.33400,-10.03591,-0.54626,-0.31128,-0.24109,*1F
$GPGGA,233754.000,4910.36050,N,12304.22314,W,1,11,0.8,001.22,M,-16.8,M,,*5F
$GPRMC,233754.000,A,4910.36050,N,12304.22314,W,0.0,0.0,230419,,,A*7B
$PSIWMMPU,6951.050,-0.41200,0.33975,-9.99906,-0.56763,-0.36621,-0.30212,*2C
$GNGSA,A,3,19,12,06,24,17,14,02,,,,,,1.4,0.8,1.1*2B
$GNGSA,A,3,82,79,80,73,,,,,,,,,1.4,0.8,1.1*29
$PSIWMPVT,6951.080,257891.999,3,49.1726750,-123.0703857,1.221,-0.002,0.010,0.002,7.106,4.743,33.598,0.612,0.000,0.000,40.686,0.059,11,*20
$PSIWMMPU,6951.250,-0.45076,0.33353,-10.02155,-0.57678,-0.35400,-0.30518,*16
$PSIWMMPU,6951.450,-0.45459,0.33257,-10.02299,-0.53406,-0.36926,-0.30518,*1A
$PSIWMMPU,6951.650,-0.44646,0.34214,-10.02730,-0.55237,-0.38452,-0.24109,*10
$PSIWMPOS,015551.650,4910.36050,N,12304.22314,W,8.05,1.22,M,5.69,0,8,0,2,0,*60
$PSIWMATT,015551.650,261.5,T,-1.5,-6.4,180.0,*7E
$PSIWMVEL,015551.650,261.5,T,0.0,K,-0.00,M,*76
$PSIWMMPU,6951.850,-0.44598,0.33831,-10.01581,-0.52185,-0.31738,-0.28381,*1A
$PSIWMMPU,6952.050,-0.46464,0.31917,-10.03064,-0.57068,-0.35400,-0.32349,*1E
$GPGGA,233755.000,4910.36067,N,12304.22392,W,1,11,0.8,001.75,M,-16.8,M,,*56
$GPRMC,233755.000,A,4910.36067,N,12304.22392,W,0.0,0.0,230419,,,A*70
$GNGSA,A,3,19,12,06,24,17,14,02,,,,,,1.4,0.8,1.1*2B
$GNGSA,A,3,82,79,80,73,,,,,,,,,1.4,0.8,1.1*29
$PSIWMPVT,6952.080,257893.000,3,49.1726778,-123.0703987,1.753,-0.008,0.002,-0.004,6.782,4.301,34.340,0.612,0.000,0.000,41.589,0.070,11,*07
$PSIWMMPU,6952.250,-0.45076,0.34214,-10.01725,-0.48218,-0.34790,-0.28992,*12
$PSIWMMPU,6952.450,-0.43066,0.32061,-10.03304,-0.61340,-0.31128,-0.26245,*18
$PSIWMMPU,6952.650,-0.43354,0.33735,-10.02490,-0.56763,-0.30212,-0.26855,*15
$PSIWMPOS,015552.650,4910.36067,N,12304.22392,W,7.30,1.75,M,5.16,0,8,0,2,0,*6A
$PSIWMATT,015552.650,261.5,T,-1.5,-6.4,180.0,*7D
$PSIWMVEL,015552.650,261.5,T,0.0,K,-0.00,M,*75
$PSIWMMPU,6952.850,-0.44837,0.33735,-10.02825,-0.53711,-0.37537,-0.32349,*14
$PSIWMMPU,6953.050,-0.43210,0.33496,-10.04548,-0.50659,-0.36316,-0.35095,*10
$GPGGA,233756.000,4910.36067,N,12304.22392,W,1,11,0.8,001.75,M,-16.8,M,,*55
$GPRMC,233756.000,A,4910.36067,N,12304.22392,W,0.0,0.0,230419,,,A*73
$GNGSA,A,3,19,12,06,24,17,14,02,,,,,,1.4,0.8,1.1*2B
$GNGSA,A,3,82,79,80,73,,,,,,,,,1.4,0.8,1.1*29
$PSIWMPVT,6953.080,257893.999,3,49.1726778,-123.0703987,1.753,-0.011,0.006,-0.003,6.782,4.359,35.141,0.612,0.000,0.000,42.550,0.031,11,*09
$PSIWMMPU,6953.250,-0.45507,0.32587,-10.01629,-0.55542,-0.31738,-0.29297,*1A
$PSIWMMPU,6953.450,-0.42827,0.32348,-10.04069,-0.53711,-0.32043,-0.28381,*1B
$PSIWMMPU,6953.650,-0.46129,0.31534,-10.02395,-0.54626,-0.39062,-0.28076,*13
$PSIWMPOS,015553.650,4910.36067,N,12304.22392,W,7.40,1.75,M,5.23,0,8,0,2,0,*6A
$PSIWMATT,015553.650,261.5,T,-1.5,-6.4,180.0,*7C
$PSIWMVEL,015553.650,261.5,T,0.0,K,-0.00,M,*74
$PSIWMMPU,6953.850,-0.43976,0.31965,-10.01198,-0.57068,-0.34790,-0.27466,*1C
$PSIWMMPU,6954.050,-0.44550,0.33305,-10.03208,-0.54932,-0.32349,-0.29907,*1D
$GPGGA,233757.000,4910.36067,N,12304.22392,W,1,11,0.8,001.75,M,-16.8,M,,*54
$GPRMC,233757.000,A,4910.36067,N,12304.22392,W,0.0,0.0,230419,,,A*72
$GNGSA,A,3,19,12,06,24,17,14,02,,,,,,1.4,0.8,1.1*2B
$GNGSA,A,3,82,79,80,73,,,,,,,,,1.4,0.8,1.1*29
$PSIWMPVT,6954.080,257894.999,3,49.1726778,-123.0703987,1.753,0.002,0.011,-0.007,6.782,4.359,35.469,0.612,0.000,0.000,42.863,0.035,11,*22
$PSIWMMPU,6954.250,-0.45028,0.32587,-10.02012,-0.53101,-0.39368,-0.31738,*1D
$PSIWMMPU,6954.450,-0.46225,0.33018,-10.02825,-0.53711,-0.39062,-0.31433,*1F
$PSIWMMPU,6954.650,-0.44598,0.33927,-10.02060,-0.51575,-0.30212,-0.26550,*1E
$PSIWMPOS,015554.650,4910.36067,N,12304.22392,W,7.40,1.75,M,5.23,0,8,0,2,0,*6D
$PSIWMATT,015554.650,261.5,T,-1.5,-6.4,180.0,*7B
$PSIWMVEL,015554.650,261.5,T,0.0,K,-0.00,M,*73
$PSIWMMPU,6954.850,-0.43880,0.31438,-10.02777,-0.55847,-0.33875,-0.32654,*11
$PSIWMMPU,6955.050,-0.45172,0.34597,-10.02634,-0.60120,-0.33569,-0.28381,*15
$GPGGA,233758.000,4910.36067,N,12304.22392,W,1,11,0.8,001.75,M,-16.8,M,,*5B
$GPRMC,233758.000,A,4910.36067,N,12304.22392,W,0.0,0.0,230419,,,A*7D
$GNGSA,A,3,19,12,06,24,17,14,02,,,,,,1.4,0.8,1.1*2B
$GNGSA,A,3,82,79,80,73,,,,,,,,,1.4,0.8,1.1*29
$PSIWMPVT,6955.080,257895.999,3,49.1726778,-123.0703987,1.753,0.003,0.005,-0.005,6.782,4.359,35.547,0.612,0.000,0.000,42.964,0.043,11,*2E
$PSIWMMPU,6955.250,-0.45459,0.33496,-9.99715,-0.55237,-0.33264,-0.26550,*29
$PSIWMMPU,6955.450,-0.45076,0.33592,-10.02969,-0.54321,-0.35400,-0.28687,*1E
$PSIWMMPU,6955.650,-0.44071,0.32922,-10.05313,-0.55237,-0.31738,-0.27771,*10
$PSIWMPOS,015555.650,4910.36067,N,12304.22392,W,7.40,1.75,M,5.23,0,8,0,2,0,*6C
$PSIWMATT,015555.650,261.5,T,-1.5,-6.4,180.0,*7A
$PSIWMVEL,015555.650,261.5,T,0.0,K,-0.00,M,*72
$PSIWMMPU,6955.850,-0.44311,0.34597,-10.04596,-0.56763,-0.34790,-0.28992,*19
$PSIWMMPU,6956.050,-0.43354,0.31821,-10.04117,-0.55847,-0.39062,-0.30518,*16
$GPGGA,233759.000,4910.36067,N,12304.22392,W,1,11,0.8,001.75,M,-16.8,M,,*5A
$GPRMC,233759.000,A,4910.36067,N,12304.22392,W,0.0,0.0,230419,,,A*7C
$GNGSA,A,3,19,12,06,24,17,14,02,,,,,,1.4,0.8,1.1*2B
$GNGSA,A,3,82,79,80,73,,,,,,,,,1.4,0.8,1.1*29
$PSIWMPVT,6956.080,257897.000,3,49.1726778,-123.0703987,1.753,-0.002,0.008,-0.007,6.782,4.359,35.148,0.612,0.000,0.000,42.474,0.031,11,*07
$PSIWMMPU,6956.250,-0.43976,0.34262,-10.00768,-0.54016,-0.32959,-0.32349,*1B
$PSIWMMPU,6956.450,-0.42971,0.31869,-10.02825,-0.54016,-0.37231,-0.29907,*11
$PSIWMMPU,6956.650,-0.45603,0.30769,-10.06079,-0.60120,-0.30518,-0.29297,*1F
$PSIWMPOS,015556.650,4910.36067,N,12304.22392,W,7.40,1.75,M,5.23,0,8,0,2,0,*6F
$PSIWMATT,015556.650,261.5,T,-1.5,-6.4,180.0,*79
$PSIWMVEL,015556.650,261.5,T,0.0,K,-0.00,M,*71
$PSIWMMPU,6956.850,-0.44980,0.33975,-10.02203,-0.57068,-0.40894,-0.30823,*15
$PSIWMMPU,6957.050,-0.41248,0.32061,-10.01007,-0.63171,-0.33875,-0.32654,*17
$GPGGA,233800.000,4910.36067,N,12304.22392,W,1,11,0.8,001.75,M,-16.8,M,,*59
$GPRMC,233800.000,A,4910.36067,N,12304.22392,W,0.0,0.0,230419,,,A*7F
$GNGSA,A,3,19,12,06,24,17,14,02,,,,,,1.4,0.8,1.1*2B
$GNGSA,A,3,82,79,80,73,,,,,,,,,1.4,0.8,1.1*29
$PSIWMPVT,6957.080,257897.999,3,49.1726778,-123.0703987,1.753,0.008,0.015,-0.000,6.819,4.359,34.930,0.612,0.000,0.000,42.205,0.016,11,*2D
$PSIWMMPU,6957.250,-0.43306,0.32587,-10.01772,-0.57068,-0.32349,-0.26245,*1E
$PSIWMMPU,6957.450,-0.45507,0.33257,-10.03926,-0.52185,-0.38452,-0.26550,*1C
$PSIWMMPU,6957.650,-0.45028,0.33640,-10.04213,-0.57373,-0.36316,-0.28992,*15
$PSIWMPOS,015557.650,4910.36067,N,12304.22392,W,7.40,1.75,M,5.23,0,8,0,2,0,*6E
$PSIWMATT,015557.650,261.5,T,-1.5,-6.4,180.0,*78
$PSIWMVEL,015557.650,261.5,T,0.0,K,-0.00,M,*70
$PSIWMMPU,6957.850,-0.44167,0.34070,-10.05361,-0.51575,-0.34790,-0.32043,*17
$PSIWMMPU,6958.050,-0.45794,0.34357,-10.02873,-0.57678,-0.38147,-0.26245,*1B
$GPGGA,233801.000,4910.36067,N,12304.22392,W,1,11,0.8,001.75,M,-16.8,M,,*58
$GPRMC,233801.000,A,4910.36067,N,12304.22392,W,0.0,0.0,230419,,,A*7E
$GNGSA,A,3,19,12,06,24,17,14,02,,,,,,1.4,0.8,1.1*2B
$GNGSA,A,3,82,79,80,73,,,,,,,,,1.4,0.8,1.1*29
$PSIWMPVT,6958.080,257898.999,3,49.1726778,-123.0703987,1.753,-0.000,0.009,0.003,6.819,4.416,35.582,0.612,0.000,0.000,43.002,0.051,11,*24
$PSIWMMPU,6958.250,-0.44980,0.32539,-10.03208,-0.51270,-0.35095,-0.24719,*1B
$PSIWMMPU,6958.450,-0.45268,0.34166,-10.01916,-0.55237,-0.31738,-0.32654,*13
$PSIWMMPU,6958.650,-0.42062,0.32061,-10.04213,-0.60730,-0.35400,-0.25940,*11
$PSIWMPOS,015558.650,4910.36067,N,12304.22392,W,7.49,1.75,M,5.30,0,8,0,2,0,*6A
$PSIWMATT,015558.650,261.5,T,-1.5,-6.4,180.0,*77
$PSIWMVEL,015558.650,261.5,T,0.0,K,-0.00,M,*7F
$PSIWMMPU,6958.850,-0.43354,0.33735,-10.01437,-0.57983,-0.38147,-0.30518,*16
$GPGGA,233802.000,4910.36067,N,12304.22392,W,1,11,0.8,001.75,M,-16.8,M,,*5B
$PSIWMMPU,6959.050,-0.43688,0.32013,-10.04069,-0.54016,-0.33875,-0.26855,*15
$GPRMC,233802.000,A,4910.36067,N,12304.22392,W,0.0,0.0,230419,,,A*7D
$GNGSA,A,3,19,12,06,24,17,14,02,,,,,,1.4,0.8,1.1*2B
$GNGSA,A,3,82,79,80,73,,,,,,,,,1.4,0.8,1.1*29
$PSIWMPVT,6959.080,257899.999,3,49.1726778,-123.0703987,1.753,-0.001,0.014,0.006,6.819,4.416,35.719,0.612,0.000,0.000,43.168,0.008,11,*2D
$PSIWMMPU,6959.250,-0.43449,0.34166,-10.04309,-0.54626,-0.32959,-0.26855,*13
$PSIWMMPU,6959.450,-0.44454,0.34070,-10.04548,-0.60730,-0.35706,-0.27161,*16
$PSIWMMPU,6959.650,-0.44263,0.32730,-10.02490,-0.53406,-0.33264,-0.25635,*14
$PSIWMPOS,015559.650,4910.36067,N,12304.22392,W,7.49,1.75,M,5.30,0,8,0,2,0,*6B
$PSIWMATT,015559.650,261.5,T,-1.5,-6.4,180.0,*76
$PSIWMVEL,015559.650,261.5,T,0.0,K,-0.00,M,*7E
$PSIWMMPU,6959.850,-0.44215,0.33975,-10.04069,-0.52795,-0.33569,-0.28076,*1F
$PSIWMMPU,6960.050,-0.44550,0.33257,-10.00815,-0.53101,-0.36316,-0.33569,*17
$GPGGA,233803.000,4910.36067,N,12304.22392,W,1,11,0.8,001.75,M,-16.8,M,,*5A
$GPRMC,233803.000,A,4910.36067,N,12304.22392,W,0.0,0.0,230419,,,A*7C
$GNGSA,A,3,19,12,06,24,17,14,02,,,,,,1.4,0.8,1.1*2B
$GNGSA,A,3,82,79,80,73,,,,,,,,,1.4,0.8,1.1*29
$PSIWMPVT,6960.080,257901.000,3,49.1726778,-123.0703987,1.753,-0.001,-0.001,0.005,6.819,4.416,36.473,0.612,0.000,0.000,44.079,0.016,11,*01
$PSIWMMPU,6960.250,-0.45220,0.32491,-10.04356,-0.58289,-0.33875,-0.29297,*1F
$PSIWMMPU,6960.450,-0.44550,0.32108,-10.02251,-0.57678,-0.36621,-0.24719,*1C
$PSIWMMPU,6960.650,-0.43401,0.31104,-10.00911,-0.49133,-0.35400,-0.25940,*18
$PSIWMPOS,015600.650,4910.36067,N,12304.22392,W,7.49,1.75,M,5.30,0,8,0,2,0,*64
$PSIWMATT,015600.650,261.5,T,-1.5,-6.4,180.0,*79
$PSIWMVEL,015600.650,261.5,T,0.0,K,-0.00,M,*71
$PSIWMMPU,6960.850,-0.46129,0.33161,-10.01150,-0.53711,-0.31433,-0.27161,*11
$GPGGA,233804.000,4910.36067,N,12304.22392,W,1,11,0.8,001.75,M,-16.8,M,,*5D
$GPRMC,233804.000,A,4910.36067,N,12304.22392,W,0.0,0.0,230419,,,A*7B
$PSIWMMPU,6961.050,-0.44358,0.32396,-10.05744,-0.51270,-0.33875,-0.27771,*19
$GNGSA,A,3,19,12,06,24,17,14,02,,,,,,1.4,0.8,1.1*2B
$GNGSA,A,3,82,79,80,73,,,,,,,,,1.4,0.8,1.1*29
$PSIWMPVT,6961.080,257902.000,3,49.1726778,-123.0703987,1.753,0.002,0.013,0.004,6.819,4.416,36.957,0.612,0.000,0.000,44.765,0.020,11,*06
$PSIWMMPU,6961.250,-0.45363,0.31965,-10.01485,-0.50659,-0.34485,-0.31128,*1A
$PSIWMMPU,6961.450,-0.44933,0.32204,-10.02442,-0.61340,-0.30823,-0.28381,*17
$PSIWMMPU,6961.650,-0.43066,0.31247,-10.03782,-0.57373,-0.37842,-0.30518,*1B
$PSIWMPOS,015601.650,4910.36067,N,12304.22392,W,7.49,1.75,M,5.30,0,8,0,2,0,*65
$PSIWMATT,015601.650,261.5,T,-1.5,-6.4,180.0,*78
$PSIWMVEL,015601.650,261.5,T,0.0,K,-0.00,M,*70
$PSIWMMPU,6961.850,-0.43688,0.32683,-10.01581,-0.53406,-0.37231,-0.29297,*18
$PSIWMMPU,6962.050,-0.45555,0.34214,-9.98279,-0.61951,-0.32349,-0.30212,*22
$GPGGA,233805.000,4910.36067,N,12304.22392,W,1,11,0.8,001.75,M,-16.8,M,,*5C
$GPRMC,233805.000,A,4910.36067,N,12304.22392,W,0.0,0.0,230419,,,A*7A
$GNGSA,A,3,19,12,06,24,17,14,02,,,,,,1.4,0.8,1.1*2B
$GNGSA,A,3,82,79,80,73,,,,,,,,,1.4,0.8,1.1*29
$PSIWMPVT,6962.080,257902.999,3,49.1726778,-123.0703987,1.753,0.001,0.016,0.004,6.856,4.416,36.715,0.612,0.000,0.000,45.272,0.043,11,*0E
$PSIWMMPU,6962.250,-0.43162,0.33783,-10.02825,-0.54932,-0.30823,-0.24719,*1F
$PSIWMMPU,6962.450,-0.45124,0.35362,-10.03926,-0.51880,-0.34790,-0.28381,*14
$PSIWMMPU,6962.650,-0.45076,0.31821,-10.02347,-0.56763,-0.37231,-0.28076,*17
$PSIWMPOS,015602.650,4910.36067,N,12304.22392,W,7.49,1.75,M,5.30,0,8,0,2,0,*66
$PSIWMATT,015602.650,261.5,T,-1.5,-6.4,180.0,*7B
$PSIWMVEL,015602.650,261.5,T,0.0,K,-0.00,M,*73
$PSIWMMPU,6962.850,-0.44023,0.34262,-10.00098,-0.52795,-0.32654,-0.31738,*19
$GPGGA,233806.000,4910.36067,N,12304.22392,W,1,10,0.8,001.75,M,-16.8,M,,*5E
$GPRMC,233806.000,A,4910.36067,N,12304.22392,W,0.0,0.0,230419,,,A*79
$GNGSA,A,3,19,12,06,24,17,02,,,,,,,1.4,0.8,1.1*2E
$PSIWMMPU,6963.050,-0.42827,0.33353,-10.00528,-0.57983,-0.30212,-0.28687,*15
$GNGSA,A,3,82,79,80,73,,,,,,,,,1.4,0.8,1.1*29
$PSIWMPVT,6963.070,257903.999,3,49.1726778,-123.0703987,1.753,0.004,0.012,0.006,6.856,4.472,34.672,0.612,0.000,0.000,41.061,0.016,10,*07
$PSIWMMPU,6963.250,-0.45220,0.33783,-10.03687,-0.52490,-0.36316,-0.26855,*17
$PSIWMMPU,6963.450,-0.44263,0.33065,-10.03065,-0.50659,-0.29602,-0.26245,*12
$PSIWMMPU,6963.650,-0.47038,0.32874,-10.03017,-0.56763,-0.36926,-0.24109,*13
$PSIWMPOS,015603.650,4910.36067,N,12304.22392,W,7.59,1.75,M,5.37,0,8,0,2,0,*61
$PSIWMATT,015603.650,261.5,T,-1.5,-6.4,180.0,*7A
$PSIWMVEL,015603.650,261.5,T,0.0,K,-0.00,M,*72
$PSIWMMPU,6963.850,-0.44693,0.33783,-10.05074,-0.50659,-0.35400,-0.28992,*1E
$GPGGA,233807.000,4910.36067,N,12304.22392,W,1,10,0.8,001.75,M,-16.8,M,,*5F
$GPRMC,233807.000,A,4910.36067,N,12304.22392,W,0.0,0.0,230419,,,A*78
$GNGSA,A,3,19,12,06,24,17,02,,,,,,,1.4,0.8,1.1*2E
$GNGSA,A,3,82,79,80,73,,,,,,,,,1.4,0.8,1.1*29
$PSIWMMPU,6964.050,-0.46560,0.31917,-10.01820,-0.50049,-0.34790,-0.34180,*1A
$PSIWMPVT,6964.070,257905.000,3,49.1726778,-123.0703987,1.753,-0.013,0.005,0.001,6.856,4.472,35.059,0.612,0.000,0.000,41.527,0.051,10,*2F
$PSIWMMPU,6964.250,-0.45603,0.33209,-10.01677,-0.55847,-0.40283,-0.27466,*1F
$PSIWMMPU,6964.450,-0.45746,0.34597,-10.03017,-0.54932,-0.37842,-0.30823,*12
$PSIWMMPU,6964.650,-0.45985,0.33209,-10.01964,-0.56458,-0.34790,-0.34180,*1D
$PSIWMPOS,015604.650,4910.36067,N,12304.22392,W,7.59,1.75,M,5.37,0,8,0,2,0,*66
$PSIWMATT,015604.650,261.5,T,-1.5,-6.4,180.0,*7D
$PSIWMVEL,015604.650,261.5,T,0.0,K,-0.00,M,*75
$PSIWMMPU,6964.850,-0.44598,0.32922,-10.05218,-0.56152,-0.37537,-0.30518,*17
$GPGGA,233808.000,4910.36067,N,12304.22392,W,1,10,0.8,001.75,M,-16.8,M,,*50
$GPRMC,233808.000,A,4910.36067,N,12304.22392,W,0.0,0.0,230419,,,A*77
$GNGSA,A,3,19,12,06,24,17,02,,,,,,,1.4,0.8,1.1*2E
$PSIWMMPU,6965.050,-0.46990,0.34979,-10.05122,-0.54626,-0.39062,-0.31433,*1E
$GNGSA,A,3,82,79,80,73,,,,,,,,,1.4,0.8,1.1*29
$PSIWMPVT,6965.070,257906.000,3,49.1726778,-123.0703987,1.753,-0.012,0.010,-0.003,6.856,4.472,34.785,0.612,0.000,0.000,41.238,0.031,10,*0F
$PSIWMMPU,6965.250,-0.44023,0.33353,-10.04835,-0.56152,-0.34485,-0.29602,*1B
$PSIWMMPU,6965.450,-0.44933,0.33688,-10.02921,-0.57068,-0.35706,-0.29602,*14
$PSIWMMPU,6965.650,-0.43880,0.33735,-9.99954,-0.57983,-0.42114,-0.32959,*25
$PSIWMPOS,015605.650,4910.36067,N,12304.22392,W,7.59,1.75,M,5.37,0,8,0,2,0,*67
$PSIWMATT,015605.650,261.5,T,-1.5,-6.4,180.0,*7C
$PSIWMVEL,015605.650,261.5,T,0.0,K,-0.00,M,*74
$PSIWMMPU,6965.850,-0.45746,0.33688,-10.02538,-0.54321,-0.37842,-0.36011,*1B
$GPGGA,233809.000,4910.36067,N,12304.22392,W,1,10,0.8,001.75,M,-16.8,M,,*51
$GPRMC,233809.000,A,4910.36067,N,12304.22392,W,0.0,0.0,230419,,,A*76
$PSIWMMPU,6966.050,-0.44119,0.35123,-10.01772,-0.58594,-0.36011,-0.30212,*1E
$GNGSA,A,3,19,12,06,24,17,02,,,,,,,1.4,0.8,1.1*2E
$GNGSA,A,3,82,79,80,73,,,,,,,,,1.4,0.8,1.1*29
$PSIWMPVT,6966.070,257906.999,3,49.1726778,-123.0703987,1.753,-0.008,-0.000,-0.001,6.856,4.472,34.055,0.612,0.000,0.000,40.394,0.074,10,*2D
$PSIWMMPU,6966.250,-0.43545,0.33783,-10.05505,-0.53406,-0.29602,-0.26855,*1F
$PSIWMMPU,6966.450,-0.44358,0.35554,-10.03352,-0.54626,-0.34790,-0.34790,*1C
$PSIWMMPU,6966.650,-0.43688,0.32300,-10.01438,-0.57068,-0.34485,-0.29907,*1C
$PSIWMPOS,015606.650,4910.36067,N,12304.22392,W,7.59,1.75,M,5.37,0,8,0,2,0,*64
$PSIWMATT,015606.650,261.5,T,-1.5,-6.4,180.0,*7F
$PSIWMVEL,015606.650,261.5,T,0.0,K,-0.00,M,*77
$PSIWMMPU,6966.850,-0.45603,0.34022,-10.00911,-0.54932,-0.34485,-0.32349,*1A
$GPGGA,233810.000,4910.36067,N,12304.22392,W,1,10,0.8,001.75,M,-16.8,M,,*59
$GPRMC,233810.000,A,4910.36067,N,12304.22392,W,0.0,0.0,230419,,,A*7E
$GNGSA,A,3,19,12,06,24,17,02,,,,,,,1.4,0.8,1.1*2E
$PSIWMMPU,6967.050,-0.44071,0.31534,-10.06701,-0.54932,-0.31433,-0.26245,*1F
$GNGSA,A,3,82,79,80,73,,,,,,,,,1.4,0.8,1.1*29
$PSIWMPVT,6967.070,257907.999,3,49.1726778,-123.0703987,1.753,-0.011,-0.004,-0.011,6.892,4.472,34.090,0.612,0.000,0.000,40.591,0.078,10,*2E
$PSIWMMPU,6967.250,-0.44406,0.33065,-10.01868,-0.57983,-0.37231,-0.32043,*17
$PSIWMMPU,6967.450,-0.44646,0.34357,-10.01916,-0.56152,-0.34790,-0.25024,*15
$PSIWMMPU,6967.650,-0.45315,0.33400,-10.02538,-0.57983,-0.35400,-0.30823,*11
$PSIWMPOS,015607.650,4910.36067,N,12304.22392,W,7.59,1.75,M,5.37,0,8,0,2,0,*65
$PSIWMATT,015607.650,261.5,T,-1.5,-6.4,180.0,*7E
$PSIWMVEL,015607.650,261.5,T,0.0,K,-0.00,M,*76
$PSIWMMPU,6967.850,-0.43162,0.33879,-10.03399,-0.55542,-0.33569,-0.27466,*15
$GPGGA,233811.000,4910.36067,N,12304.22392,W,1,10,0.8,001.75,M,-16.8,M,,*58
$GPRMC,233811.000,A,4910.36067,N,12304.22392,W,0.0,0.0,230419,,,A*7F
$PSIWMMPU,6968.050,-0.44358,0.32156,-10.05457,-0.50354,-0.32349,-0.31433,*1E
$GNGSA,A,3,19,12,06,24,17,02,,,,,,,1.4,0.8,1.1*2E
$GNGSA,A,3,82,79,80,73,,,,,,,,,1.4,0.8,1.1*29
$PSIWMPVT,6968.080,257909.000,3,49.1726778,-123.0703987,1.753,-0.008,-0.011,-0.014,6.892,4.528,34.266,0.612,0.000,0.000,40.903,0.035,10,*2B
$PSIWMMPU,6968.250,-0.44311,0.32874,-10.01055,-0.54016,-0.35400,-0.26245,*17
$PSIWMMPU,6968.450,-0.43019,0.34597,-10.02395,-0.50354,-0.34485,-0.27161,*1E
$PSIWMMPU,6968.650,-0.44311,0.33305,-10.01773,-0.49133,-0.33875,-0.28992,*11
$PSIWMPOS,015608.650,4910.36067,N,12304.22392,W,7.68,1.75,M,5.43,0,8,0,2,0,*6B
$PSIWMATT,015608.650,261.5,T,-1.5,-6.4,180.0,*71
$PSIWMVEL,015608.650,261.5,T,0.0,K,-0.00,M,*79
$PSIWMMPU,6968.850,-0.44933,0.33065,-10.02682,-0.57983,-0.32959,-0.26245,*11
$GPGGA,233812.000,4910.36067,N,12304.22392,W,1,10,0.8,001.75,M,-16.8,M,,*5B
$GPRMC,233812.000,A,4910.36067,N,12304.22392,W,0.0,0.0,230419,,,A*7C
$GNGSA,A,3,19,12,06,24,17,02,,,,,,,1.4,0.8,1.1*2E
$PSIWMMPU,6969.050,-0.44358,0.33831,-10.00768,-0.53406,-0.35095,-0.25940,*16
$GNGSA,A,3,82,79,80,73,,,,,,,,,1.4,0.8,1.1*29
$PSIWMPVT,6969.070,257910.000,3,49.1726778,-123.0703987,1.753,-0.005,0.000,-0.017,6.892,4.528,33.473,0.612,0.000,0.000,39.946,0.145,10,*02
$PSIWMMPU,6969.250,-0.44311,0.34022,-10.03352,-0.52795,-0.38147,-0.28076,*10
$PSIWMMPU,6969.450,-0.44454,0.35123,-10.01629,-0.53711,-0.36011,-0.29297,*17
$PSIWMMPU,6969.650,-0.45363,0.31295,-10.03543,-0.55542,-0.39062,-0.28992,*16
$PSIWMPOS,015609.650,4910.36067,N,12304.22392,W,7.68,1.75,M,5.43,0,8,0,2,0,*6A
$PSIWMATT,015609.650,261.5,T,-1.5,-6.4,180.0,*70
$PSIWMVEL,015609.650,261.5,T,0.0,K,-0.00,M,*78
$PSIWMMPU,6969.850,-0.44215,0.33735,-10.04500,-0.50659,-0.32654,-0.32654,*1E
$GPGGA,233813.000,4910.36067,N,12304.22392,W,1,10,0.8,001.75,M,-16.8,M,,*5A
$GPRMC,233813.000,A,4910.36067,N,12304.22392,W,0.0,0.0,230419,,,A*7D
$GNGSA,A,3,19,12,06,24,17,14,02,,,,,,1.4,0.8,1.1*2B
$PSIWMMPU,6970.050,-0.44646,0.34022,-10.03400,-0.54626,-0.42419,-0.28076,*11
$GNGSA,A,3,82,80,73,,,,,,,,,,1.4,0.8,1.1*27
$PSIWMPVT,6970.070,257911.000,3,49.1726778,-123.0703987,1.753,0.001,0.011,-0.014,6.892,4.528,41.898,0.612,0.000,0.000,60.298,0.242,10,*2D
$PSIWMMPU,6970.250,-0.43832,0.33783,-10.01533,-0.56763,-0.32654,-0.27771,*10
$PSIWMMPU,6970.450,-0.45890,0.35171,-10.02634,-0.53406,-0.36926,-0.28992,*15
$PSIWMMPU,6970.650,-0.43449,0.34166,-10.04979,-0.54016,-0.33264,-0.28992,*14
$PSIWMPOS,015610.650,4910.36067,N,12304.22392,W,8.96,1.75,M,6.34,0,8,0,2,0,*6F
$PSIWMATT,015610.650,261.5,T,-1.5,-6.3,180.0,*7F
$PSIWMVEL,015610.650,261.5,T,0.0,K,-0.00,M,*70
$PSIWMMPU,6970.850,-0.43976,0.34788,-10.03065,-0.52795,-0.32349,-0.32654,*15
$GPGGA,233814.000,4910.36067,N,12304.22392,W,1,10,0.8,001.75,M,-16.8,M,,*5D
$GPRMC,233814.000,A,4910.36067,N,12304.22392,W,0.0,0.0,230419,,,A*7A
$PSIWMMPU,6971.050,-0.43688,0.34070,-10.02299,-0.57983,-0.31738,-0.31128,*10
$GNGSA,A,3,19,12,06,24,17,02,25,,,,,,1.4,0.8,1.1*29
$GNGSA,A,3,82,80,73,,,,,,,,,,1.4,0.8,1.1*27
$PSIWMPVT,6971.070,257912.000,3,49.1726778,-123.0703987,1.753,-0.002,-0.013,-0.018,6.892,4.528,44.551,0.612,0.000,0.000,59.907,0.227,10,*2B
$PSIWMMPU,6971.250,-0.45698,0.34453,-10.00863,-0.54626,-0.35095,-0.27466,*12
$PSIWMMPU,6971.450,-0.44023,0.33018,-10.00481,-0.58899,-0.36926,-0.26550,*1E
$PSIWMMPU,6971.650,-0.44215,0.35123,-10.02682,-0.50354,-0.37537,-0.34180,*12
$PSIWMPOS,015611.650,4910.36067,N,12304.22392,W,8.96,1.75,M,6.34,0,8,0,2,0,*6E
$PSIWMATT,015611.650,261.5,T,-1.5,-6.3,180.0,*7E
$PSIWMVEL,015611.650,261.5,T,0.0,K,-0.00,M,*71
$PSIWMMPU,6971.850,-0.45268,0.33975,-10.02921,-0.54626,-0.35400,-0.26855,*1D
$GPGGA,233815.000,4910.36067,N,12304.22392,W,1,11,0.8,001.75,M,-16.8,M,,*5D
$GPRMC,233815.000,A,4910.36067,N,12304.22392,W,0.0,0.0,230419,,,A*7B
$PSIWMMPU,6972.050,-0.43928,0.34118,-10.01581,-0.54321,-0.36621,-0.29602,*1D
$GNGSA,A,3,19,12,06,24,17,02,25,,,,,,1.4,0.8,1.1*29
$GNGSA,A,3,82,79,80,73,,,,,,,,,1.4,0.8,1.1*29
$PSIWMPVT,6972.070,257913.000,3,49.1726778,-123.0703987,1.753,-0.003,0.006,-0.020,6.928,4.528,44.098,0.612,0.000,0.000,59.419,0.070,11,*09
$PSIWMMPU,6972.250,-0.44741,0.35937,-10.01916,-0.55847,-0.31433,-0.28076,*17
$PSIWMMPU,6972.450,-0.43688,0.33353,-10.02586,-0.58289,-0.33569,-0.30212,*1A
$PSIWMMPU,6972.650,-0.45746,0.32443,-10.01964,-0.50659,-0.30823,-0.25940,*10
$PSIWMPOS,015612.650,4910.36067,N,12304.22392,W,8.96,1.75,M,6.34,0,8,0,2,0,*6D
$PSIWMATT,015612.650,261.5,T,-1.5,-6.3,180.0,*7D
$PSIWMVEL,015612.650,261.5,T,0.0,K,-0.00,M,*72
$PSIWMMPU,6972.850,-0.44502,0.34022,-10.05505,-0.54932,-0.41199,-0.36316,*14
$GPGGA,233816.000,4910.36067,N,12304.22392,W,1,11,0.8,001.75,M,-16.8,M,,*5E
$GPRMC,233816.000,A,4910.36067,N,12304.22392,W,0.0,0.0,230419,,,A*78
$PSIWMMPU,6973.050,-0.43306,0.34166,-10.02538,-0.57678,-0.37231,-0.21667,*17
$GNGSA,A,3,19,12,06,24,17,02,25,,,,,,1.4,0.8,1.1*29
$GNGSA,A,3,82,79,80,73,,,,,,,,,1.4,0.8,1.1*29
$PSIWMPVT,6973.070,257914.000,3,49.1726778,-123.0703987,1.753,0.006,-0.003,-0.012,6.928,4.583,46.070,0.612,0.000,0.000,59.536,0.059,11,*0C
$PSIWMMPU,6973.250,-0.44311,0.33018,-10.01390,-0.50659,-0.39978,-0.31128,*1D
$PSIWMMPU,6973.450,-0.45603,0.32013,-10.03782,-0.54016,-0.35095,-0.32654,*13
$PSIWMMPU,6973.650,-0.47229,0.33496,-10.04117,-0.54626,-0.40283,-0.32654,*18
$PSIWMPOS,015613.650,4910.36067,N,12304.22392,W,9.07,1.75,M,6.42,0,8,0,2,0,*64
$PSIWMATT,015613.650,261.5,T,-1.5,-6.3,180.0,*7C
$PSIWMVEL,015613.650,261.5,T,0.0,K,-0.00,M,*73
$PSIWMMPU,6973.850,-0.43784,0.33831,-10.01438,-0.53101,-0.34180,-0.31738,*12
$GPGGA,233817.000,4910.36067,N,12304.22392,W,1,11,0.8,001.75,M,-16.8,M,,*5F
$GPRMC,233817.000,A,4910.36067,N,12304.22392,W,0.0,0.0,230419,,,A*79
$PSIWMMPU,6974.050,-0.44358,0.31869,-10.04356,-0.57678,-0.32959,-0.32349,*1C
$GNGSA,A,3,19,12,06,24,17,02,25,,,,,,1.4,0.8,1.1*29
$GNGSA,A,3,82,79,80,73,,,,,,,,,1.4,0.8,1.1*29
$PSIWMPVT,6974.070,257915.000,3,49.1726778,-123.0703987,1.753,-0.004,-0.015,-0.013,6.928,4.583,46.344,0.612,0.000,0.000,58.169,0.121,11,*26
$PSIWMMPU,6974.250,-0.45363,0.33018,-10.02012,-0.50049,-0.36316,-0.28076,*1C
$PSIWMMPU,6974.450,-0.46129,0.33257,-10.01055,-0.59204,-0.36011,-0.32043,*17
$PSIWMMPU,6974.650,-0.43593,0.35171,-10.05170,-0.59509,-0.33569,-0.28381,*15
$PSIWMPOS,015614.650,4910.36067,N,12304.22392,W,9.07,1.75,M,6.42,0,8,0,2,0,*63
$PSIWMATT,015614.650,261.5,T,-1.5,-6.4,180.0,*7C
$PSIWMVEL,015614.650,261.5,T,0.0,K,-0.00,M,*74
$PSIWMMPU,6974.850,-0.45172,0.33735,-10.02060,-0.59204,-0.26855,-0.31433,*1B
$GPGGA,233818.000,4910.36067,N,12304.22392,W,1,11,0.8,001.75,M,-16.8,M,,*50
$GPRMC,233818.000,A,4910.36067,N,12304.22392,W,0.0,0.0,230419,,,A*76
$PSIWMMPU,6975.050,-0.45076,0.34310,-10.00959,-0.53711,-0.34485,-0.31738,*13
$GNGSA,A,3,19,12,06,24,17,02,25,,,,,,1.4,0.8,1.1*29
$GNGSA,A,3,82,79,80,73,,,,,,,,,1.4,0.8,1.1*29
$PSIWMPVT,6975.070,257916.000,3,49.1726778,-123.0703987,1.753,-0.008,-0.014,-0.019,6.928,4.583,45.781,0.612,0.000,0.000,56.562,0.082,11,*24
$PSIWMMPU,6975.250,-0.44119,0.33783,-10.03543,-0.53101,-0.41504,-0.30518,*19
$PSIWMMPU,6975.450,-0.43688,0.33448,-10.04117,-0.56152,-0.36621,-0.27466,*18
$PSIWMMPU,6975.650,-0.44215,0.33975,-10.01390,-0.52185,-0.34485,-0.28381,*17
$PSIWMPOS,015615.650,4910.36067,N,12304.22392,W,9.07,1.75,M,6.42,0,8,0,2,0,*62
$PSIWMATT,015615.650,261.5,T,-1.5,-6.4,180.0,*7D
$PSIWMVEL,015615.650,261.5,T,0.0,K,-0.00,M,*75
$PSIWMMPU,6975.850,-0.44358,0.32204,-10.02490,-0.50354,-0.34485,-0.29297,*12
$GPGGA,233819.000,4910.36067,N,12304.22392,W,1,11,0.8,001.75,M,-16.8,M,,*51
$GPRMC,233819.000,A,4910.36067,N,12304.22392,W,0.0,0.0,230419,,,A*77
$PSIWMMPU,6976.050,-0.43832,0.32396,-10.01485,-0.55237,-0.34180,-0.34180,*1C
$GNGSA,A,3,19,12,06,24,17,02,25,,,,,,1.4,0.8,1.1*29
$GNGSA,A,3,82,79,80,73,,,,,,,,,1.4,0.8,1.1*29
$PSIWMPVT,6976.070,257917.000,3,49.1726778,-123.0703987,1.753,-0.002,-0.003,-0.022,6.928,4.583,44.000,0.612,0.000,0.000,55.130,0.094,11,*2A
$PSIWMMPU,6976.250,-0.44119,0.30960,-10.05026,-0.55237,-0.40588,-0.27466,*11
$PSIWMMPU,6976.450,-0.44167,0.32204,-10.01103,-0.53101,-0.34485,-0.27466,*18
$PSIWMMPU,6976.650,-0.44311,0.33544,-10.03112,-0.53711,-0.35706,-0.28992,*1E
$PSIWMPOS,015616.650,4910.36067,N,12304.22392,W,9.07,1.75,M,6.42,0,8,0,2,0,*61
$PSIWMATT,015616.650,261.5,T,-1.5,-6.4,180.0,*7E
$PSIWMVEL,015616.650,261.5,T,0.0,K,-0.00,M,*76
$PSIWMMPU,6976.850,-0.45746,0.33257,-10.05792,-0.53406,-0.34790,-0.30518,*16
$GPGGA,233820.000,4910.36067,N,12304.22392,W,1,10,0.8,001.75,M,-16.8,M,,*5A
$GPRMC,233820.000,A,4910.36067,N,12304.22392,W,0.0,0.0,230419,,,A*7D
$PSIWMMPU,6977.050,-0.42349,0.35841,-10.01677,-0.58899,-0.36011,-0.28992,*1C
$GNGSA,A,3,19,12,06,24,17,02,,,,,,,1.4,0.8,1.1*2E
$GNGSA,A,3,82,79,80,73,,,,,,,,,1.4,0.8,1.1*29
$PSIWMPVT,6977.070,257918.000,3,49.1726778,-123.0703987,1.753,0.002,-0.007,-0.017,6.964,4.583,30.297,0.612,0.000,0.000,35.980,0.152,10,*03
$PSIWMMPU,6977.250,-0.43641,0.34453,-10.04261,-0.55847,-0.33569,-0.25024,*12
$PSIWMMPU,6977.450,-0.44646,0.34022,-10.05026,-0.55847,-0.35706,-0.28992,*12
$PSIWMMPU,6977.650,-0.43832,0.34979,-10.03256,-0.53711,-0.38147,-0.34790,*1B
$PSIWMPOS,015617.650,4910.36067,N,12304.22392,W,9.07,1.75,M,6.42,0,8,0,2,0,*60
$PSIWMATT,015617.650,261.5,T,-1.5,-6.4,180.0,*7F
$PSIWMVEL,015617.650,261.5,T,0.0,K,-0.00,M,*77
$PSIWMMPU,6977.850,-0.44263,0.32108,-10.04452,-0.54626,-0.35400,-0.28381,*11
$GPGGA,233821.000,4910.36067,N,12304.22392,W,1,10,0.8,001.75,M,-16.8,M,,*5B
$GPRMC,233821.000,A,4910.36067,N,12304.22392,W,0.0,0.0,230419,,,A*7C
$GNGSA,A,3,19,12,06,24,17,02,,,,,,,1.4,0.8,1.1*2E
$PSIWMMPU,6978.050,-0.43593,0.34310,-10.02538,-0.53406,-0.33569,-0.30823,*1A
$GNGSA,A,3,82,79,80,73,,,,,,,,,1.4,0.8,1.1*29
$PSIWMPVT,6978.070,257919.000,3,49.1726778,-123.0703987,1.753,0.008,-0.007,-0.016,6.964,4.637,30.301,0.612,0.000,0.000,35.922,0.098,10,*0B
$PSIWMMPU,6978.250,-0.44933,0.35410,-10.01820,-0.57678,-0.40894,-0.32349,*19
$PSIWMMPU,6978.450,-0.45603,0.33209,-10.04309,-0.54932,-0.36621,-0.28076,*18
$PSIWMMPU,6978.650,-0.44789,0.33927,-10.00768,-0.59814,-0.32349,-0.31738,*1A
$PSIWMPOS,015618.650,4910.36067,N,12304.22392,W,9.18,1.75,M,6.49,0,8,0,2,0,*6A
$PSIWMATT,015618.650,261.5,T,-1.5,-6.4,180.0,*70
$PSIWMVEL,015618.650,261.5,T,0.0,K,-0.00,M,*78
$PSIWMMPU,6978.850,-0.44598,0.34118,-10.02969,-0.53101,-0.38757,-0.29297,*17
$GPGGA,233822.000,4910.36067,N,12304.22392,W,1,10,0.8,001.75,M,-16.8,M,,*58
$GPRMC,233822.000,A,4910.36067,N,12304.22392,W,0.0,0.0,230419,,,A*7F
$PSIWMMPU,6979.050,-0.46655,0.34453,-10.02586,-0.53406,-0.32654,-0.32349,*1B
$GNGSA,A,3,19,12,06,24,17,02,,,,,,,1.4,0.8,1.1*2E
$GNGSA,A,3,82,79,80,73,,,,,,,,,1.4,0.8,1.1*29
$PSIWMPVT,6979.070,257920.000,3,49.1726778,-123.0703987,1.753,0.012,-0.006,-0.012,6.964,4.637,30.867,0.612,0.000,0.000,36.632,0.109,10,*01
$PSIWMMPU,6979.250,-0.43928,0.32970,-10.02203,-0.55542,-0.30823,-0.29907,*18
$PSIWMMPU,6979.450,-0.43593,0.32826,-10.01629,-0.50964,-0.34180,-0.29602,*1C
$PSIWMMPU,6979.650,-0.44071,0.33831,-10.03160,-0.54321,-0.35095,-0.37231,*1F
$PSIWMPOS,015619.650,4910.36067,N,12304.22392,W,9.18,1.75,M,6.49,0,8,0,2,0,*6B
$PSIWMATT,015619.650,261.5,T,-1.5,-6.3,180.0,*76
$PSIWMVEL,015619.650,261.5,T,0.0,K,-0.00,M,*79
$PSIWMMPU,6979.850,-0.45220,0.34645,-10.01581,-0.58289,-0.35706,-0.31128,*1A
$GPGGA,233823.000,4910.36067,N,12304.22392,W,1,10,0.8,001.75,M,-16.8,M,,*59
$GPRMC,233823.000,A,4910.36067,N,12304.22392,W,0.0,0.0,230419,,,A*7E
$PSIWMMPU,6980.050,-0.46320,0.34022,-10.05026,-0.55542,-0.39062,-0.30518,*1F
$GNGSA,A,3,19,12,06,24,17,02,,,,,,,1.4,0.8,1.1*2E
$GNGSA,A,3,82,79,80,73,,,,,,,,,1.4,0.8,1.1*29
$PSIWMPVT,6980.070,257921.000,3,49.1726778,-123.0703987,1.753,-0.001,-0.007,-0.013,6.964,4.637,31.266,0.612,0.000,0.000,37.046,0.043,10,*28
$PSIWMMPU,6980.250,-0.44885,0.32683,-10.02395,-0.55542,-0.37842,-0.34485,*19
$PSIWMMPU,6980.450,-0.43641,0.33018,-10.03256,-0.51575,-0.39978,-0.27161,*1F
$PSIWMMPU,6980.650,-0.43114,0.32108,-10.01820,-0.54321,-0.33569,-0.32959,*11
$PSIWMPOS,015620.650,4910.36067,N,12304.22392,W,9.18,1.75,M,6.49,0,8,0,2,0,*61
$PSIWMATT,015620.650,261.5,T,-1.5,-6.4,180.0,*7B
$PSIWMVEL,015620.650,261.5,T,0.0,K,-0.00,M,*73
$PSIWMMPU,6980.850,-0.45268,0.32826,-10.04692,-0.57068,-0.38147,-0.26855,*10
$GPGGA,233824.000,4910.36067,N,12304.22392,W,1,10,0.8,001.75,M,-16.8,M,,*5E
$GPRMC,233824.000,A,4910.36067,N,12304.22392,W,0.0,0.0,230419,,,A*79
$GNGSA,A,3,19,12,06,24,17,02,,,,,,,1.4,0.8,1.1*2E
$PSIWMMPU,6981.050,-0.44263,0.32587,-10.03687,-0.54016,-0.32349,-0.34790,*1F
$GNGSA,A,3,82,79,80,73,,,,,,,,,1.4,0.8,1.1*29
$PSIWMPVT,6981.070,257921.999,3,49.1726778,-123.0703987,1.753,0.010,-0.000,-0.005,6.964,4.637,31.910,0.612,0.000,0.000,37.789,0.043,10,*03
$PSIWMMPU,6981.250,-0.45124,0.31869,-10.00720,-0.50354,-0.39673,-0.28992,*1A
$PSIWMMPU,6981.450,-0.43688,0.35458,-10.03734,-0.52490,-0.32654,-0.28381,*1C
$PSIWMMPU,6981.650,-0.44502,0.32108,-10.02586,-0.56152,-0.36926,-0.28992,*1C
$PSIWMPOS,015621.650,4910.36067,N,12304.22392,W,9.18,1.75,M,6.49,0,8,0,2,0,*60
$PSIWMATT,015621.650,261.5,T,-1.5,-6.3,180.0,*7D
$PSIWMVEL,015621.650,261.5,T,0.0,K,-0.00,M,*72
$PSIWMMPU,6981.850,-0.44406,0.34453,-10.01007,-0.58594,-0.30212,-0.26550,*13
$GPGGA,233825.000,4910.36067,N,12304.22392,W,1,11,0.8,001.75,M,-16.8,M,,*5E
$GPRMC,233825.000,A,4910.36067,N,12304.22392,W,0.0,0.0,230419,,,A*78
$GNGSA,A,3,19,12,06,24,17,02,25,,,,,,1.4,0.8,1.1*29
$PSIWMMPU,6982.050,-0.44837,0.34357,-10.01964,-0.51575,-0.32959,-0.26855,*11
$GNGSA,A,3,82,79,80,73,,,,,,,,,1.4,0.8,1.1*29
$PSIWMPVT,6982.070,257922.999,3,49.1726778,-123.0703987,1.753,0.004,-0.009,-0.009,7.000,4.637,33.867,0.612,0.000,0.000,41.761,0.113,11,*08
$PSIWMMPU,6982.250,-0.42875,0.32396,-10.01007,-0.57068,-0.37842,-0.31433,*1F
$PSIWMMPU,6982.450,-0.46416,0.32491,-10.00959,-0.54932,-0.36011,-0.30212,*19
$PSIWMMPU,6982.650,-0.44502,0.33353,-10.02347,-0.55847,-0.32959,-0.31128,*1A
$PSIWMPOS,015622.650,4910.36067,N,12304.22392,W,9.18,1.75,M,6.49,0,8,0,2,0,*63
$PSIWMATT,015622.650,261.5,T,-1.5,-6.4,180.0,*79
$PSIWMVEL,015622.650,261.5,T,0.0,K,-0.00,M,*71
$PSIWMMPU,6982.850,-0.44311,0.32587,-10.00624,-0.56458,-0.36926,-0.30823,*12
$PSIWMMPU,6983.050,-0.44119,0.33783,-10.02873,-0.60120,-0.36316,-0.27161,*17
$GPGGA,233826.000,4910.36067,N,12304.22392,W,1,11,0.8,001.75,M,-16.8,M,,*5D
$GPRMC,233826.000,A,4910.36067,N,12304.22392,W,0.0,0.0,230419,,,A*7B
$GNGSA,A,3,19,12,06,24,17,02,25,,,,,,1.4,0.8,1.1*29
$GNGSA,A,3,82,79,80,73,,,,,,,,,1.4,0.8,1.1*29
$PSIWMPVT,6983.080,257923.999,3,49.1726778,-123.0703987,1.753,0.006,-0.002,-0.008,7.000,4.690,34.789,0.612,0.000,0.000,42.985,0.125,11,*08
$PSIWMMPU,6983.250,-0.42731,0.33257,-10.04022,-0.58594,-0.36011,-0.33875,*14
$PSIWMMPU,6983.450,-0.45459,0.31630,-10.02873,-0.53101,-0.38147,-0.28381,*10
$PSIWMMPU,6983.650,-0.44454,0.34597,-10.02490,-0.51575,-0.27466,-0.34485,*17
$PSIWMPOS,015623.650,4910.36067,N,12304.22392,W,9.29,1.75,M,6.57,0,8,0,2,0,*6F
$PSIWMATT,015623.650,261.5,T,-1.5,-6.3,180.0,*7F
$PSIWMVEL,015623.650,261.5,T,0.0,K,-0.00,M,*70
$PSIWMMPU,6983.850,-0.45507,0.33831,-10.02490,-0.54016,-0.33264,-0.36926,*1B
$PSIWMMPU,6984.050,-0.44358,0.33209,-10.01055,-0.55847,-0.33264,-0.31433,*15
$GPGGA,233827.000,4910.36067,N,12304.22392,W,1,11,0.8,001.75,M,-16.8,M,,*5C
$GPRMC,233827.000,A,4910.36067,N,12304.22392,W,0.0,0.0,230419,,,A*7A
$GNGSA,A,3,19,12,06,24,17,02,25,,,,,,1.4,0.8,1.1*29
$GNGSA,A,3,82,79,80,73,,,,,,,,,1.4,0.8,1.1*29
$PSIWMPVT,6984.080,257924.999,3,49.1726778,-123.0703987,1.753,0.010,-0.016,-0.008,7.000,4.690,34.828,0.612,0.000,0.000,42.978,0.070,11,*0D
$PSIWMMPU,6984.250,-0.44837,0.33544,-10.05122,-0.55542,-0.30518,-0.27161,*1C
$PSIWMMPU,6984.450,-0.44837,0.33305,-10.02873,-0.55542,-0.38147,-0.26245,*11
$PSIWMMPU,6984.650,-0.44167,0.33592,-10.03304,-0.51575,-0.42419,-0.28687,*1A
$PSIWMPOS,015624.650,4910.36067,N,12304.22392,W,9.29,1.75,M,6.57,0,8,0,2,0,*68
$PSIWMATT,015624.650,261.5,T,-1.5,-6.4,180.0,*7F
$PSIWMVEL,015624.650,261.5,T,0.0,K,-0.00,M,*77
$PSIWMMPU,6984.850,-0.44119,0.32970,-10.02730,-0.55847,-0.36011,-0.29297,*1D
$PSIWMMPU,6985.050,-0.44071,0.34310,-10.04309,-0.59204,-0.33569,-0.25635,*17
$GPGGA,233828.000,4910.36067,N,12304.22392,W,1,11,0.8,001.75,M,-16.8,M,,*53
$GPRMC,233828.000,A,4910.36067,N,12304.22392,W,0.0,0.0,230419,,,A*75
$GNGSA,A,3,19,12,06,24,17,02,25,,,,,,1.4,0.8,1.1*29
$GNGSA,A,3,82,79,80,73,,,,,,,,,1.4,0.8,1.1*29
$PSIWMPVT,6985.080,257925.999,3,49.1726778,-123.0703987,1.753,0.003,-0.002,-0.011,7.000,4.690,33.957,0.612,0.000,0.000,41.694,0.074,11,*06
$PSIWMMPU,6985.250,-0.44358,0.32539,-10.01772,-0.55847,-0.34790,-0.28992,*16
$PSIWMMPU,6985.450,-0.45076,0.34788,-9.98566,-0.54016,-0.33569,-0.28076,*22
$PSIWMMPU,6985.650,-0.44263,0.33831,-10.02203,-0.50964,-0.36316,-0.31128,*13
$PSIWMPOS,015625.650,4910.36067,N,12304.22392,W,9.29,1.75,M,6.57,0,8,0,2,0,*69
$PSIWMATT,015625.650,261.5,T,-1.5,-6.4,180.0,*7E
$PSIWMVEL,015625.650,261.5,T,0.0,K,-0.00,M,*76
$PSIWMMPU,6985.850,-0.43354,0.34357,-10.02251,-0.52185,-0.34180,-0.29907,*12
$PSIWMMPU,6986.050,-0.44119,0.34357,-10.02442,-0.53406,-0.36621,-0.26855,*19
$GPGGA,233829.000,4910.36067,N,12304.22392,W,1,11,0.8,001.75,M,-16.8,M,,*52
$GPRMC,233829.000,A,4910.36067,N,12304.22392,W,0.0,0.0,230419,,,A*74
$GNGSA,A,3,19,12,06,24,17,02,25,,,,,,1.4,0.8,1.1*29
$GNGSA,A,3,82,79,80,73,,,,,,,,,1.4,0.8,1.1*29
$PSIWMPVT,6986.080,257926.999,3,49.1726778,-123.0703987,1.753,0.008,-0.005,-0.006,7.000,4.690,34.617,0.612,0.000,0.000,43.027,0.031,11,*0D
$PSIWMMPU,6986.250,-0.42971,0.33065,-10.03256,-0.54626,-0.36316,-0.31128,*1F
$PSIWMMPU,6986.450,-0.42779,0.32252,-10.02490,-0.52795,-0.33569,-0.31128,*11
$PSIWMMPU,6986.650,-0.45315,0.33257,-10.04213,-0.54932,-0.38452,-0.30212,*19
$PSIWMPOS,015626.650,4910.36067,N,12304.22392,W,7.96,1.75,M,5.63,0,8,0,2,0,*64
$PSIWMATT,015626.650,261.5,T,-1.5,-6.4,180.0,*7D
$PSIWMVEL,015626.650,261.5,T,0.0,K,-0.00,M,*75
$PSIWMMPU,6986.850,-0.43401,0.34692,-10.04692,-0.55237,-0.33264,-0.26550,*15
$PSIWMMPU,6987.050,-0.42971,0.31917,-10.03543,-0.50049,-0.31128,-0.26245,*1C
$GPGGA,233830.000,4910.36067,N,12304.22392,W,1,11,0.8,001.75,M,-16.8,M,,*5A
$GPRMC,233830.000,A,4910.36067,N,12304.22392,W,0.0,0.0,230419,,,A*7C
$GNGSA,A,3,19,12,06,24,17,02,25,,,,,,1.4,0.8,1.1*29
$GNGSA,A,3,82,79,80,73,,,,,,,,,1.4,0.8,1.1*29
$PSIWMPVT,6987.080,257928.000,3,49.1726778,-123.0703987,1.753,-0.003,-0.013,-0.015,7.036,4.690,34.578,0.612,0.000,0.000,42.876,0.055,11,*28
$PSIWMMPU,6987.250,-0.45698,0.33927,-10.02634,-0.57068,-0.36621,-0.30212,*1A
$PSIWMMPU,6987.450,-0.45842,0.32539,-10.03543,-0.57678,-0.41809,-0.25635,*13
$PSIWMMPU,6987.650,-0.44023,0.34979,-10.04979,-0.53406,-0.32349,-0.30518,*1F
$PSIWMPOS,015627.650,4910.36067,N,12304.22392,W,7.96,1.75,M,5.63,0,8,0,2,0,*65
$PSIWMATT,015627.650,261.5,T,-1.5,-6.4,180.0,*7C
$PSIWMVEL,015627.650,261.5,T,0.0,K,-0.00,M,*74
$PSIWMMPU,6987.850,-0.42875,0.33257,-10.02682,-0.54321,-0.33875,-0.26245,*19
$PSIWMMPU,6988.050,-0.44646,0.33735,-10.03591,-0.59204,-0.38147,-0.32043,*1E
$GPGGA,233831.000,4910.36067,N,12304.22392,W,1,11,0.8,001.75,M,-16.8,M,,*5B
$GPRMC,233831.000,A,4910.36067,N,12304.22392,W,0.0,0.0,230419,,,A*7D
$GNGSA,A,3,19,12,06,24,17,02,25,,,,,,1.4,0.8,1.1*29
$GNGSA,A,3,82,79,80,73,,,,,,,,,1.4,0.8,1.1*29
$PSIWMPVT,6988.080,257928.999,3,49.1726778,-123.0703987,1.753,0.006,-0.004,-0.016,7.036,4.743,34.465,0.612,0.000,0.000,42.682,0.074,11,*07
$PSIWMMPU,6988.250,-0.44263,0.33879,-10.02490,-0.48828,-0.35095,-0.28687,*1B
$PSIWMMPU,6988.450,-0.43688,0.33544,-10.00911,-0.55237,-0.39062,-0.29602,*1E
$PSIWMMPU,6988.650,-0.43114,0.34214,-10.03017,-0.57983,-0.37842,-0.32654,*1C
$PSIWMPOS,015628.650,4910.36067,N,12304.22392,W,8.05,1.75,M,5.69,0,8,0,2,0,*65
$PSIWMATT,015628.650,261.5,T,-1.5,-6.4,180.0,*73
$PSIWMVEL,015628.650,261.5,T,0.0,K,-0.00,M,*7B
$PSIWMMPU,6988.850,-0.45363,0.35697,-10.03543,-0.54932,-0.34485,-0.31433,*11
$PSIWMMPU,6989.050,-0.43114,0.32874,-10.04644,-0.56152,-0.39978,-0.35400,*11
$GPGGA,233832.000,4910.36067,N,12304.22392,W,1,11,0.8,001.75,M,-16.8,M,,*58
$GPRMC,233832.000,A,4910.36067,N,12304.22392,W,0.0,0.0,230419,,,A*7E
$GNGSA,A,3,19,12,06,24,17,02,25,,,,,,1.4,0.8,1.1*29
$GNGSA,A,3,82,79,80,73,,,,,,,,,1.4,0.8,1.1*29
$PSIWMPVT,6989.080,257929.999,3,49.1726778,-123.0703987,1.753,0.012,-0.002,-0.011,7.036,4.743,34.973,0.612,0.000,0.000,43.261,0.078,11,*0D
$PSIWMMPU,6989.250,-0.43784,0.32587,-10.02108,-0.56152,-0.36316,-0.33264,*1B
$PSIWMMPU,6989.450,-0.44023,0.33831,-10.03734,-0.53406,-0.34485,-0.29907,*12
$PSIWMMPU,6989.650,-0.42779,0.33496,-10.03639,-0.57373,-0.33569,-0.26855,*1F
$PSIWMPOS,015629.650,4910.36067,N,12304.22392,W,8.05,1.75,M,5.69,0,8,0,2,0,*64
$PSIWMATT,015629.650,261.5,T,-1.5,-6.4,180.0,*72
$PSIWMVEL,015629.650,261.5,T,0.0,K,-0.00,M,*7A
$PSIWMMPU,6989.850,-0.43641,0.33831,-10.01916,-0.59814,-0.33569,-0.31738,*1D
$PSIWMMPU,6990.050,-0.44311,0.34166,-10.04213,-0.54626,-0.39062,-0.30518,*1A
$GPGGA,233833.000,4910.36067,N,12304.22392,W,1,11,0.8,001.75,M,-16.8,M,,*59
$GPRMC,233833.000,A,4910.36067,N,12304.22392,W,0.0,0.0,230419,,,A*7F
$GNGSA,A,3,19,12,06,24,17,02,25,,,,,,1.4,0.8,1.1*29
$GNGSA,A,3,82,79,80,73,,,,,,,,,1.4,0.8,1.1*29
$PSIWMPVT,6990.080,257930.999,3,49.1726778,-123.0703987,1.753,0.008,-0.009,-0.012,7.036,4.743,35.590,0.612,0.000,0.000,43.910,0.133,11,*0D
$PSIWMMPU,6990.250,-0.44693,0.34788,-10.02586,-0.53101,-0.34485,-0.28076,*1D
$PSIWMMPU,6990.450,-0.45890,0.34740,-10.03687,-0.54932,-0.36621,-0.28687,*19
$PSIWMMPU,6990.650,-0.42731,0.32156,-10.04979,-0.57373,-0.36011,-0.29907,*19
$PSIWMPOS,015630.650,4910.36067,N,12304.22392,W,8.05,1.75,M,5.69,0,8,0,2,0,*6C
$PSIWMATT,015630.650,261.5,T,-1.5,-6.4,180.0,*7A
$PSIWMVEL,015630.650,261.5,T,0.0,K,-0.00,M,*72
$PSIWMMPU,6990.850,-0.45411,0.33640,-10.04978,-0.56152,-0.34790,-0.37537,*1D
$GPGGA,233834.000,4910.36067,N,12304.22392,W,1,11,0.8,001.75,M,-16.8,M,,*5E
$GPRMC,233834.000,A,4910.36067,N,12304.22392,W,0.0,0.0,230419,,,A*78
$PSIWMMPU,6991.050,-0.43688,0.33496,-10.03830,-0.55542,-0.33264,-0.36011,*1C
$GNGSA,A,3,19,12,06,24,17,02,25,,,,,,1.4,0.8,1.1*29
$GNGSA,A,3,82,79,80,73,,,,,,,,,1.4,0.8,1.1*29
$PSIWMPVT,6991.070,257932.000,3,49.1726778,-123.0703987,1.753,0.006,-0.006,-0.011,7.036,4.743,35.828,0.612,0.000,0.000,44.284,0.090,11,*0D
$PSIWMMPU,6991.250,-0.42827,0.32204,-10.04069,-0.60730,-0.32043,-0.31433,*1F
$PSIWMMPU,6991.450,-0.45028,0.32204,-10.02586,-0.54321,-0.36926,-0.26550,*14
$PSIWMMPU,6991.650,-0.44263,0.32826,-10.02634,-0.52795,-0.31128,-0.28687,*11
$PSIWMPOS,015631.650,4910.36067,N,12304.22392,W,8.05,1.75,M,5.69,0,8,0,2,0,*6D
$PSIWMATT,015631.650,261.5,T,-1.5,-6.4,180.0,*7B
$PSIWMVEL,015631.650,261.5,T,0.0,K,-0.00,M,*73
$PSIWMMPU,6991.850,-0.44119,0.34022,-10.02538,-0.53101,-0.33264,-0.27466,*15
$GPGGA,233835.000,4910.36015,N,12304.22347,W,1,11,0.8,001.78,M,-16.8,M,,*5F
$PSIWMMPU,6992.050,-0.45076,0.34022,-10.03112,-0.56458,-0.37231,-0.27771,*17
$GPRMC,233835.000,A,4910.36015,N,12304.22347,W,0.0,0.0,230419,,,A*74
$GNGSA,A,3,19,12,06,24,17,02,25,,,,,,1.3,0.8,1.1*2E
$GNGSA,A,3,82,79,80,73,,,,,,,,,1.3,0.8,1.1*2E
$PSIWMPVT,6992.080,257932.999,3,49.1726692,-123.0703911,1.780,-0.005,-0.014,-0.014,6.708,4.301,34.430,0.612,0.000,0.000,42.492,0.125,11,*21
$PSIWMMPU,6992.250,-0.45411,0.33783,-10.00863,-0.52795,-0.36621,-0.29297,*16
$PSIWMMPU,6992.450,-0.45650,0.34118,-10.01390,-0.54321,-0.31738,-0.28381,*16
$PSIWMMPU,6992.650,-0.44311,0.33687,-10.05122,-0.55847,-0.39368,-0.32349,*10
$PSIWMPOS,015632.650,4910.36015,N,12304.22347,W,7.30,1.78,M,5.16,0,8,0,2,0,*6F
$PSIWMATT,015632.650,261.5,T,-1.5,-6.4,180.0,*78
$PSIWMVEL,015632.650,261.5,T,0.0,K,-0.00,M,*70
$PSIWMMPU,6992.850,-0.43880,0.34214,-10.03112,-0.51575,-0.32959,-0.28381,*12
$GPGGA,233836.000,4910.36015,N,12304.22347,W,1,11,0.8,001.78,M,-16.8,M,,*5C
$GPRMC,233836.000,A,4910.36015,N,12304.22347,W,0.0,0.0,230419,,,A*77
$PSIWMMPU,6993.050,-0.42062,0.33544,-10.05170,-0.52490,-0.33569,-0.27466,*1F
$GNGSA,A,3,19,12,06,24,17,02,25,,,,,,1.3,0.8,1.1*2E
$GNGSA,A,3,82,79,80,73,,,,,,,,,1.3,0.8,1.1*2E
$PSIWMPVT,6993.080,257933.999,3,49.1726692,-123.0703911,1.780,0.003,0.005,-0.017,6.745,4.359,35.055,0.612,0.000,0.000,43.379,0.121,11,*21
$PSIWMMPU,6993.250,-0.44646,0.31630,-10.04691,-0.51575,-0.32959,-0.30518,*19
$PSIWMMPU,6993.450,-0.44646,0.34070,-10.03974,-0.51270,-0.37231,-0.32043,*10
$PSIWMMPU,6993.650,-0.45028,0.34070,-10.03208,-0.59204,-0.34485,-0.32959,*1E
$PSIWMPOS,015633.650,4910.36015,N,12304.22347,W,7.40,1.78,M,5.23,0,8,0,2,0,*6F
$PSIWMATT,015633.650,261.5,T,-1.5,-6.4,180.0,*79
$PSIWMVEL,015633.650,261.5,T,0.0,K,-0.00,M,*71
$PSIWMMPU,6993.850,-0.45650,0.34214,-10.03591,-0.57678,-0.37231,-0.30823,*1B
$GPGGA,233837.000,4910.36015,N,12304.22347,W,1,11,0.8,001.78,M,-16.8,M,,*5D
$GPRMC,233837.000,A,4910.36015,N,12304.22347,W,0.0,0.0,230419,,,A*76
$PSIWMMPU,6994.050,-0.44980,0.31486,-10.01198,-0.54321,-0.35095,-0.22583,*10
$GNGSA,A,3,19,12,06,24,17,02,25,,,,,,1.3,0.8,1.1*2E
$GNGSA,A,3,82,79,80,73,,,,,,,,,1.3,0.8,1.1*2E
$PSIWMPVT,6994.070,257934.999,3,49.1726692,-123.0703911,1.780,0.006,0.007,-0.016,6.745,4.359,35.504,0.612,0.000,0.000,43.755,0.055,11,*21
$PSIWMMPU,6994.250,-0.44885,0.33400,-10.02347,-0.59509,-0.33875,-0.31433,*10
$PSIWMMPU,6994.450,-0.43449,0.33161,-10.01055,-0.53101,-0.32959,-0.31128,*1B
