$PSIWMMPU,751.450,-0.54216,1.01732,-9.83493,1.95618,2.79541,-0.36926,*11
$PSIWMMPU,751.650,-0.13159,1.30156,-10.52256,3.55530,4.65393,-0.28992,*20
$PSIWMMPU,751.850,-0.23304,0.60102,-8.85685,2.09045,2.39563,-0.64087,*17
$PSIWMMPU,752.050,-0.32730,0.93598,-10.14980,-3.29285,-3.41187,-0.49133,*23
$GPGGA,215429.000,4910.22235,N,12305.27295,W,1,14,0.7,006.59,M,-16.8,M,,*5B
$GPRMC,215429.000,A,4910.22235,N,12305.27295,W,32.0,269.8,230419,,,A*4A
$GNGSA,A,3,19,01,12,06,24,15,17,13,28,02,,,1.2,0.7,0.9*23
$GNGSA,A,3,79,81,78,80,,,,,,,,,1.2,0.7,0.9*21
$PSIWMPVT,752.170,251686.999,3,49.1703725,-123.0878826,6.594,-16.471,-0.043,-0.461,4.796,3.240,4.961,0.354,0.000,0.000,8.185,0.230,14,*21
$PSIWMMPU,752.250,-0.23782,0.97234,-9.43154,2.53601,2.07214,-0.67749,*1F
$PSIWMMPU,752.450,-0.27084,1.23505,-10.43355,-1.38855,-0.41199,-0.69275,*2F
$PSIWMMPU,752.650,-0.13877,1.25658,-9.91341,0.16785,-1.38245,-0.63782,*39
$PSIWMMPU,752.850,-0.46081,1.34941,-10.34407,-0.25635,-0.38757,-0.71411,*29
$PSIWMMPU,753.050,-0.41918,1.27429,-9.69808,-1.95007,-1.71204,-0.63782,*14
$GPGGA,215430.000,4910.22229,N,12305.28697,W,1,14,0.7,006.06,M,-16.8,M,,*5D
$GPRMC,215430.000,A,4910.22229,N,12305.28697,W,33.7,269.5,230419,,,A*4D
$GNGSA,A,3,19,01,12,06,24,15,17,13,28,02,,,1.2,0.7,0.9*23
$GNGSA,A,3,82,79,78,80,,,,,,,,,1.2,0.7,0.9*22
$PSIWMPVT,753.170,251688.000,3,49.1703715,-123.0881162,6.055,-17.334,-0.139,-0.560,4.950,3.464,4.965,0.354,0.000,0.000,8.855,0.168,14,*22
$PSIWMMPU,753.250,-0.34453,1.01015,-9.78756,2.07214,2.80457,-0.61035,*11
$PSIWMMPU,753.450,-0.41822,0.89530,-10.56419,-1.86768,-2.68250,-0.70801,*2C
$PSIWMPDR,751.400,49.1703760,-123.0864224,6.985,-89.915100098,-1010101.125000000,0,-0.613966167,-0.468105525,0.189685389,37.59,0.125973254,0.109467968,0.065850601,0.096841879,93.438087463,20,*1B
$PSIWMMPU,753.650,-0.41535,0.69289,-9.62104,-0.13733,1.98059,-0.49438,*3D
$PSIWMMPU,753.850,-0.53785,1.03216,-11.19200,-2.26746,-0.22583,-0.00610,*2C
$PSIWMMPU,754.050,-0.47517,0.72399,-9.12338,-2.45667,-3.84827,0.25024,*36
$GPGGA,215431.000,4910.22219,N,12305.30163,W,1,13,0.7,005.49,M,-16.8,M,,*55
$GPRMC,215431.000,A,4910.22219,N,12305.30163,W,34.9,269.4,230419,,,A*42
$GNGSA,A,3,19,01,12,06,24,15,17,13,28,02,,,1.2,0.7,0.9*23
$GNGSA,A,3,79,78,80,,,,,,,,,,1.2,0.7,0.9*28
$PSIWMPVT,754.170,251689.000,3,49.1703699,-123.0883604,5.485,-17.987,-0.175,-0.592,5.196,3.674,5.375,0.354,0.000,0.354,9.863,0.098,13,*2C
$PSIWMMPU,754.250,-0.66418,0.97091,-10.64458,-2.05383,-0.61951,0.35095,*09
$PSIWMMPU,754.450,-0.58331,0.95942,-9.47892,1.35193,3.04260,-0.11597,*1E
$PSIWMMPU,754.650,-0.40865,1.19629,-10.65606,-3.68042,-1.91956,-0.01526,*2F
$PSIWMMPU,754.850,-0.27275,1.06278,-9.97274,-1.67236,-0.39062,-0.55542,*13
$PSIWMMPU,755.050,-0.42588,0.98670,-10.25124,0.51575,2.94800,-0.54626,*2C
$GPGGA,215432.000,4910.22212,N,12305.31679,W,1,14,0.7,004.89,M,-16.8,M,,*5A
$GPRMC,215432.000,A,4910.22212,N,12305.31679,W,36.1,269.7,230419,,,A*4E
$GNGSA,A,3,19,01,12,06,24,15,17,13,28,02,,,1.2,0.7,0.9*23
$GNGSA,A,3,82,79,78,80,,,,,,,,,1.2,0.7,0.9*22
$PSIWMPVT,755.170,251690.000,3,49.1703687,-123.0886131,4.886,-18.564,-0.093,-0.590,5.385,3.873,5.387,0.612,0.612,1.541,10.021,0.145,14,*10
$PSIWMMPU,755.250,-0.13207,0.99483,-10.65080,-1.68762,-0.36621,-0.56458,*2F
$PSIWMMPU,755.450,-0.11341,0.98909,-9.94834,-1.90735,-1.58081,-0.52185,*16
$PSIWMMPU,755.650,-0.18519,0.96421,-9.90719,-0.84839,0.19226,-0.61951,*3B
$PSIWMMPU,755.850,-0.06699,0.79769,-10.19430,-0.35400,0.34485,-0.64087,*05
$PSIWMPOS,001235.850,4910.22212,N,12305.31679,W,141.42,4.89,M,100.00,0,4,0,2,0,*6E
$PSIWMATT,001235.850,266.6,T,-0.6,-5.1,180.0,*70
$PSIWMVEL,001235.850,266.6,T,0.0,K,-0.00,M,*7C
$PSIWMMPU,756.050,-0.34645,0.82161,-10.00002,-2.79541,-2.32239,-0.40283,*2F
$GPGGA,215433.000,4910.22203,N,12305.33229,W,1,14,0.7,004.28,M,-16.8,M,,*53
$GPRMC,215433.000,A,4910.22203,N,12305.33229,W,37.0,269.4,230419,,,A*4F
$GNGSA,A,3,19,01,12,06,24,15,17,13,28,02,,,1.2,0.7,0.9*23
$GNGSA,A,3,82,79,78,80,,,,,,,,,1.2,0.7,0.9*22
$PSIWMPVT,756.200,251691.000,3,49.1703671,-123.0888716,4.281,-19.054,-0.204,-0.584,5.523,4.000,5.609,0.707,0.612,1.581,9.863,0.102,14,*2F
$PSIWMMPU,756.250,-0.26605,0.76084,-9.91437,-1.62048,-2.04468,-0.28076,*1D
$PSIWMMPU,756.450,-0.32348,0.84075,-10.26464,-1.82495,-1.02234,-0.16174,*2D
$PSIWMMPU,756.650,-0.43162,0.82305,-10.48524,0.61035,2.02026,0.05493,*0F
$PSIWMMPU,756.850,-0.31247,0.71251,-9.78277,0.92163,1.89514,0.06409,*3C
$PSIWMPOS,001236.850,4910.22203,N,12305.33229,W,9.37,4.28,M,6.63,0,4,0,2,0,*68
$PSIWMATT,001236.850,269.4,T,-1.5,-4.4,180.0,*78
$PSIWMVEL,001236.850,269.4,T,68.6,K,0.58,M,*6A
$PSIWMMPU,757.050,-0.38425,0.61920,-9.98614,-3.42407,-2.93884,0.13733,*36
$GPGGA,215434.000,4910.22191,N,12305.34815,W,1,13,0.7,003.64,M,-16.8,M,,*56
$GPRMC,215434.000,A,4910.22191,N,12305.34815,W,37.5,269.3,230419,,,A*40
$GNGSA,A,3,19,01,12,06,24,15,17,13,28,02,,,1.2,0.7,0.9*23
$GNGSA,A,3,79,78,80,,,,,,,,,,1.2,0.7,0.9*28
$PSIWMPVT,757.210,251692.000,3,49.1703652,-123.0891358,3.644,-19.324,-0.222,-0.574,5.657,4.123,5.730,0.707,0.612,1.581,10.235,0.199,13,*11
$PSIWMMPU,757.250,-0.09905,0.66609,-10.10721,3.15247,2.72522,-0.02441,*20
$PSIWMMPU,757.450,-0.05886,0.57087,-9.35594,8.43811,8.38928,-1.12610,*14
$PSIWMMPU,757.650,-0.26510,0.64743,-10.66659,0.35400,1.48010,-0.36621,*2A
$PSIWMMPU,757.850,-0.23160,0.34022,-8.96978,-7.11060,-6.19812,-0.00305,*11
$PSIWMPOS,001237.850,4910.22191,N,12305.34815,W,9.60,3.64,M,6.79,0,4,0,2,0,*65
$PSIWMATT,001237.850,269.3,T,-2.0,-4.3,180.0,*7F
$PSIWMVEL,001237.850,269.3,T,69.6,K,0.57,M,*62
$PSIWMMPU,758.050,-0.25218,0.75462,-11.57817,-1.06201,-1.00098,-0.37842,*28
$GPGGA,215435.000,4910.22175,N,12305.36416,W,1,14,0.7,003.01,M,-16.8,M,,*54
$GPRMC,215435.000,A,4910.22175,N,12305.36416,W,37.6,269.3,230419,,,A*45
$GNGSA,A,3,19,01,12,06,24,15,17,13,28,02,,,1.2,0.7,0.9*23
$GNGSA,A,3,82,79,78,80,,,,,,,,,1.2,0.7,0.9*22
$PSIWMPVT,758.220,251693.000,3,49.1703625,-123.0894027,3.007,-19.339,-0.233,-0.558,5.745,4.183,5.539,0.791,0.612,1.581,9.902,0.199,14,*2D
$PSIWMMPU,758.250,-0.28663,0.56273,-10.00815,-5.33142,-5.02319,-0.30823,*23
$PSIWMMPU,758.450,-0.13781,0.60867,-9.48514,4.40979,2.68860,-0.85754,*18
$PSIWMMPU,758.650,-0.23639,0.44358,-9.57223,1.20239,0.41504,-0.25940,*1C
$PSIWMMPU,758.850,-0.52015,0.39717,-9.90575,-0.82092,-1.01929,-0.08240,*1E
$PSIWMPOS,001238.850,4910.22175,N,12305.36416,W,9.75,3.01,M,6.89,0,4,0,2,0,*65
$PSIWMATT,001238.850,269.3,T,-2.0,-3.6,180.0,*72
$PSIWMVEL,001238.850,269.3,T,69.6,K,0.56,M,*6C
$PSIWMMPU,759.050,-0.60819,0.48521,-9.75263,1.26648,1.33057,0.03662,*35
$GPGGA,215436.000,4910.22166,N,12305.38008,W,1,13,0.7,002.42,M,-16.8,M,,*51
$GPRMC,215436.000,A,4910.22166,N,12305.38008,W,37.4,269.1,230419,,,A*41
$GNGSA,A,3,19,01,12,06,24,15,17,13,28,02,,,1.2,0.7,0.9*23
$GNGSA,A,3,79,78,80,,,,,,,,,,1.2,0.7,0.9*28
$PSIWMPVT,759.220,251694.000,3,49.1703610,-123.0896680,2.424,-19.268,-0.288,-0.537,5.831,4.183,5.699,0.791,0.612,1.581,10.780,0.203,13,*12
$PSIWMMPU,759.250,-0.50675,0.49383,-10.11247,-3.54614,-2.77100,0.16785,*01
$PSIWMMPU,759.450,-0.41152,0.61489,-10.07132,1.36719,2.01721,0.07019,*08
$PSIWMMPU,759.650,-0.66131,0.56273,-10.33115,-0.43335,0.17090,0.09155,*24
$PSIWMMPU,759.850,-0.41774,0.35554,-9.56505,-0.25635,0.15564,0.05188,*14
$PSIWMPOS,001239.850,4910.22166,N,12305.38008,W,9.90,2.42,M,7.00,0,4,0,2,0,*6E
$PSIWMATT,001239.850,269.1,T,-1.9,-2.1,180.0,*7D
$PSIWMVEL,001239.850,269.1,T,69.4,K,0.54,M,*6F
$PSIWMMPU,760.050,-0.54359,0.37851,-10.68765,-1.16882,0.54321,0.05188,*23
$GPGGA,215437.000,4910.22161,N,12305.39592,W,1,15,0.7,001.93,M,-16.8,M,,*59
$GPRMC,215437.000,A,4910.22161,N,12305.39592,W,37.2,269.4,230419,,,A*43
$GNGSA,A,3,19,01,12,06,24,15,17,13,28,02,,,1.2,0.7,0.9*23
$GNGSA,A,3,82,79,81,78,80,,,,,,,,1.2,0.7,0.9*2B
$PSIWMPVT,760.220,251695.000,3,49.1703601,-123.0899321,1.928,-19.128,-0.184,-0.516,5.788,4.123,5.070,0.791,0.500,1.369,8.562,0.223,15,*24
$PSIWMMPU,760.250,-0.60963,0.33161,-9.86843,-0.70801,-0.20447,0.06409,*34
$PSIWMMPU,760.450,-0.46129,0.44502,-10.24933,-0.00610,0.37842,-0.03662,*0B
$PSIWMMPU,760.650,-0.40482,0.42540,-9.05878,-1.15356,-0.69885,-0.10681,*1E
$PSIWMMPU,760.850,-0.62255,0.70581,-10.34503,-2.81677,-0.98572,-0.05188,*22
$PSIWMPOS,001240.850,4910.22161,N,12305.39592,W,9.82,2.74,M,6.95,2,5,0,2,0,*68
$PSIWMATT,001240.850,269.3,T,-2.3,-0.4,6.3,*73
$PSIWMVEL,001240.850,269.3,T,68.0,K,0.59,M,*6B
$PSIWMMPU,761.050,-0.46847,0.89817,-9.57749,2.99683,2.82898,-0.49744,*1D
$PSIWMMPU,761.250,-0.41822,0.54407,-9.52294,-1.86157,-0.83008,0.06104,*33
$GPGGA,215438.000,4910.22164,N,12305.41166,W,1,15,0.7,001.37,M,-16.8,M,,*5D
$GPRMC,215438.000,A,4910.22164,N,12305.41166,W,36.8,269.7,230419,,,A*41
$GNGSA,A,3,19,01,12,06,24,15,17,13,28,02,,,1.2,0.7,0.9*23
$GNGSA,A,3,82,79,81,78,80,,,,,,,,1.2,0.7,0.9*2B
$PSIWMPVT,761.290,251696.000,3,49.1703606,-123.0901943,1.372,-18.950,-0.103,-0.490,5.831,4.062,5.430,0.791,0.000,1.369,9.148,0.293,15,*2D
$PSIWMMPU,761.450,-0.17083,0.57805,-9.96605,0.77820,1.06812,-0.16785,*16
$PSIWMMPU,761.650,-0.45315,0.53737,-10.16415,0.02441,0.14038,-0.07629,*2A
$PSIWMMPU,761.850,-0.36319,0.78285,-10.08902,-2.13013,-0.85754,-0.09155,*2B
$PSIWMPOS,001241.850,4910.22164,N,12305.41166,W,9.90,1.37,M,7.00,2,5,0,2,0,*66
$PSIWMATT,001241.850,269.5,T,-1.6,-0.4,1.7,*71
$PSIWMVEL,001241.850,269.5,T,67.0,K,0.67,M,*6E
$PSIWMMPU,762.050,-0.15265,0.90344,-10.25363,1.57776,1.36719,-0.60425,*29
$PSIWMMPU,762.250,-0.39956,0.58283,-10.06462,0.29297,0.72021,-0.33569,*27
$GPGGA,215439.000,4910.22174,N,12305.42726,W,1,14,0.7,000.94,M,-16.8,M,,*55
$GPRMC,215439.000,A,4910.22174,N,12305.42726,W,36.8,269.8,230419,,,A*4F
$GNGSA,A,3,19,01,12,06,24,15,17,13,28,02,,,1.2,0.7,0.9*23
$GNGSA,A,3,79,81,78,80,,,,,,,,,1.2,0.7,0.9*21
$PSIWMPVT,762.290,251697.000,3,49.1703624,-123.0904544,0.942,-18.937,-0.057,-0.459,5.874,4.000,5.492,0.791,0.000,1.369,9.649,0.262,14,*29
$PSIWMMPU,762.450,-0.21294,0.62303,-9.74401,0.09766,-0.69885,-0.30518,*38
$PSIWMMPU,762.650,-0.25888,0.45985,-9.96796,0.26245,-0.53101,-0.15564,*30
$PSIWMMPU,762.850,-0.38329,0.63116,-10.01198,-1.55640,-0.93689,-0.16785,*26
$PSIWMPOS,001242.850,4910.22174,N,12305.42726,W,9.97,0.66,M,7.05,2,5,0,2,0,*62
$PSIWMATT,001242.850,269.7,T,-1.5,-1.9,1.1,*79
$PSIWMVEL,001242.850,269.7,T,67.5,K,0.23,M,*6A
$PSIWMMPU,763.050,-0.31534,0.63595,-10.00624,1.64490,1.72729,-0.22583,*29
$PSIWMMPU,763.250,-0.28998,0.39047,-9.30809,-1.34583,-0.93384,-0.25635,*14
$GPGGA,215440.000,4910.22183,N,12305.44278,W,1,15,0.7,000.39,M,-16.8,M,,*5D
$GPRMC,215440.000,A,4910.22183,N,12305.44278,W,36.7,269.9,230419,,,A*4F
$GNGSA,A,3,19,01,12,06,24,15,17,13,28,02,,,1.2,0.7,0.9*23
$GNGSA,A,3,82,79,81,78,80,,,,,,,,1.2,0.7,0.9*2B
$PSIWMPVT,763.290,251698.000,3,49.1703639,-123.0907131,0.390,-18.900,-0.033,-0.429,5.958,3.937,4.965,0.866,0.000,1.369,8.187,0.242,15,*2B
$PSIWMMPU,763.450,-0.31726,0.65939,-10.34694,-0.92468,-0.49438,-0.28687,*24
$PSIWMMPU,763.650,-0.18136,0.42205,-9.46504,-0.28076,-1.52283,-0.18921,*1B
$PSIWMMPU,763.850,-0.62398,0.44646,-9.34397,0.92163,0.69885,-0.05188,*14
$PSIWMPOS,001243.850,4910.22183,N,12305.44278,W,10.11,1.68,M,7.15,2,5,0,2,0,*5B
$PSIWMATT,001243.850,269.6,T,-1.5,-2.3,1.0,*71
$PSIWMVEL,001243.850,269.6,T,67.9,K,0.10,M,*66
$PSIWMMPU,764.050,-0.24500,0.58522,-10.31823,-1.47400,1.02539,0.12817,*2D
$PSIWMMPU,764.250,-0.10336,0.63643,-10.13640,-1.58386,-0.13733,-0.30518,*20
$GPGGA,215441.000,4910.22185,N,12305.45821,W,1,14,0.7,000.01,M,-16.8,M,,*57
$GPRMC,215441.000,A,4910.22185,N,12305.45821,W,36.3,270.0,230419,,,A*4A
$GNGSA,A,3,19,01,12,06,24,15,17,13,28,02,,,1.2,0.7,0.9*23
$GNGSA,A,3,82,79,81,78,,,,,,,,,1.2,0.7,0.9*23
$PSIWMPVT,764.290,251699.000,3,49.1703641,-123.0909702,0.011,-18.706,-0.012,-0.400,5.958,3.937,5.594,0.707,0.000,0.612,9.944,0.223,14,*23
$PSIWMMPU,764.450,-0.27945,0.32252,-10.03352,-1.46179,-3.34167,-0.27466,*29
$PSIWMMPU,764.650,-0.28854,0.32635,-10.02682,-0.01526,-0.97961,-0.44861,*2F
$PSIWMMPU,764.850,-0.40817,0.21294,-9.39757,2.63062,2.76489,-0.77209,*1D
$PSIWMPOS,001244.850,4910.22185,N,12305.45821,W,10.11,0.68,M,7.15,2,5,0,2,0,*5C
$PSIWMATT,001244.850,269.3,T,-1.6,-2.7,0.8,*7D
$PSIWMVEL,001244.850,269.3,T,67.6,K,-0.04,M,*43
$PSIWMMPU,765.050,-0.87855,0.59623,-9.76172,1.01929,2.60925,-0.58289,*1C
$PSIWMMPU,765.250,-0.06699,0.30721,-9.69138,-3.68347,-2.82593,-0.02136,*1F
$GPGGA,215442.000,4910.22197,N,12305.47344,W,1,14,0.7,-00.25,M,-16.8,M,,*46
$GPRMC,215442.000,A,4910.22197,N,12305.47344,W,36.0,270.0,230419,,,A*43
$GNGSA,A,3,19,01,12,06,24,15,17,13,28,02,,,1.2,0.7,0.9*23
$GNGSA,A,3,82,79,78,80,,,,,,,,,1.2,0.7,0.9*22
$PSIWMPVT,765.290,251700.000,3,49.1703661,-123.0912240,-0.251,-18.504,0.008,-0.373,5.916,3.808,5.074,0.791,0.000,0.707,9.587,0.172,14,*24
$PSIWMMPU,765.450,-0.06938,0.45220,-10.70535,-2.28271,1.45264,-0.53406,*0B
$PSIWMMPU,765.650,-0.21438,0.77854,-11.27144,-2.48108,-0.37842,-0.46997,*25
$PSIWMMPU,765.850,-0.37755,1.13887,-9.88183,2.77100,1.26953,-0.89722,*19
$PSIWMPOS,001245.850,4910.22197,N,12305.47344,W,10.04,0.20,M,7.10,2,5,0,2,0,*59
$PSIWMATT,001245.850,269.0,T,-1.4,-3.3,0.8,*78
$PSIWMVEL,001245.850,269.0,T,66.4,K,0.33,M,*6B
$PSIWMMPU,766.050,-0.26223,0.59910,-9.40762,0.53406,0.76599,-0.71106,*15
$PSIWMMPU,766.250,0.23639,1.04843,-10.64362,-1.30615,-3.42712,-0.85754,*0F
$GPGGA,215443.000,4910.22203,N,12305.48858,W,1,14,0.7,-00.55,M,-16.8,M,,*47
$GPRMC,215443.000,A,4910.22203,N,12305.48858,W,35.6,269.4,230419,,,A*4C
$GNGSA,A,3,19,01,12,06,24,15,17,13,28,02,,,1.2,0.7,0.9*23
$GNGSA,A,3,82,79,78,80,,,,,,,,,1.2,0.7,0.9*22
$PSIWMPVT,766.290,251700.999,3,49.1703672,-123.0914763,-0.554,-18.334,-0.202,-0.317,5.916,3.742,4.633,0.791,0.000,0.707,8.809,0.363,14,*03
$PSIWMMPU,766.450,-0.32061,0.76132,-9.44207,0.84534,-1.14136,-0.93384,*30
$PSIWMMPU,766.650,-0.27132,0.63308,-8.66400,2.70996,1.31226,-0.91858,*13
$PSIWMMPU,766.850,-0.29237,0.85798,-11.15851,-3.80554,-1.11389,-0.61951,*29
$PSIWMPOS,001246.850,4910.22191,N,12305.49685,W,2.04,0.71,M,1.32,2,5,0,2,0,*6B
$PSIWMATT,001246.850,268.4,T,-1.5,-2.6,0.8,*7B
$PSIWMVEL,001246.850,268.4,T,65.3,K,-0.17,M,*42
$PSIWMMPU,767.050,-0.30146,0.63068,-8.36828,2.37427,0.80261,-0.63477,*17
$PSIWMMPU,767.250,-0.08039,0.56178,-11.03218,-6.46057,-1.02844,-0.47607,*22
$GPGGA,215444.000,4910.22205,N,12305.50364,W,1,13,0.7,-00.63,M,-16.8,M,,*49
$GPRMC,215444.000,A,4910.22205,N,12305.50364,W,35.8,269.5,230419,,,A*4F
$GNGSA,A,3,19,01,12,06,24,15,17,13,28,02,,,1.2,0.7,0.9*23
$GNGSA,A,3,79,78,80,,,,,,,,,,1.2,0.7,0.9*28
$PSIWMPVT,767.290,251701.999,3,49.1703675,-123.0917273,-0.628,-18.434,-0.170,-0.293,5.916,3.742,5.180,0.791,0.000,0.707,9.773,0.355,13,*08
$PSIWMMPU,767.450,-0.45268,1.16519,-11.00538,7.18384,5.15747,-0.67444,*25
$PSIWMMPU,767.650,0.25026,0.26749,-6.80066,-1.70593,-3.42407,-0.55847,*34
$PSIWMMPU,767.850,-0.28424,1.01158,-11.75761,-3.63770,-1.21460,-0.50049,*28
$PSIWMPOS,001247.850,4910.22193,N,12305.51186,W,1.94,0.67,M,1.27,2,5,0,2,0,*6C
$PSIWMATT,001247.850,268.2,T,-0.6,-2.6,0.8,*7E
$PSIWMVEL,001247.850,268.2,T,64.9,K,-0.08,M,*40
$PSIWMMPU,768.050,-0.22107,0.90679,-10.13831,-0.36926,-1.75171,-0.42114,*27
$PSIWMMPU,768.250,-0.08613,0.59240,-9.21765,0.93689,0.68359,-0.77209,*1A
$GPGGA,215445.000,4910.22200,N,12305.51876,W,1,14,0.7,-00.69,M,-16.8,M,,*49
$GPRMC,215445.000,A,4910.22200,N,12305.51876,W,36.0,269.1,230419,,,A*4D
$GNGSA,A,3,19,01,12,06,24,15,17,13,28,02,,,1.2,0.7,0.9*23
$GNGSA,A,3,82,79,78,80,,,,,,,,,1.2,0.7,0.9*22
$PSIWMPVT,768.290,251702.999,3,49.1703667,-123.0919793,-0.693,-18.504,-0.282,-0.269,5.916,3.742,5.293,0.791,0.000,0.707,10.568,0.285,14,*31
$PSIWMMPU,768.450,-0.11915,0.95368,-10.57185,-3.60413,-1.35498,-0.54016,*27
$PSIWMMPU,768.650,-0.07082,0.91157,-9.39374,1.83105,0.99792,-0.77209,*1D
$PSIWMMPU,768.850,-0.07800,1.01637,-10.12252,-3.29590,-2.56653,-0.65002,*21
$PSIWMPOS,001248.850,4910.22186,N,12305.52697,W,1.94,-0.45,M,1.27,2,5,0,2,0,*4E
$PSIWMATT,001248.850,267.9,T,-0.3,-2.7,0.8,*71
$PSIWMVEL,001248.850,267.9,T,64.9,K,0.15,M,*6A
$PSIWMMPU,769.050,-0.09475,0.81443,-9.53825,2.45361,1.29395,-0.97351,*18
$PSIWMMPU,769.250,-0.06651,1.00010,-10.20387,-2.94495,-1.74561,-1.14441,*2D
$GPGGA,215446.000,4910.22190,N,12305.53411,W,1,14,0.7,-00.83,M,-16.8,M,,*4B
$GPRMC,215446.000,A,4910.22190,N,12305.53411,W,36.4,268.6,230419,,,A*49
$GNGSA,A,3,19,01,12,06,24,15,17,13,28,02,,,1.2,0.7,0.9*23
$GNGSA,A,3,82,79,78,80,,,,,,,,,1.2,0.7,0.9*22
$PSIWMPVT,769.290,251703.999,3,49.1703650,-123.0922352,-0.832,-18.732,-0.455,-0.244,5.916,3.742,5.168,0.791,0.000,0.707,10.680,0.180,14,*31
$PSIWMMPU,769.450,-0.09570,0.91253,-10.17229,0.20142,1.25427,-1.14746,*28
$PSIWMMPU,769.650,0.35841,0.69385,-10.17851,-0.30518,-0.00916,-1.31226,*08
$PSIWMMPU,769.850,0.03493,0.69146,-9.94451,-0.27466,-1.23901,-1.23596,*35
$PSIWMPOS,001249.850,4910.22172,N,12305.54240,W,1.94,-0.07,M,1.27,2,5,0,2,0,*4A
$PSIWMATT,001249.850,267.2,T,0.1,-3.0,0.8,*52
$PSIWMVEL,001249.850,267.2,T,66.0,K,0.18,M,*66
$PSIWMMPU,770.050,-0.05312,0.69815,-9.95265,-1.69067,-0.65918,-1.06812,*1C
$PSIWMMPU,770.250,0.00861,0.78046,-10.25794,0.24414,1.08643,-1.13220,*03
$GPGGA,215447.000,4910.22169,N,12305.54964,W,1,13,0.7,-00.83,M,-16.8,M,,*43
$GPRMC,215447.000,A,4910.22169,N,12305.54964,W,36.8,267.9,230419,,,A*4A
$GNGSA,A,3,19,01,12,06,24,15,17,13,28,02,,,1.2,0.7,0.9*23
$GNGSA,A,3,79,78,80,,,,,,,,,,1.2,0.7,0.9*28
$PSIWMPVT,770.290,251704.999,3,49.1703615,-123.0924941,-0.831,-18.932,-0.698,-0.224,5.916,3.742,5.020,0.791,0.000,0.707,12.124,0.289,13,*32
$PSIWMMPU,770.450,0.08518,0.77520,-10.58189,-0.99792,-1.91345,-1.21155,*0C
$PSIWMMPU,770.650,0.07991,0.46655,-9.49184,-0.42114,-1.23901,-1.37024,*37
$PSIWMMPU,770.850,-0.00191,0.62255,-9.86173,-0.66223,0.27161,-1.31836,*38
$PSIWMPOS,001250.850,4910.22141,N,12305.55804,W,2.03,-0.12,M,1.31,2,5,0,2,0,*47
$PSIWMATT,001250.850,266.4,T,0.2,-3.2,0.8,*5C
$PSIWMVEL,001250.850,266.4,T,67.6,K,0.16,M,*60
$PSIWMMPU,771.050,-0.07178,0.52063,-10.06318,-1.93787,-0.69580,-1.09253,*24
$PSIWMMPU,771.250,0.06699,0.48856,-10.03112,0.67444,1.22681,-1.13831,*05
$GPGGA,215448.000,4910.22130,N,12305.56528,W,1,13,0.7,-00.80,M,-16.8,M,,*45
$GPRMC,215448.000,A,4910.22130,N,12305.56528,W,36.8,266.9,230419,,,A*4E
$GNGSA,A,3,19,01,12,06,24,15,17,13,28,02,,,1.2,0.7,0.9*23
$GNGSA,A,3,79,78,80,,,,,,,,,,1.2,0.7,0.9*28
$PSIWMPVT,771.290,251705.999,3,49.1703549,-123.0927546,-0.804,-18.900,-1.033,-0.201,5.958,3.742,4.270,0.791,0.000,0.707,11.899,0.188,13,*34
$PSIWMMPU,771.450,0.03589,0.40530,-10.02825,-0.01831,0.39368,-1.10779,*27
$PSIWMMPU,771.650,0.12681,0.41918,-9.88757,-1.08948,0.01526,-1.22681,*1E
$PSIWMMPU,771.850,-0.07130,0.59432,-10.13209,1.39771,0.48828,-1.14746,*26
$PSIWMPOS,001251.850,4910.22092,N,12305.57378,W,2.04,-0.39,M,1.32,2,5,0,2,0,*46
$PSIWMATT,001251.850,265.6,T,1.1,-3.3,0.8,*5F
$PSIWMVEL,001251.850,265.6,T,68.6,K,0.19,M,*60
$PSIWMMPU,772.050,-0.00239,0.54886,-10.17276,-2.44446,-2.97852,-1.05591,*29
$PSIWMMPU,772.250,0.04546,0.38281,-9.65597,1.82800,1.56860,-1.24512,*3F
$GPGGA,215449.000,4910.22072,N,12305.58081,W,1,14,0.7,-00.86,M,-16.8,M,,*4A
$GPRMC,215449.000,A,4910.22072,N,12305.58081,W,36.6,266.1,230419,,,A*46
$GNGSA,A,3,19,01,12,06,24,15,17,13,28,02,,,1.2,0.7,0.9*23
$GNGSA,A,3,82,79,78,80,,,,,,,,,1.2,0.7,0.9*22
$PSIWMPVT,772.290,251707.000,3,49.1703453,-123.0930136,-0.858,-18.799,-1.291,-0.184,5.958,3.742,4.758,0.791,0.000,0.707,9.780,0.113,14,*04
$PSIWMMPU,772.450,0.07130,0.48809,-10.68956,-3.72925,-2.61536,-1.23291,*0F
$PSIWMMPU,772.650,-0.09762,0.48426,-10.10864,1.41907,-0.80261,-1.41907,*06
$PSIWMMPU,772.850,-0.18279,0.46799,-9.77655,-0.82092,-0.51575,-1.22986,*1F
$PSIWMPOS,001252.850,4910.22027,N,12305.58937,W,2.04,-0.34,M,1.32,2,5,0,2,0,*48
$PSIWMATT,001252.850,264.8,T,0.7,-3.3,0.8,*54
$PSIWMVEL,001252.850,264.8,T,68.7,K,0.15,M,*61
$PSIWMMPU,773.050,0.02871,0.24979,-10.12061,-0.78125,-0.52490,-1.39771,*01
$PSIWMMPU,773.250,-0.09331,0.38042,-9.45451,2.15149,2.53906,-1.33972,*1E
$GPGGA,215450.000,4910.22001,N,12305.59624,W,1,14,0.7,-00.90,M,-16.8,M,,*49
$GPRMC,215450.000,A,4910.22001,N,12305.59624,W,36.3,265.3,230419,,,A*46
$GNGSA,A,3,19,01,12,06,24,15,17,13,28,02,,,1.2,0.7,0.9*23
$GNGSA,A,3,82,79,78,80,,,,,,,,,1.2,0.7,0.9*22
$PSIWMPVT,773.290,251707.999,3,49.1703335,-123.0932707,-0.904,-18.596,-1.530,-0.171,6.083,3.873,4.496,0.935,0.500,1.414,9.825,0.105,14,*0C
$PSIWMMPU,773.450,-0.17322,0.48809,-10.30723,-3.98865,-2.75574,-1.08032,*22
$PSIWMMPU,773.650,0.08278,0.35889,-10.00241,-0.02441,1.64490,-1.62048,*23
$PSIWMMPU,773.850,-0.00335,0.44741,-10.14023,-0.34485,0.40588,-1.59607,*09
$PSIWMPOS,001253.850,4910.21947,N,12305.60476,W,2.05,-0.05,M,1.33,2,5,0,2,0,*44
$PSIWMATT,001253.850,263.8,T,1.2,-3.5,0.8,*50
$PSIWMVEL,001253.850,263.8,T,68.3,K,0.19,M,*6F
$PSIWMMPU,774.050,0.14930,0.47325,-10.18664,-2.40479,-0.51575,-1.49536,*00
$PSIWMMPU,774.250,0.17179,0.47852,-10.67568,-0.67444,-0.83618,-1.58691,*08
$GPGGA,215451.000,4910.21916,N,12305.61146,W,1,14,0.7,-00.94,M,-16.8,M,,*48
$GPRMC,215451.000,A,4910.21916,N,12305.61146,W,35.8,264.3,230419,,,A*4A
$GNGSA,A,3,19,01,12,06,24,15,17,13,28,02,,,1.2,0.7,0.9*23
$GNGSA,A,3,82,79,78,80,,,,,,,,,1.2,0.7,0.9*22
$PSIWMPVT,774.290,251708.999,3,49.1703193,-123.0935244,-0.935,-18.362,-1.825,-0.153,6.245,4.000,4.582,1.000,0.612,1.620,9.938,0.102,14,*0F
$PSIWMMPU,774.450,0.12011,0.35267,-9.76076,0.31738,-0.42419,-1.73645,*17
$PSIWMMPU,774.650,0.07704,0.35649,-9.76411,-0.04272,0.37231,-1.68152,*17
$PSIWMMPU,774.850,0.03445,0.42827,-10.08520,0.45776,0.98572,-1.50452,*0D
$PSIWMPOS,001254.850,4910.21852,N,12305.61991,W,2.06,-0.41,M,1.33,2,5,0,2,0,*40
$PSIWMATT,001254.850,262.6,T,1.8,-3.4,0.8,*53
$PSIWMVEL,001254.850,262.6,T,67.6,K,0.09,M,*6C
$PSIWMMPU,775.050,0.17562,0.41200,-10.13161,-0.29297,-1.27563,-1.53198,*07
$PSIWMMPU,775.250,0.07273,0.39286,-9.30091,1.03455,1.61743,-1.65405,*32
$GPGGA,215452.000,4910.21810,N,12305.62639,W,1,13,0.7,-00.99,M,-16.8,M,,*4A
$GPRMC,215452.000,A,4910.21810,N,12305.62639,W,35.4,262.9,230419,,,A*42
$GNGSA,A,3,19,01,12,06,24,15,17,13,28,02,,,1.2,0.7,0.9*23
$GNGSA,A,3,79,78,80,,,,,,,,,,1.2,0.7,0.9*28
$PSIWMPVT,775.290,251709.999,3,49.1703017,-123.0937731,-0.987,-18.081,-2.246,-0.134,6.325,4.062,5.023,0.935,0.500,1.414,10.135,0.230,13,*32
$PSIWMMPU,775.450,0.08709,0.49144,-9.98949,-2.01416,-0.66833,-1.17493,*35
$PSIWMMPU,775.650,0.05312,0.37085,-10.04739,-2.51160,-0.44556,-0.54321,*02
$PSIWMMPU,775.850,-0.19667,0.80008,-11.36953,-3.26538,-2.58179,-0.20142,*2A
$PSIWMPOS,001255.850,4910.21735,N,12305.63472,W,2.07,-0.12,M,1.34,2,5,0,2,0,*4D
$PSIWMATT,001255.850,261.9,T,2.3,-3.7,0.8,*55
$PSIWMVEL,001255.850,261.9,T,66.3,K,0.19,M,*64
$PSIWMMPU,776.050,-0.31726,0.83788,-9.51911,6.18591,4.43726,-0.47302,*11
$PSIWMMPU,776.250,-0.35267,0.57183,-9.18654,-3.55530,-2.54517,-0.05493,*1E
$GPGGA,215453.000,4910.21678,N,12305.64120,W,1,14,0.7,-01.05,M,-16.8,M,,*41
$GPRMC,215453.000,A,4910.21678,N,12305.64120,W,35.0,261.5,230419,,,A*41
$GNGSA,A,3,19,01,12,06,24,15,17,13,28,02,,,1.2,0.7,0.9*23
$GNGSA,A,3,82,79,78,80,,,,,,,,,1.2,0.7,0.9*22
$PSIWMPVT,776.290,251711.000,3,49.1702797,-123.0940200,-1.051,-17.837,-2.657,-0.093,6.364,4.062,4.734,0.791,0.000,0.707,8.865,0.297,14,*06
$PSIWMMPU,776.450,-0.12585,0.69241,-9.81436,1.89514,4.74854,-0.39673,*18
$PSIWMMPU,776.650,-0.44215,0.84027,-9.80574,1.55334,0.11597,0.65308,*3D
$PSIWMMPU,776.850,-0.35314,0.53307,-9.23822,-0.59204,0.27466,1.11694,*13
$PSIWMPOS,001256.850,4910.21594,N,12305.64932,W,2.07,-0.63,M,1.34,2,5,0,2,0,*4F
$PSIWMATT,001256.850,261.8,T,3.3,-2.4,0.8,*54
$PSIWMVEL,001256.850,261.8,T,64.8,K,-0.15,M,*4E
$PSIWMMPU,777.050,-0.77950,0.96229,-11.65186,-4.96521,-0.86365,1.57166,*03
$PSIWMMPU,777.250,-0.60819,0.83214,-9.79091,1.58386,1.09558,1.35498,*30
$GPGGA,215454.000,4910.21542,N,12305.65582,W,1,13,0.7,-01.21,M,-16.8,M,,*40
$GPRMC,215454.000,A,4910.21542,N,12305.65582,W,35.1,262.3,230419,,,A*45
$GNGSA,A,3,19,01,12,06,24,15,17,13,28,02,,,1.2,0.7,0.9*23
$GNGSA,A,3,79,78,80,,,,,,,,,,1.2,0.7,0.9*28
$PSIWMPVT,777.290,251711.999,3,49.1702571,-123.0942636,-1.210,-17.930,-2.415,-0.114,6.325,4.000,4.750,0.612,0.000,0.354,9.141,0.164,13,*01
$PSIWMMPU,777.450,-0.72399,0.79912,-9.90097,-3.22571,-3.75366,1.61438,*37
$PSIWMMPU,777.650,-0.40100,0.68763,-9.66219,0.77515,0.99182,1.23901,*3A
$PSIWMMPU,777.850,-0.73548,0.81061,-9.89331,0.03357,-2.10571,1.38245,*10
$PSIWMPOS,001257.850,4910.21458,N,12305.66388,W,2.07,-0.33,M,1.34,2,5,0,2,0,*43
$PSIWMATT,001257.850,263.2,T,2.2,-3.1,0.8,*59
$PSIWMVEL,001257.850,263.2,T,64.3,K,0.02,M,*67
$PSIWMMPU,778.050,-0.70390,0.97952,-9.85216,-3.43933,-5.30090,1.63574,*37
$PSIWMMPU,778.250,-0.95368,0.62255,-9.10185,2.34070,2.47498,1.49536,*30
$GPGGA,215455.000,4910.21424,N,12305.67061,W,1,14,0.7,-01.29,M,-16.8,M,,*45
$GPRMC,215455.000,A,4910.21424,N,12305.67061,W,35.4,263.7,230419,,,A*4F
$GNGSA,A,3,19,01,12,06,24,15,17,13,28,02,,,1.2,0.7,0.9*23
$GNGSA,A,3,82,79,78,80,,,,,,,,,1.2,0.7,0.9*22
$PSIWMPVT,778.290,251712.999,3,49.1702374,-123.0945102,-1.292,-18.134,-2.006,-0.111,6.285,4.000,4.520,0.500,0.000,0.500,8.645,0.195,14,*01
$PSIWMMPU,778.450,-0.83932,0.75940,-9.93829,-1.88599,-1.18103,1.85547,*37
$PSIWMMPU,778.650,-0.69624,0.78381,-9.96557,1.33667,1.55334,1.67542,*36
$PSIWMMPU,778.850,-0.81491,0.88430,-10.96901,-3.38745,-4.22363,1.62964,*05
$PSIWMPOS,001258.850,4910.21348,N,12305.67868,W,2.07,0.27,M,1.33,2,5,0,2,0,*61
$PSIWMATT,001258.850,264.7,T,0.4,-3.3,0.8,*52
$PSIWMVEL,001258.850,264.7,T,64.6,K,0.06,M,*6B
$PSIWMMPU,779.050,-1.16614,0.58857,-9.27794,-1.66626,-0.71106,1.77307,*39
$PSIWMMPU,779.250,-1.00823,0.81443,-9.80192,0.79651,-0.95215,1.56555,*1D
$GPGGA,215456.000,4910.21337,N,12305.68554,W,1,15,0.7,-01.22,M,-16.8,M,,*45
$GPRMC,215456.000,A,4910.21337,N,12305.68554,W,35.5,265.5,230419,,,A*40
$GNGSA,A,3,19,01,12,06,24,15,17,13,28,02,,,1.2,0.7,0.9*23
$GNGSA,A,3,82,79,81,78,80,,,,,,,,1.2,0.7,0.9*2B
$PSIWMPVT,779.290,251713.999,3,49.1702228,-123.0947590,-1.222,-18.240,-1.427,-0.107,6.403,4.123,4.449,0.791,0.612,1.581,8.073,0.234,15,*07
$PSIWMMPU,779.450,-0.91157,0.90918,-9.95360,-3.03345,-3.07312,2.08435,*32
$PSIWMMPU,779.650,-0.87281,0.70055,-9.96365,1.86768,2.78320,1.73340,*31
$PSIWMMPU,779.850,-1.01589,0.85798,-10.21392,-3.31116,-3.73230,1.81885,*0B
$PSIWMPOS,001259.850,4910.21274,N,12305.69366,W,2.07,0.21,M,1.34,2,5,0,2,0,*64
$PSIWMATT,001259.850,266.5,T,-1.4,-3.6,0.8,*7A
$PSIWMVEL,001259.850,266.5,T,65.1,K,0.03,M,*69
$PSIWMMPU,780.050,-0.81013,0.82257,-10.08711,0.28992,-1.13525,1.73645,*25
$PSIWMMPU,780.250,-0.90009,0.77376,-9.51911,2.07214,1.74561,1.59302,*36
$GPGGA,215457.000,4910.21281,N,12305.70069,W,1,14,0.7,-01.23,M,-16.8,M,,*4A
$GPRMC,215457.000,A,4910.21281,N,12305.70069,W,35.7,267.5,230419,,,A*4F
$GNGSA,A,3,19,01,12,06,24,15,17,13,28,02,,,1.2,0.7,0.9*23
$GNGSA,A,3,82,79,78,80,,,,,,,,,1.2,0.7,0.9*22
$PSIWMPVT,780.290,251715.000,3,49.1702135,-123.0950115,-1.227,-18.383,-0.790,-0.109,6.481,4.183,4.742,0.791,0.500,1.369,8.897,0.301,14,*09
$PSIWMMPU,780.450,-1.00632,0.78189,-9.91293,-2.75574,-2.91748,1.51367,*38
$PSIWMMPU,780.650,-0.62925,0.84219,-9.96748,-0.26855,0.50049,0.48828,*1C
$PSIWMMPU,780.850,-0.32635,0.69433,-10.08902,-0.57983,-0.41809,-0.09766,*2B
$PSIWMPOS,001300.850,4910.21237,N,12305.70886,W,2.08,0.57,M,1.34,2,5,0,2,0,*6D
$PSIWMATT,001300.850,268.0,T,-3.0,-3.8,0.8,*74
$PSIWMVEL,001300.850,268.0,T,65.6,K,0.09,M,*62
$PSIWMMPU,781.050,-0.20720,0.71251,-10.05840,-0.01221,0.25635,-0.10681,*0B
$PSIWMMPU,781.250,-0.39334,0.71921,-9.97801,-1.29089,-1.87988,-0.25635,*15
$GPGGA,215458.000,4910.21259,N,12305.71592,W,1,13,0.7,-01.21,M,-16.8,M,,*45
$GPRMC,215458.000,A,4910.21259,N,12305.71592,W,35.9,269.4,230419,,,A*44
$GNGSA,A,3,19,01,12,06,24,15,17,13,28,02,,,1.2,0.7,0.9*23
$GNGSA,A,3,79,78,80,,,,,,,,,,1.2,0.7,0.9*28
$PSIWMPVT,781.290,251716.000,3,49.1702098,-123.0952654,-1.207,-18.500,-0.203,-0.107,6.557,4.301,4.973,0.866,0.612,1.620,10.542,0.176,13,*3B
$PSIWMMPU,781.450,-0.37085,0.77376,-9.76268,0.36926,0.20142,-0.24414,*11
$PSIWMMPU,781.650,-0.39382,0.71442,-10.10529,-1.03760,0.59814,-0.07629,*0A
$PSIWMMPU,781.850,-0.41296,0.70725,-10.28761,-1.59912,-0.86365,0.13123,*0A
$PSIWMPOS,001301.850,4910.21235,N,12305.72418,W,2.09,0.51,M,1.34,2,5,0,2,0,*60
$PSIWMATT,001301.850,268.3,T,-3.8,-4.0,0.8,*71
$PSIWMVEL,001301.850,268.3,T,66.3,K,0.08,M,*67
$PSIWMMPU,782.050,-0.51536,0.71969,-9.79091,0.39978,-0.43335,0.24719,*1F
$PSIWMMPU,782.250,-0.55604,0.75797,-9.92011,-0.91553,-1.31226,0.37231,*3D
$GPGGA,215459.000,4910.21250,N,12305.73120,W,1,13,0.7,-01.21,M,-16.8,M,,*42
$GPRMC,215459.000,A,4910.21250,N,12305.73120,W,36.1,269.7,230419,,,A*4B
$GNGSA,A,3,19,01,12,06,24,15,17,13,28,02,,,1.2,0.7,0.9*23
$GNGSA,A,3,79,78,80,,,,,,,,,,1.2,0.7,0.9*28
$PSIWMPVT,782.290,251716.999,3,49.1702084,-123.0955200,-1.210,-18.561,-0.109,-0.101,6.745,4.528,4.926,0.935,0.935,2.000,11.851,0.199,13,*39
$PSIWMMPU,782.450,-0.56178,0.76897,-10.23066,-1.49231,-0.42725,0.33875,*00
$PSIWMMPU,782.650,-0.48665,0.73452,-9.78756,1.25732,-0.05798,-0.22888,*3F
$PSIWMMPU,782.850,-0.28424,0.83884,-9.79139,-1.11389,-1.64490,-0.24109,*13
$PSIWMPOS,001302.850,4910.21237,N,12305.73952,W,2.10,0.86,M,1.35,2,5,0,2,0,*60
$PSIWMATT,001302.850,269.0,T,-4.2,-4.0,0.8,*7D
$PSIWMVEL,001302.850,269.0,T,66.6,K,0.05,M,*6E
$PSIWMMPU,783.050,-0.41152,0.69433,-9.86173,1.43433,2.47803,-0.12207,*16
$PSIWMMPU,783.250,-0.33448,0.75940,-10.38570,-2.38342,-1.69678,-0.18616,*2C
$GPGGA,215500.000,4910.21246,N,12305.74653,W,1,14,0.7,-01.19,M,-16.8,M,,*40
$GPRMC,215500.000,A,4910.21246,N,12305.74653,W,36.2,270.0,230419,,,A*49
$GNGSA,A,3,19,01,12,06,24,15,17,13,28,02,,,1.2,0.7,0.9*23
$GNGSA,A,3,82,79,78,80,,,,,,,,,1.2,0.7,0.9*22
$PSIWMPVT,783.290,251718.000,3,49.1702077,-123.0957755,-1.187,-18.618,0.004,-0.094,6.892,4.637,4.668,0.866,0.612,1.658,10.265,0.246,14,*1A
$PSIWMMPU,783.450,-0.31056,0.78764,-9.96652,-1.47705,-0.50659,-0.13123,*17
$PSIWMMPU,783.650,-0.19523,0.81443,-10.24263,-1.47705,-0.55237,-0.19531,*2B
$PSIWMMPU,783.850,-0.31438,0.62781,-9.82106,1.86768,1.98975,-0.14343,*15
$PSIWMPOS,001303.850,4910.21242,N,12305.75490,W,2.11,-0.24,M,1.36,2,5,0,2,0,*41
$PSIWMATT,001303.850,269.2,T,-3.7,-4.0,0.8,*7C
$PSIWMVEL,001303.850,269.2,T,66.9,K,0.09,M,*6E
$PSIWMMPU,784.050,-0.48091,0.44023,-9.91963,-1.62048,-1.02844,0.03052,*36
$PSIWMMPU,784.250,-0.21533,0.57230,-10.13592,-0.17395,-0.88196,0.07935,*0D
$GPGGA,215501.000,4910.21253,N,12305.76191,W,1,14,0.7,-01.20,M,-16.8,M,,*44
$GPRMC,215501.000,A,4910.21253,N,12305.76191,W,36.3,270.2,230419,,,A*44
$GNGSA,A,3,19,01,12,06,24,15,17,13,28,02,,,1.2,0.7,0.9*23
$GNGSA,A,3,82,79,78,80,,,,,,,,,1.2,0.7,0.9*22
$PSIWMPVT,784.290,251719.000,3,49.1702088,-123.0960319,-1.196,-18.679,0.063,-0.088,7.000,4.690,4.773,0.935,0.612,1.658,10.814,0.246,14,*10
$PSIWMMPU,784.450,-0.33353,0.58905,-9.82393,0.65308,-0.73547,-0.09766,*36
$PSIWMMPU,784.650,-0.54359,0.52350,-10.27804,-1.14441,-0.14954,0.21362,*05
$PSIWMMPU,784.850,-0.53642,0.43210,-9.98758,-2.10571,-0.19836,0.22888,*3D
$PSIWMPOS,001304.850,4910.21251,N,12305.77035,W,2.12,-0.10,M,1.36,2,5,0,2,0,*49
$PSIWMATT,001304.850,269.7,T,-3.5,-3.8,0.8,*73
$PSIWMVEL,001304.850,269.7,T,67.7,K,0.00,M,*6A
$PSIWMMPU,785.050,-0.22825,0.47134,-10.26320,-0.75989,1.73340,0.37231,*26
$PSIWMMPU,785.250,-0.15025,0.48187,-10.40341,-1.05286,-1.02539,0.14954,*00
$GPGGA,215502.000,4910.21269,N,12305.77719,W,1,14,0.7,-01.11,M,-16.8,M,,*4B
$GPRMC,215502.000,A,4910.21269,N,12305.77719,W,36.0,270.5,230419,,,A*4D
$GNGSA,A,3,19,01,12,06,24,15,17,13,28,02,,,1.2,0.7,0.9*23
$GNGSA,A,3,82,79,78,80,,,,,,,,,1.2,0.7,0.9*22
$PSIWMPVT,785.290,251720.000,3,49.1702116,-123.0962866,-1.112,-18.527,0.148,-0.094,7.036,4.637,5.031,0.935,0.612,1.658,10.791,0.344,14,*14
$PSIWMMPU,785.450,-0.29381,0.44263,-9.78804,0.73547,-0.74768,0.05188,*10
$PSIWMMPU,785.650,-0.31438,0.60293,-9.91150,-1.51672,-2.95715,-0.00305,*19
$PSIWMMPU,785.850,-0.31726,0.40052,-9.16692,3.50952,1.76392,-0.36316,*1C
$PSIWMPOS,001305.850,4910.21255,N,12305.78585,W,2.70,-0.35,M,1.59,2,5,0,2,0,*47
$PSIWMATT,001305.850,270.0,T,-3.3,-3.5,0.8,*76
$PSIWMVEL,001305.850,270.0,T,68.2,K,-0.04,M,*47
$PSIWMMPU,786.050,-0.45315,0.48091,-10.05122,-2.13013,-0.12512,0.03662,*0B
$PSIWMMPU,786.250,-0.28041,0.52780,-10.23641,-2.31934,1.40686,-0.03052,*0B
$GPGGA,215503.000,4910.21280,N,12305.79239,W,1,14,0.7,-01.03,M,-16.8,M,,*47
$GPRMC,215503.000,A,4910.21280,N,12305.79239,W,35.6,270.9,230419,,,A*4B
$GNGSA,A,3,19,01,12,06,24,15,17,13,28,02,,,1.2,0.7,0.9*23
$GNGSA,A,3,82,79,78,80,,,,,,,,,1.2,0.7,0.9*22
$PSIWMPVT,786.290,251720.999,3,49.1702134,-123.0965399,-1.033,-18.337,0.273,-0.092,7.036,4.583,4.930,0.935,0.612,1.658,10.118,0.117,14,*1C
$PSIWMMPU,786.450,0.24117,0.35027,-10.62735,-0.04272,1.82800,-0.69580,*27
$PSIWMMPU,786.650,0.36032,0.51680,-10.84221,-1.07727,-2.14233,-0.80872,*0A
$PSIWMMPU,786.850,-0.27754,0.38855,-9.20473,0.42114,-2.83203,-0.90637,*38
$PSIWMPOS,001306.850,4910.21260,N,12305.80130,W,3.31,-0.60,M,1.80,2,5,0,2,0,*4F
$PSIWMATT,001306.850,269.8,T,-2.8,-3.7,0.9,*7C
$PSIWMVEL,001306.850,269.8,T,68.4,K,0.07,M,*6C
$PSIWMMPU,787.050,-0.21916,0.47660,-9.16836,-2.00806,-2.78625,-0.25635,*1C
$PSIWMMPU,787.250,-0.24500,0.62733,-10.36895,-0.63782,-1.37024,-0.84839,*21
$GPGGA,215504.000,4910.21299,N,12305.80746,W,1,14,0.7,-00.90,M,-16.8,M,,*48
$GPRMC,215504.000,A,4910.21299,N,12305.80746,W,35.2,270.9,230419,,,A*4B
$GNGSA,A,3,19,01,12,06,24,15,17,13,28,02,,,1.2,0.7,0.9*23
$GNGSA,A,3,82,79,78,80,,,,,,,,,1.2,0.7,0.9*22
$PSIWMPVT,787.290,251722.000,3,49.1702165,-123.0967910,-0.902,-18.142,0.279,-0.071,7.000,4.583,4.582,0.935,0.612,1.658,9.798,0.137,14,*22
$PSIWMMPU,787.450,-0.08183,0.32730,-9.20186,-3.30811,-1.13831,-0.54321,*11
$PSIWMMPU,787.650,0.03445,0.66705,-10.53883,0.04578,0.02136,-0.71106,*04
$PSIWMMPU,787.850,-0.18375,0.51775,-9.53634,0.65002,0.33264,-0.65918,*1B
$PSIWMPOS,001307.850,4910.21264,N,12305.81644,W,3.73,-0.60,M,1.97,2,5,0,2,0,*4F
$PSIWMATT,001307.850,269.5,T,-2.7,-3.2,0.9,*7A
$PSIWMVEL,001307.850,269.5,T,67.7,K,-0.08,M,*4E
$PSIWMMPU,788.050,-0.30146,0.57183,-10.10338,-1.67542,-1.36719,-0.55542,*22
$PSIWMMPU,788.250,-0.02010,0.59432,-10.06749,-0.57678,0.00916,-0.54932,*0D
$GPGGA,215505.000,4910.21317,N,12305.82234,W,1,15,0.7,-00.69,M,-16.8,M,,*4B
$GPRMC,215505.000,A,4910.21317,N,12305.82234,W,35.0,270.5,230419,,,A*41
$GNGSA,A,3,19,01,12,06,24,15,17,13,28,02,,,1.2,0.7,0.9*23
$GNGSA,A,3,82,79,81,78,80,,,,,,,,1.2,0.7,0.9*2B
$PSIWMPVT,788.320,251723.000,3,49.1702195,-123.0970390,-0.692,-18.019,0.145,-0.062,6.964,4.472,4.570,0.935,0.500,1.414,8.595,0.070,15,*25
$PSIWMMPU,788.450,-0.04642,0.60149,-10.15506,0.61646,1.54724,-0.66528,*28
$PSIWMMPU,788.650,-0.07465,0.63690,-10.00624,-1.57166,-1.24817,-0.99487,*24
$PSIWMMPU,788.850,0.05120,0.63786,-10.27947,-1.14441,-0.98267,-1.05591,*06
$PSIWMPOS,001308.850,4910.21270,N,12305.83082,W,3.92,-0.51,M,2.07,2,5,0,2,0,*4C
$PSIWMATT,001308.850,269.2,T,-2.2,-3.2,0.9,*77
$PSIWMVEL,001308.850,269.2,T,65.9,K,0.00,M,*6F
$PSIWMMPU,789.050,0.04785,0.68380,-9.44303,2.46582,1.92871,-1.51672,*3A
$PSIWMMPU,789.250,-0.18519,0.58044,-10.10434,-2.26440,-2.72522,-0.68054,*2B
$GPGGA,215506.000,4910.21324,N,12305.83720,W,1,14,0.7,-00.50,M,-16.8,M,,*42
$GPRMC,215506.000,A,4910.21324,N,12305.83720,W,34.9,270.0,230419,,,A*4E
$GNGSA,A,3,19,01,12,06,24,15,17,13,28,02,,,1.2,0.7,0.9*23
$GNGSA,A,3,82,79,78,80,,,,,,,,,1.2,0.7,0.9*22
$PSIWMPVT,789.290,251724.000,3,49.1702206,-123.0972867,-0.500,-17.988,0.010,0.012,6.819,4.359,4.266,0.500,0.000,0.354,8.805,0.211,14,*04
$PSIWMMPU,789.450,-0.16270,0.48378,-9.93542,1.27563,-0.67749,-0.50964,*32
$PSIWMMPU,789.650,-0.34070,0.55795,-10.10290,0.60120,2.95410,-0.51575,*23
$PSIWMMPU,789.850,-0.26223,0.52589,-10.43930,-2.05688,-2.83203,-0.41504,*25
$PSIWMPOS,001309.850,4910.21274,N,12305.84555,W,4.00,-0.51,M,2.13,2,5,0,2,0,*48
$PSIWMATT,001309.850,268.9,T,-2.2,-3.0,0.9,*7E
$PSIWMVEL,001309.850,268.9,T,65.2,K,0.07,M,*68
$PSIWMMPU,790.050,-0.27323,0.43928,-8.89943,2.31628,2.63977,-0.54321,*17
$PSIWMMPU,790.250,-0.18949,0.50436,-10.09620,-1.83105,-1.37939,-0.42725,*29
$GPGGA,215507.000,4910.21322,N,12305.85201,W,1,14,0.7,-00.33,M,-16.8,M,,*40
$GPRMC,215507.000,A,4910.21322,N,12305.85201,W,34.8,269.6,230419,,,A*46
$GNGSA,A,3,19,01,12,06,24,15,17,13,28,02,,,1.2,0.7,0.9*23
$GNGSA,A,3,82,79,78,80,,,,,,,,,1.2,0.7,0.9*22
$PSIWMPVT,790.290,251725.000,3,49.1702203,-123.0975335,-0.334,-17.909,-0.133,-0.037,6.745,4.301,4.727,0.354,0.000,0.354,8.370,0.262,14,*0D
$PSIWMMPU,790.450,-0.23591,0.48569,-9.75885,0.84839,0.25024,-0.45166,*1F
$PSIWMMPU,790.650,-0.27132,0.51297,-9.88422,-1.83411,-1.73340,-0.10071,*1D
$PSIWMMPU,790.850,-0.32252,0.46129,-9.99715,-0.37537,-0.65613,-0.10986,*1A
$PSIWMPOS,001310.850,4910.21277,N,12305.86025,W,4.01,-0.68,M,2.16,2,5,0,2,0,*4D
$PSIWMATT,001310.850,268.9,T,-2.0,-2.4,0.9,*71
$PSIWMVEL,001310.850,268.9,T,64.8,K,0.03,M,*6F
$PSIWMMPU,791.050,-0.42923,0.65078,-10.14549,2.54517,3.34778,-0.03357,*21
$PSIWMMPU,791.250,-0.37611,0.50005,-10.17181,-2.33765,-1.87988,0.10986,*04
$GPGGA,215508.000,4910.21313,N,12305.86668,W,1,14,0.7,-00.25,M,-16.8,M,,*42
$GPRMC,215508.000,A,4910.21313,N,12305.86668,W,34.4,269.8,230419,,,A*41
$GNGSA,A,3,19,01,12,06,24,15,17,13,28,02,,,1.2,0.7,0.9*23
$GNGSA,A,3,82,79,78,80,,,,,,,,,1.2,0.7,0.9*22
$PSIWMPVT,791.320,251726.000,3,49.1702189,-123.0977780,-0.253,-17.700,-0.048,-0.038,6.708,4.301,3.758,0.612,0.500,1.369,5.771,0.207,14,*09
$PSIWMMPU,791.450,-0.43784,0.53450,-10.17803,0.94299,0.95520,0.09155,*03
$PSIWMMPU,791.650,-0.33879,0.52493,-9.87082,-1.17188,-2.41699,0.07629,*34
$PSIWMMPU,791.850,-0.31678,0.40339,-9.72583,1.18103,0.47913,-0.12512,*1A
$PSIWMPOS,001311.850,4910.21279,N,12305.87445,W,3.99,-0.43,M,2.16,2,5,0,2,0,*4E
$PSIWMATT,001311.850,269.3,T,-2.1,-2.2,0.9,*7C
$PSIWMVEL,001311.850,269.3,T,63.8,K,0.07,M,*66
$PSIWMMPU,792.050,-0.56369,0.53402,-9.94403,-0.17090,-0.06409,0.06714,*33
$PSIWMMPU,792.250,-0.43258,0.46990,-9.72344,-1.29700,-0.74768,0.14038,*31
$GPGGA,215509.000,4910.21310,N,12305.88115,W,1,15,0.7,-00.07,M,-16.8,M,,*42
$GPRMC,215509.000,A,4910.21310,N,12305.88115,W,34.1,269.9,230419,,,A*44
$GNGSA,A,3,19,01,12,06,24,15,17,13,28,02,,,1.2,0.7,0.9*23
$GNGSA,A,3,82,79,81,78,80,,,,,,,,1.2,0.7,0.9*2B
$PSIWMPVT,792.290,251727.000,3,49.1702183,-123.0980191,-0.074,-17.548,-0.038,-0.039,6.325,3.742,3.023,0.612,0.500,1.369,4.619,0.207,15,*01
$PSIWMMPU,792.450,-0.47756,0.44980,-10.18521,-1.24207,0.66223,0.14038,*21
$PSIWMMPU,792.650,-0.45985,0.65365,-10.54170,-1.72729,-1.58997,0.13123,*08
$PSIWMMPU,792.850,-0.26988,0.58427,-9.73684,0.01831,-0.41809,-0.10681,*30
$PSIWMPOS,001312.850,4910.21284,N,12305.88902,W,3.93,-0.60,M,2.14,2,5,0,2,0,*47
$PSIWMATT,001312.850,269.7,T,-2.2,-2.4,0.9,*7E
$PSIWMVEL,001312.850,269.7,T,63.4,K,0.16,M,*6D
$PSIWMMPU,793.050,-0.61346,0.66466,-9.78804,-0.28992,1.47095,0.10071,*1A
$PSIWMMPU,793.250,-0.46225,0.69433,-10.12252,-2.61841,-3.12805,0.03662,*03
$GPGGA,215510.000,4910.21309,N,12305.89553,W,1,14,0.7,-00.06,M,-16.8,M,,*45
$GPRMC,215510.000,A,4910.21309,N,12305.89553,W,33.8,270.2,230419,,,A*4E
$GNGSA,A,3,19,01,12,06,24,15,17,13,28,02,,,1.2,0.7,0.9*23
$GNGSA,A,3,79,81,78,80,,,,,,,,,1.2,0.7,0.9*21
$PSIWMPVT,793.290,251728.000,3,49.1702181,-123.0982588,-0.061,-17.408,0.075,-0.036,6.403,3.937,3.121,0.707,0.500,1.369,5.656,0.289,14,*2D
$PSIWMMPU,793.450,-0.24691,0.69098,-10.08376,-0.00305,-0.25330,-0.06104,*28
$PSIWMMPU,793.650,-0.53881,0.71729,-10.23928,-1.00708,-1.12000,-0.09766,*29
$PSIWMMPU,793.850,-0.26940,0.58092,-9.72200,-0.84229,-1.40381,-0.12817,*1D
$PSIWMPOS,001313.850,4910.21290,N,12305.90338,W,3.92,-1.09,M,2.13,2,5,0,2,0,*41
$PSIWMATT,001313.850,269.9,T,-2.4,-2.2,0.9,*71
$PSIWMVEL,001313.850,269.9,T,62.3,K,0.10,M,*62
$PSIWMMPU,794.050,-0.37468,0.60532,-10.09190,1.50757,2.01111,-0.04578,*25
$PSIWMMPU,794.250,-0.45985,0.49431,-10.07132,-2.35291,-1.11084,-0.14954,*20
$GPGGA,215511.000,4910.21310,N,12305.90986,W,1,15,0.7,-00.03,M,-16.8,M,,*44
$GPRMC,215511.000,A,4910.21310,N,12305.90986,W,33.9,270.6,230419,,,A*4E
$GNGSA,A,3,19,01,12,06,24,15,17,13,28,02,,,1.2,0.7,0.9*23
$GNGSA,A,3,82,79,81,78,80,,,,,,,,1.2,0.7,0.9*2B
$PSIWMPVT,794.290,251729.000,3,49.1702183,-123.0984977,-0.035,-17.439,0.176,-0.035,6.442,4.062,3.559,0.707,0.500,1.414,6.560,0.102,15,*28
$PSIWMMPU,794.450,-0.24500,0.47038,-10.29909,0.71411,1.58691,-0.56763,*20
$PSIWMMPU,794.650,-0.37133,0.43832,-10.12826,-0.67139,-0.02441,-0.40588,*2F
$PSIWMMPU,794.850,-0.20911,0.50531,-10.02012,-1.47400,-0.82703,-0.39062,*23
$PSIWMPOS,001314.850,4910.21296,N,12305.91763,W,3.92,-0.68,M,2.13,2,5,0,2,0,*4D
$PSIWMATT,001314.850,269.9,T,-2.3,-2.2,0.9,*71
$PSIWMVEL,001314.850,269.9,T,62.0,K,0.16,M,*60
$PSIWMMPU,795.050,-0.17418,0.43401,-9.84594,2.06299,1.81885,-0.55237,*1C
$PSIWMMPU,795.250,-0.22442,0.45937,-10.28426,-4.49219,-4.42810,-0.14343,*2B
$GPGGA,215512.000,4910.21318,N,12305.92419,W,1,15,0.7,000.04,M,-16.8,M,,*5C
$GPRMC,215512.000,A,4910.21318,N,12305.92419,W,33.6,270.5,230419,,,A*40
$GNGSA,A,3,19,01,12,06,24,15,17,13,28,02,,,1.2,0.7,0.9*23
$GNGSA,A,3,82,79,81,78,80,,,,,,,,1.2,0.7,0.9*2B
$PSIWMPVT,795.320,251730.000,3,49.1702197,-123.0987364,0.044,-17.293,0.143,-0.030,6.442,4.123,4.688,0.791,0.500,1.414,7.664,0.230,15,*0C
$PSIWMMPU,795.450,-0.19093,0.42301,-10.00002,4.64478,2.91443,-0.66833,*28
$PSIWMMPU,795.650,-0.48521,0.26366,-10.15649,-2.75574,-3.48511,-0.32654,*2A
$PSIWMMPU,795.850,-0.41583,0.16557,-10.14836,-0.62561,-0.23499,-0.39368,*2B
$PSIWMPOS,001315.850,4910.21303,N,12305.93150,W,3.90,-0.84,M,2.12,2,5,0,2,0,*44
$PSIWMATT,001315.850,269.8,T,-2.5,-2.1,0.9,*74
$PSIWMVEL,001315.850,269.8,T,61.6,K,0.15,M,*66
$PSIWMMPU,796.050,-0.39621,0.23304,-9.68372,2.78015,2.63977,-0.46387,*17
$PSIWMMPU,796.250,-0.39143,0.16174,-10.15267,-3.54004,-2.77710,-0.20142,*2C
$GPGGA,215513.000,4910.21325,N,12305.93832,W,1,15,0.7,000.09,M,-16.8,M,,*5A
$GPRMC,215513.000,A,4910.21325,N,12305.93832,W,33.1,270.3,230419,,,A*4A
$GNGSA,A,3,19,01,12,06,24,15,17,13,28,02,,,1.2,0.7,0.9*23
$GNGSA,A,3,82,79,81,78,80,,,,,,,,1.2,0.7,0.9*2B
$PSIWMPVT,796.330,251731.000,3,49.1702208,-123.0989720,0.089,-17.025,0.102,-0.069,6.442,4.183,5.406,0.500,0.000,0.354,8.667,0.105,15,*0C
$PSIWMMPU,796.450,-0.30003,0.28711,-10.01246,2.29187,2.52075,-0.47607,*2D
$PSIWMMPU,796.650,-0.26318,0.31438,-10.17516,-3.13416,-3.57666,-0.18005,*2F
$PSIWMMPU,796.850,-0.24739,0.21438,-10.00959,0.32654,0.92163,-0.46387,*2A
$PSIWMPOS,001316.850,4910.21309,N,12305.94547,W,3.89,-0.43,M,2.12,2,5,0,2,0,*4B
$PSIWMATT,001316.850,269.7,T,-2.3,-1.8,0.9,*74
$PSIWMVEL,001316.850,269.7,T,61.7,K,0.10,M,*6E
$PSIWMMPU,797.050,-0.41535,0.34405,-10.42351,0.09155,-0.01831,-0.37537,*0C
$PSIWMMPU,797.250,-0.26414,0.28089,-9.92585,-1.75476,-2.28271,-0.39062,*15
$GPGGA,215514.000,4910.21334,N,12305.95214,W,1,15,0.7,000.12,M,-16.8,M,,*5F
$GPRMC,215514.000,A,4910.21334,N,12305.95214,W,32.3,270.5,230419,,,A*40
$GNGSA,A,3,19,01,12,06,24,15,17,13,28,02,,,1.2,0.7,0.9*23
$GNGSA,A,3,82,79,81,78,80,,,,,,,,1.2,0.7,0.9*2B
$PSIWMPVT,797.320,251732.000,3,49.1702224,-123.0992023,0.115,-16.606,0.141,-0.094,6.442,4.183,3.758,0.500,0.354,0.354,5.907,0.199,15,*05
$PSIWMMPU,797.450,-0.37946,0.06364,-9.58706,5.36194,4.03137,-0.67749,*1B
$PSIWMMPU,797.650,-0.34597,0.28137,-10.23162,-3.58276,-1.51062,-0.38147,*22
$PSIWMMPU,797.850,-0.39286,-0.00574,-10.68908,0.18921,0.83923,-0.58899,*09
$PSIWMPOS,001317.850,4910.21314,N,12305.95931,W,3.89,-0.76,M,2.11,2,5,0,2,0,*4F
$PSIWMATT,001317.850,269.6,T,-2.2,-1.6,0.9,*7B
$PSIWMVEL,001317.850,269.6,T,61.5,K,0.06,M,*6B
$PSIWMMPU,798.050,-0.27897,0.27897,-9.72679,-1.91956,-0.47607,-0.52490,*17
$PSIWMMPU,798.250,-0.25457,0.58522,-10.45796,-0.47913,1.19629,-0.60425,*0F
$GPGGA,215515.000,4910.21345,N,12305.96553,W,1,15,0.7,000.10,M,-16.8,M,,*5D
$GPRMC,215515.000,A,4910.21345,N,12305.96553,W,31.5,270.5,230419,,,A*45
$GNGSA,A,3,19,01,12,06,24,15,17,13,28,02,,,1.2,0.7,0.9*23
$GNGSA,A,3,82,79,81,78,80,,,,,,,,1.2,0.7,0.9*2B
$PSIWMPVT,798.320,251733.000,3,49.1702242,-123.0994255,0.104,-16.203,0.152,-0.139,6.403,4.183,4.117,0.354,0.000,0.354,7.207,0.148,15,*04
$PSIWMMPU,798.450,-0.23639,0.49622,-10.10577,-1.02234,-1.65405,-0.31738,*24
$PSIWMMPU,798.650,-0.58044,0.67471,-9.98662,0.06714,0.83008,-0.03967,*16
$PSIWMMPU,798.850,-0.27754,0.61776,-9.63874,-0.23499,-0.67444,-0.20142,*10
$PSIWMPOS,001318.850,4910.21320,N,12305.97276,W,3.88,-0.76,M,2.11,2,5,0,2,0,*4C
$PSIWMATT,001318.850,269.5,T,-2.0,-1.6,0.9,*75
$PSIWMVEL,001318.850,269.5,T,60.0,K,0.05,M,*60
$PSIWMMPU,799.050,-0.47277,0.69050,-9.97227,-0.11902,0.61035,-0.07324,*37
$PSIWMMPU,799.250,-0.31247,0.57996,-10.05553,-1.81580,-0.87891,-0.15869,*22
$GPGGA,215516.000,4910.21349,N,12305.97877,W,1,14,0.7,000.09,M,-16.8,M,,*51
$GPRMC,215516.000,A,4910.21349,N,12305.97877,W,31.2,270.1,230419,,,A*43
$GNGSA,A,3,19,01,12,06,24,15,17,13,28,02,,,1.2,0.7,0.9*23
$GNGSA,A,3,82,79,78,80,,,,,,,,,1.2,0.7,0.9*22
$PSIWMPVT,799.290,251734.000,3,49.1702248,-123.0996461,0.094,-16.082,0.017,-0.136,6.403,4.183,3.551,0.612,0.500,1.414,8.870,0.105,14,*01
$PSIWMMPU,799.450,-0.49191,0.76180,-10.21583,1.40991,1.77002,-0.33264,*2A
$PSIWMMPU,799.650,-0.32061,0.58235,-9.41479,-1.08948,-0.94604,-0.23193,*1F
$PSIWMMPU,799.850,-0.58475,0.83070,-10.57137,-1.11389,-0.04578,-0.05798,*2E
$PSIWMPOS,001319.850,4910.21325,N,12305.98617,W,3.89,-1.26,M,2.11,2,5,0,2,0,*41
$PSIWMATT,001319.850,269.7,T,-2.2,-1.8,0.9,*7A
$PSIWMVEL,001319.850,269.7,T,58.3,K,0.06,M,*68
$PSIWMMPU,800.050,-0.24596,0.70246,-9.78660,0.00916,-0.48218,-0.18616,*37
$PSIWMMPU,800.250,-0.44598,0.75414,-10.01485,0.48828,1.03149,-0.07324,*28
$GPGGA,215517.000,4910.21346,N,12305.99202,W,1,15,0.7,000.16,M,-16.8,M,,*56
$GPRMC,215517.000,A,4910.21346,N,12305.99202,W,31.3,269.9,230419,,,A*4A
$GNGSA,A,3,19,01,12,06,24,15,17,13,28,02,,,1.2,0.7,0.9*23
$GNGSA,A,3,82,79,81,78,80,,,,,,,,1.2,0.7,0.9*2B
$PSIWMPVT,800.320,251734.999,3,49.1702244,-123.0998669,0.162,-16.101,-0.019,-0.129,6.325,4.123,3.430,0.500,0.000,0.500,7.464,0.148,15,*2B
$PSIWMMPU,800.450,-0.31821,0.67566,-9.93973,-1.59607,-1.99585,-0.29297,*13
$PSIWMMPU,800.650,-0.45746,0.69146,-10.12300,0.27161,0.75378,-0.19531,*2B
$PSIWMMPU,800.850,-0.25170,0.72495,-9.76698,-0.75073,-0.66833,-0.44250,*14
$PSIWMPOS,001320.850,4910.21329,N,12305.99891,W,3.86,-1.18,M,2.09,2,5,0,2,0,*4D
$PSIWMATT,001320.850,269.7,T,-2.1,-1.5,0.9,*7E
$PSIWMVEL,001320.850,269.7,T,56.3,K,0.07,M,*6D
$PSIWMMPU,801.050,-0.44646,0.90009,-10.32780,-0.00916,2.12402,-0.33264,*08
$PSIWMMPU,801.250,-0.05790,0.84793,-9.66458,-0.42725,-1.04370,-0.60120,*1D
$GPGGA,215518.000,4910.21350,N,12306.00528,W,1,14,0.7,000.12,M,-16.8,M,,*57
$GPRMC,215518.000,A,4910.21350,N,12306.00528,W,31.4,270.1,230419,,,A*49
$GNGSA,A,3,19,01,12,06,24,15,17,13,28,02,,,1.2,0.7,0.9*23
$GNGSA,A,3,82,79,78,80,,,,,,,,,1.2,0.7,0.9*22
$PSIWMPVT,801.290,251735.999,3,49.1702249,-123.1000881,0.123,-16.151,0.027,-0.123,6.285,4.062,3.582,0.500,0.000,0.500,8.981,0.172,14,*01
$PSIWMMPU,801.450,-0.27275,0.87425,-9.86699,-0.07629,-0.38452,-0.43640,*1C
$PSIWMMPU,801.650,-0.34692,0.92019,-9.79569,-2.05383,-1.62048,-0.31433,*15
$PSIWMMPU,801.850,-0.27467,0.71395,-9.87656,-0.41199,-1.00098,-0.50964,*1F
$PSIWMPOS,001321.850,4910.21333,N,12306.01201,W,3.86,-1.09,M,2.08,2,5,0,2,0,*47
$PSIWMATT,001321.850,269.6,T,-1.9,-1.5,0.9,*75
$PSIWMVEL,001321.850,269.6,T,55.0,K,0.12,M,*69
$PSIWMMPU,802.050,-0.10336,0.56848,-9.67367,-1.93481,-2.71301,-0.21362,*1A
$PSIWMMPU,802.250,-0.40961,0.79290,-10.12013,0.37842,-0.03052,-0.23804,*07
$GPGGA,215519.000,4910.21350,N,12306.01858,W,1,13,0.7,000.22,M,-16.8,M,,*59
$GPRMC,215519.000,A,4910.21350,N,12306.01858,W,31.7,269.9,230419,,,A*40
$GNGSA,A,3,19,01,12,06,24,15,17,13,28,02,,,1.2,0.7,0.9*23
$GNGSA,A,3,79,78,80,,,,,,,,,,1.2,0.7,0.9*28
$PSIWMPVT,802.290,251736.999,3,49.1702249,-123.1003096,0.221,-16.309,-0.031,-0.111,6.285,4.062,4.223,0.612,0.000,0.612,10.694,0.234,13,*16
$PSIWMMPU,802.450,-0.34310,0.87329,-10.15219,-1.76697,-1.18103,-0.20447,*2A
$PSIWMMPU,802.650,-0.50005,0.86611,-10.27373,-0.44250,1.28174,-0.22583,*04
$PSIWMMPU,802.850,-0.34214,0.85606,-10.14214,-1.75476,-1.08337,-0.21973,*24
$PSIWMPOS,001322.850,4910.21334,N,12306.02510,W,3.85,-1.26,M,2.08,2,5,0,2,0,*49
$PSIWMATT,001322.850,269.6,T,-2.1,-1.9,0.9,*71
$PSIWMVEL,001322.850,269.6,T,54.3,K,0.24,M,*6D
$PSIWMMPU,803.050,-0.37229,0.76658,-9.96317,1.43433,1.78833,-0.39368,*12
$PSIWMMPU,803.250,-0.28041,0.75558,-9.91245,-2.12708,-1.91956,-0.13123,*1F
$GPGGA,215520.000,4910.21353,N,12306.03209,W,1,13,0.7,000.21,M,-16.8,M,,*5F
$GPRMC,215520.000,A,4910.21353,N,12306.03209,W,31.9,269.9,230419,,,A*4B
$GNGSA,A,3,19,01,12,06,24,15,17,13,28,02,,,1.2,0.7,0.9*23
$GNGSA,A,3,79,78,80,,,,,,,,,,1.2,0.7,0.9*28
$PSIWMPVT,803.290,251737.999,3,49.1702255,-123.1005349,0.210,-16.444,-0.027,-0.104,6.245,4.000,5.051,0.612,0.000,0.612,10.662,0.191,13,*18
$PSIWMMPU,803.450,-0.27706,0.72495,-9.63396,2.03857,1.64185,-0.39673,*14
$PSIWMMPU,803.650,-0.34357,0.74553,-9.95265,-2.18201,-3.36914,-0.15259,*19
$PSIWMMPU,803.850,-0.34645,0.70964,-9.76890,2.34070,3.00293,-0.38757,*1F
$PSIWMPOS,001323.850,4910.21337,N,12306.03839,W,3.85,-1.01,M,2.07,2,5,0,2,0,*46
$PSIWMATT,001323.850,269.7,T,-2.0,-1.8,1.0,*79
$PSIWMVEL,001323.850,269.7,T,54.4,K,0.24,M,*6A
$PSIWMMPU,804.050,-0.48474,0.72495,-10.03687,-2.89917,-3.49731,0.03662,*04
$PSIWMMPU,804.250,-0.23399,0.70150,-9.88565,1.19019,1.33057,-0.34790,*15
$GPGGA,215521.000,4910.21355,N,12306.04568,W,1,14,0.7,000.26,M,-16.8,M,,*5F
$GPRMC,215521.000,A,4910.21355,N,12306.04568,W,32.1,270.0,230419,,,A*41
$GNGSA,A,3,19,01,12,06,24,15,17,13,28,02,,,1.2,0.7,0.9*23
$GNGSA,A,3,79,81,78,80,,,,,,,,,1.2,0.7,0.9*21
$PSIWMPVT,804.290,251738.999,3,49.1702259,-123.1007614,0.258,-16.547,0.012,-0.099,6.364,4.183,4.199,0.866,0.612,1.620,10.141,0.117,14,*38
$PSIWMMPU,804.450,-0.49861,0.77089,-10.55031,-2.47192,-2.35291,-0.07629,*29
$PSIWMMPU,804.650,-0.32013,0.70964,-9.75741,1.01318,2.43835,-0.32043,*15
$PSIWMMPU,804.850,-0.44933,0.83884,-10.54888,-1.10474,-1.01318,-0.05493,*22
$PSIWMPOS,001324.850,4910.21340,N,12306.05187,W,3.86,-0.68,M,2.07,2,5,0,2,0,*46
$PSIWMATT,001324.850,269.8,T,-2.0,-2.2,1.0,*78
$PSIWMVEL,001324.850,269.8,T,55.0,K,0.31,M,*63
$PSIWMMPU,805.050,-0.29524,0.59958,-9.31478,-0.70801,-2.26746,-0.36926,*16
$PSIWMMPU,805.250,-0.55316,0.78285,-9.98566,0.65613,1.29089,-0.18005,*18
$GPGGA,215522.000,4910.21361,N,12306.05936,W,1,13,0.7,000.32,M,-16.8,M,,*5F
$GPRMC,215522.000,A,4910.21361,N,12306.05936,W,32.3,270.0,230419,,,A*41
$GNGSA,A,3,19,01,12,06,24,15,17,13,28,02,,,1.2,0.7,0.9*23
$GNGSA,A,3,79,78,80,,,,,,,,,,1.2,0.7,0.9*28
$PSIWMPVT,805.290,251739.999,3,49.1702268,-123.1009893,0.317,-16.607,-0.013,-0.091,6.481,4.301,4.418,0.866,0.612,1.620,12.059,0.359,13,*11
$PSIWMMPU,805.450,-0.15839,0.68906,-9.69520,-0.60425,-1.80054,-0.24719,*15
$PSIWMMPU,805.650,-0.44598,0.67662,-10.03304,0.60425,1.33362,-0.18616,*2C
$PSIWMMPU,805.850,-0.43928,0.70150,-10.24311,-2.86560,-3.43628,-0.07935,*27
$PSIWMPOS,001325.850,4910.21345,N,12306.06555,W,3.89,-1.18,M,2.08,2,5,0,2,0,*4C
$PSIWMATT,001325.850,269.9,T,-2.2,-2.2,1.0,*7A
$PSIWMVEL,001325.850,269.9,T,55.7,K,0.25,M,*61
$PSIWMMPU,806.050,-0.54838,0.52876,-9.82440,2.39868,2.76184,-0.29907,*1A
$PSIWMMPU,806.250,-0.45028,0.59432,-10.27517,-4.41284,-5.38025,0.11292,*05
$GPGGA,215523.000,4910.21364,N,12306.07303,W,1,14,0.7,000.34,M,-16.8,M,,*54
$GPRMC,215523.000,A,4910.21364,N,12306.07303,W,32.3,270.2,230419,,,A*49
$GNGSA,A,3,19,01,12,06,24,15,17,13,28,02,,,1.2,0.7,0.9*23
$GNGSA,A,3,82,79,78,80,,,,,,,,,1.2,0.7,0.9*22
$PSIWMPVT,806.290,251740.999,3,49.1702273,-123.1012171,0.344,-16.651,0.055,-0.092,6.557,4.359,3.738,0.866,0.612,1.620,8.817,0.312,14,*00
$PSIWMMPU,806.450,-0.44789,0.52254,-10.20770,2.05688,3.60718,-0.25330,*28
$PSIWMMPU,806.650,-0.55651,0.54264,-10.38570,-3.49731,-3.79944,0.00610,*08
$PSIWMMPU,806.850,-0.34692,0.42923,-9.50284,2.37732,1.34888,-0.42725,*16
$PSIWMPOS,001326.850,4910.21350,N,12306.07940,W,3.92,-0.76,M,2.09,2,5,0,2,0,*40
$PSIWMATT,001326.850,270.0,T,-2.6,-2.6,1.0,*78
$PSIWMVEL,001326.850,270.0,T,57.3,K,0.31,M,*60
$PSIWMMPU,807.050,-0.61154,0.46990,-10.26799,-2.78931,-2.22778,-0.10681,*24
$PSIWMMPU,807.250,-0.41870,0.49287,-9.80670,-0.09155,1.63574,-0.32959,*3A
$GPGGA,215524.000,4910.21370,N,12306.08666,W,1,15,0.7,000.33,M,-16.8,M,,*59
$GPRMC,215524.000,A,4910.21370,N,12306.08666,W,32.0,270.1,230419,,,A*42
$GNGSA,A,3,19,01,12,06,24,15,17,13,28,02,,,1.2,0.7,0.9*23
$GNGSA,A,3,82,79,81,78,80,,,,,,,,1.2,0.7,0.9*2B
$PSIWMPVT,807.320,251742.000,3,49.1702283,-123.1014444,0.334,-16.473,0.023,-0.019,6.633,4.416,2.547,0.612,0.354,0.354,6.697,0.180,15,*06
$PSIWMMPU,807.450,-0.57374,0.64169,-9.93351,0.35400,1.46179,-0.49438,*13
$PSIWMMPU,807.650,-0.07226,0.56369,-10.05696,-2.07520,-1.00403,-0.85754,*2B
$PSIWMMPU,807.850,-0.22825,0.55508,-10.44456,-0.45166,0.24414,-0.74768,*0D
$PSIWMPOS,001327.850,4910.21356,N,12306.09296,W,3.93,-0.51,M,2.10,2,5,0,2,0,*45
$PSIWMATT,001327.850,269.8,T,-2.1,-2.8,1.0,*70
$PSIWMVEL,001327.850,269.8,T,57.8,K,0.25,M,*6F
$PSIWMMPU,808.050,-0.03972,0.48904,-9.71817,-1.00708,-0.55542,-0.79041,*17
$PSIWMMPU,808.250,-0.32108,0.57183,-10.33211,-0.14648,-0.14343,-0.78735,*2F
$GPGGA,215525.000,4910.21369,N,12306.10019,W,1,14,0.7,000.45,M,-16.8,M,,*57
$GPRMC,215525.000,A,4910.21369,N,12306.10019,W,32.1,269.4,230419,,,A*40
$GNGSA,A,3,19,01,12,06,24,15,17,13,28,02,,,1.2,0.7,0.9*23
$GNGSA,A,3,79,81,78,80,,,,,,,,,1.2,0.7,0.9*21
$PSIWMPVT,808.290,251742.999,3,49.1702282,-123.1016699,0.445,-16.505,-0.186,0.054,6.633,4.416,3.223,0.500,0.354,0.354,8.167,0.414,14,*06
$PSIWMMPU,808.450,-0.16796,0.48617,-9.58706,-0.25635,0.06104,-0.40588,*34
$PSIWMMPU,808.650,-0.39047,0.54455,-10.22301,0.33569,0.47913,-0.44556,*23
$PSIWMMPU,808.850,-0.19093,0.57518,-9.86460,-2.11792,-0.99487,-0.41199,*1E
$PSIWMPOS,001328.850,4910.21356,N,12306.10693,W,3.95,-0.60,M,2.11,2,5,0,2,0,*46
$PSIWMATT,001328.850,269.5,T,-1.9,-2.8,1.0,*79
$PSIWMVEL,001328.850,269.5,T,58.8,K,0.16,M,*62
$PSIWMMPU,809.050,-0.42349,0.69385,-10.47901,0.37842,1.55945,-0.43640,*2A
$PSIWMMPU,809.250,-0.21150,0.68141,-9.92346,-1.43738,-1.23901,-0.43945,*1E
$GPGGA,215526.000,4910.21365,N,12306.11363,W,1,13,0.7,000.58,M,-16.8,M,,*5C
$GPRMC,215526.000,A,4910.21365,N,12306.11363,W,31.6,269.5,230419,,,A*45
$GNGSA,A,3,19,01,12,06,24,15,17,13,28,02,,,1.2,0.7,0.9*23
$GNGSA,A,3,79,78,80,,,,,,,,,,1.2,0.7,0.9*28
$PSIWMPVT,809.290,251743.999,3,49.1702275,-123.1018939,0.582,-16.240,-0.149,0.129,6.595,4.359,4.098,0.354,0.000,0.354,9.543,0.484,13,*0F
$PSIWMMPU,809.450,-0.38999,0.53354,-10.12396,0.57983,1.03760,-0.42419,*2A
$PSIWMMPU,809.650,-0.32491,0.55843,-9.83924,-1.05591,-0.90027,-0.40283,*1E
$PSIWMMPU,809.850,-0.50196,0.62542,-10.59769,-1.51367,-1.47400,-0.36011,*2A
$PSIWMPOS,001329.850,4910.21353,N,12306.12071,W,3.96,-1.26,M,2.12,2,5,0,2,0,*49
$PSIWMATT,001329.850,269.3,T,-1.9,-3.0,1.0,*77
$PSIWMVEL,001329.850,269.3,T,59.2,K,0.18,M,*60
$PSIWMMPU,810.050,-0.20959,0.54024,-9.70286,-0.90637,-0.66528,-0.13733,*14
$PSIWMMPU,810.250,-0.44789,0.66466,-10.43164,-0.00916,-0.09766,-0.24414,*25
$GPGGA,215527.000,4910.21362,N,12306.12691,W,1,14,0.7,000.89,M,-16.8,M,,*5A
$GPRMC,215527.000,A,4910.21362,N,12306.12691,W,31.2,269.7,230419,,,A*4E
$GNGSA,A,3,19,01,12,06,24,15,17,13,28,02,,,1.2,0.7,0.9*23
$GNGSA,A,3,79,81,78,80,,,,,,,,,1.2,0.7,0.9*21
$PSIWMPVT,810.290,251744.999,3,49.1702271,-123.1021152,0.885,-16.082,-0.086,0.189,6.519,4.301,2.984,0.354,0.000,0.354,7.446,0.430,14,*0C
$PSIWMMPU,810.450,-0.19954,0.35362,-9.67080,-1.55334,-1.77917,-0.10986,*1F
$PSIWMMPU,810.650,-0.43593,0.55651,-10.34694,-0.43030,0.18921,-0.16479,*01
$PSIWMMPU,810.850,-0.41774,0.54072,-10.05170,-1.92871,-2.15454,-0.18005,*23
$PSIWMPOS,001330.850,4910.21349,N,12306.13425,W,3.95,-1.84,M,2.12,2,5,0,2,0,*45
$PSIWMATT,001330.850,269.5,T,-2.4,-3.4,1.0,*73
$PSIWMVEL,001330.850,269.5,T,59.3,K,0.21,M,*65
$PSIWMMPU,811.050,-0.63882,0.90057,-10.38331,-0.46082,-0.66223,-0.10376,*29
$PSIWMMPU,811.250,-0.39621,0.74505,-9.23918,1.31226,0.56763,-0.45166,*14
$GPGGA,215528.000,4910.21361,N,12306.14004,W,1,14,0.7,001.17,M,-16.8,M,,*5C
$GPRMC,215528.000,A,4910.21361,N,12306.14004,W,30.8,269.8,230419,,,A*4A
$GNGSA,A,3,19,01,12,06,24,15,17,13,28,02,,,1.2,0.7,0.9*23
$GNGSA,A,3,79,81,78,80,,,,,,,,,1.2,0.7,0.9*21
$PSIWMPVT,811.290,251746.000,3,49.1702268,-123.1023340,1.175,-15.878,-0.063,0.192,6.519,4.243,3.277,0.612,0.000,1.323,7.647,0.477,14,*02
$PSIWMMPU,811.450,-0.42779,0.77232,-9.77990,-1.51978,-2.24609,-0.18005,*13
$PSIWMMPU,811.650,-0.70916,0.18231,-10.70966,5.51758,1.67236,-0.16174,*26
$PSIWMMPU,811.850,-0.85511,0.66131,-9.83158,-2.47498,-0.47302,0.31738,*3E
$PSIWMPOS,001331.850,4910.21346,N,12306.14750,W,3.94,-1.75,M,2.11,2,5,0,2,0,*41
$PSIWMATT,001331.850,269.4,T,-2.4,-2.2,1.0,*74
$PSIWMVEL,001331.850,269.4,T,58.1,K,-0.10,M,*49
$PSIWMMPU,812.050,-0.01340,0.34979,-9.91484,-5.06592,-3.29285,-0.49744,*1A
$PSIWMMPU,812.250,-0.73739,0.95320,-10.54026,1.86157,1.24207,-0.16174,*2C
$GPGGA,215529.000,4910.21364,N,12306.15306,W,1,15,0.7,001.36,M,-16.8,M,,*5A
$GPRMC,215529.000,A,4910.21364,N,12306.15306,W,30.8,269.8,230419,,,A*4E
$GNGSA,A,3,19,01,12,06,24,15,17,13,28,02,,,1.2,0.7,0.9*23
$GNGSA,A,3,82,79,81,78,80,,,,,,,,1.2,0.7,0.9*2B
$PSIWMPVT,812.290,251746.999,3,49.1702273,-123.1025510,1.357,-15.855,-0.057,0.030,6.442,4.123,3.250,0.500,0.000,0.354,6.300,0.301,15,*0A
$PSIWMMPU,812.450,-0.17562,0.60819,-8.57787,-0.21057,-0.70801,-0.13733,*18
$PSIWMMPU,812.650,-0.40243,0.88286,-10.46801,-1.05591,0.83313,0.02747,*21
$PSIWMMPU,812.850,-0.45603,0.87855,-10.27899,-1.66321,-1.42212,-0.08850,*20
$PSIWMPOS,001332.850,4910.21346,N,12306.16040,W,3.92,-0.93,M,2.11,2,5,0,2,0,*49
$PSIWMATT,001332.850,269.6,T,-2.0,-2.4,0.9,*7F
$PSIWMVEL,001332.850,269.6,T,56.6,K,0.03,M,*6E
$PSIWMMPU,813.050,-0.43784,0.63355,-9.24205,-0.55237,-0.17700,-0.14038,*1F
$PSIWMMPU,813.250,-0.40578,0.78955,-10.22636,0.47913,-0.84534,-0.25940,*0D
$GPGGA,215530.000,4910.21365,N,12306.16615,W,1,15,0.7,001.46,M,-16.8,M,,*50
$GPRMC,215530.000,A,4910.21365,N,12306.16615,W,31.2,270.0,230419,,,A*48
$GNGSA,A,3,19,01,12,06,24,15,17,13,28,02,,,1.2,0.7,0.9*23
$GNGSA,A,3,82,79,81,78,80,,,,,,,,1.2,0.7,0.9*2B
$PSIWMPVT,813.320,251747.999,3,49.1702275,-123.1027691,1.455,-16.067,-0.013,0.013,6.325,4.000,4.383,0.354,0.000,0.354,8.703,0.145,15,*02
$PSIWMMPU,813.450,-0.26749,0.57948,-10.10338,-2.60010,-2.72827,0.26245,*04
$PSIWMMPU,813.650,-0.33544,0.63451,-10.30579,-1.66931,0.53406,-0.21667,*0C
$PSIWMMPU,813.850,-0.39047,1.01972,-11.36953,-10.48279,-9.36890,0.48828,*3C
$PSIWMPOS,001333.850,4910.21349,N,12306.17288,W,3.87,-0.93,M,2.09,2,5,0,2,0,*4D
$PSIWMATT,001333.850,269.8,T,-1.9,-2.6,0.9,*78
$PSIWMVEL,001333.850,269.8,T,55.1,K,0.18,M,*6F
$PSIWMMPU,814.050,-0.24117,0.62925,-9.58419,4.28162,4.21753,-0.67749,*16
$PSIWMMPU,814.250,-0.48139,0.86707,-10.39288,-3.70178,-4.22974,0.21362,*0C
$GPGGA,215531.000,4910.21366,N,12306.17937,W,1,14,0.7,001.53,M,-16.8,M,,*59
$GPRMC,215531.000,A,4910.21366,N,12306.17937,W,31.4,270.2,230419,,,A*40
$GNGSA,A,3,19,01,12,06,24,15,17,13,28,02,,,1.2,0.7,0.9*23
$GNGSA,A,3,82,79,78,80,,,,,,,,,1.2,0.7,0.9*22
$PSIWMPVT,814.290,251749.000,3,49.1702277,-123.1029895,1.529,-16.183,0.065,0.010,6.205,3.873,3.965,0.354,0.000,0.354,8.014,0.199,14,*2C
$PSIWMMPU,814.450,-0.39190,0.61202,-9.34158,2.56653,2.52380,-0.28381,*1F
$PSIWMMPU,814.650,-0.39047,0.74601,-10.09859,-0.33264,0.36621,-0.01221,*09
$PSIWMMPU,814.850,-0.24979,0.68332,-9.93781,-2.75879,1.39771,0.23499,*12
$PSIWMPOS,001334.850,4910.21354,N,12306.18599,W,3.84,-1.01,M,2.08,2,5,0,2,0,*46
$PSIWMATT,001334.850,270.0,T,-1.2,-2.4,0.9,*76
$PSIWMVEL,001334.850,270.0,T,55.2,K,0.11,M,*62
$PSIWMMPU,815.050,-0.12729,0.80343,-10.27421,2.57568,4.47388,-0.22278,*20
$PSIWMMPU,815.250,-0.31630,0.77280,-10.33977,-2.04468,-2.17590,0.13733,*09
$GPGGA,215532.000,4910.21374,N,12306.19272,W,1,15,0.7,001.60,M,-16.8,M,,*5C
$GPRMC,215532.000,A,4910.21374,N,12306.19272,W,31.6,270.8,230419,,,A*4C
$GNGSA,A,3,19,01,12,06,24,15,17,13,28,02,,,1.2,0.7,0.9*23
$GNGSA,A,3,82,79,81,78,80,,,,,,,,1.2,0.7,0.9*2B
$PSIWMPVT,815.290,251750.000,3,49.1702290,-123.1032120,1.597,-16.248,0.214,-0.017,6.083,3.808,4.738,0.354,0.000,0.000,8.388,0.141,15,*0F
$PSIWMMPU,815.450,-0.32300,0.69863,-9.83780,-1.52588,-1.65100,0.06409,*3D
$PSIWMMPU,815.650,-0.20911,0.63116,-9.70478,1.66321,2.55737,-0.21973,*17
$PSIWMMPU,815.850,-0.19380,0.76850,-10.16128,-2.23083,-3.07007,-0.17700,*22
$PSIWMPOS,001335.850,4910.21363,N,12306.19928,W,3.81,-0.60,M,2.06,2,5,0,2,0,*49
$PSIWMATT,001335.850,270.3,T,-1.1,-2.7,0.9,*74
$PSIWMVEL,001335.850,270.3,T,55.7,K,0.22,M,*65
$PSIWMMPU,816.050,-0.16317,0.46847,-9.28895,1.68152,1.67847,-0.61646,*1C
$PSIWMMPU,816.250,-0.32396,0.78429,-10.60295,-2.19727,-2.17590,-0.09460,*2C
